     3.02           OBSERVATION DATA    M: Mixed            RINEX VERSION / TYPE
RTKCONV 2.4.2                           20171212 023454 UTC PGM / RUN BY / DATE 
log: G:\1_Research_Project\14_Vehicle Perception(PolyU)\13  COMMENT             
format: u-blox                                              COMMENT             
                                                            MARKER NAME         
                                                            MARKER NUMBER       
                                                            MARKER TYPE         
                                                            OBSERVER / AGENCY   
                                                            REC # / TYPE / VERS 
                                                            ANT # / TYPE        
        0.0000        0.0000        0.0000                  APPROX POSITION XYZ 
        0.0000        0.0000        0.0000                  ANTENNA: DELTA H/E/N
G    4 C1C L1C D1C S1C                                      SYS / # / OBS TYPES 
C    4 C1I L1I D1I S1I                                      SYS / # / OBS TYPES 
  2017    12    11    12    31   59.9960000     GPS         TIME OF FIRST OBS   
  2017    12    11    12    35   35.9960000     GPS         TIME OF LAST OBS    
G                                                           SYS / PHASE SHIFT   
C                                                           SYS / PHASE SHIFT   
  0                                                         GLONASS SLOT / FRQ #
 C1C    0.000 C1P    0.000 C2C    0.000 C2P    0.000        GLONASS COD/PHS/BIS 
                                                            END OF HEADER       
> 2017 12 11 12 31 59.9960000  0 18                     
G 4  20746757.071   109024948.5163      -2920.791          35.000  
G14  20593093.176   108217422.138       -2867.727          38.000  
C 9  35119723.760   182877611.9993      -1136.578          32.000  
G31  21034335.001   110536180.165       -1166.728          36.000  
C 6  35938755.034   187142454.791       -1611.492          35.000  
G32  22593854.495                1      -3790.288          19.000  
G26  20067634.758   105456066.0363      -2033.382          30.000  
G27  20223904.276   106277325.719        2450.841          38.000  
C 1  35818931.552   186518543.9543       -347.632          37.000  
C 2  36197471.029   188489698.9143       -375.134          29.000  
C10  36092982.292   187945601.9133       -653.863          30.000  
G16  19317407.415   101513462.0871       -588.102          33.000  
G 8  22937435.087   120537148.0152       3297.728          26.000  
C 8  38337157.982   199631651.6011       1330.007          30.000  
C14  23503085.506   122386702.0663        236.077          27.000  
C 3  35183159.804   183207914.5413       -350.159          33.000  
C 4  37309415.813   194279887.7303       -351.899          40.000  
C 5  38140070.119   198605322.0953       -373.033          35.000  
> 2017 12 11 12 32  0.9960000  0 19                     
G 4  20747314.518   109027870.0482      -2921.896          35.000  
G14  20593638.626   108220290.753       -2868.523          38.000  
C 9  35119942.402   182878749.0442      -1137.050          31.000  
G31  21034557.116   110537347.010       -1166.918          36.000  
C 6  35939066.154   187144066.888       -1612.597          30.000  
G26  20068032.928   105458100.3112      -2034.733          31.000  
G27  20223437.465   106274875.531        2449.637          35.000  
C 1  35818998.500   186518891.9822       -347.849          36.000  
C 2  36197543.098                        -387.842          28.000  
C10  36093109.618   187946256.2892       -654.366          28.000  
G16  19317511.863   101514050.419        -589.557          28.000  
G 8  22936802.089   120533850.7182       3297.302          27.000  
G22  22304604.581   117211487.2763      -1812.306          39.000  
C 8  38336906.472   199630321.981        1330.445          30.000  
G 3  22339323.944                1      -1353.225          37.000  
C14  23503047.125   122386466.8292        235.638          28.000  
C 3  35183227.790                        -361.719          30.000  
C 4  37309483.589   194280240.0902       -352.584          40.000  
C 5  38140142.057   198605696.6393       -373.358          34.000  
> 2017 12 11 12 32  1.9960000  0 18                     
G 4  20747868.388   109030790.6572      -2920.009          35.000  
G14  20594186.371   108223158.799       -2868.024          40.000  
C 9  35120163.680   182879885.2342      -1135.762          31.000  
G31  21034779.188   110538513.008       -1165.771          38.000  
C 6  35939382.719   187145678.072       -1609.886          32.000  
G32  22595317.016                       -3777.372          21.000  
G26  20068417.313   105460133.8912      -2033.386          30.000  
G27  20222970.306   106272424.764        2451.411          33.000  
C 1  35819065.282   186519239.1602       -346.597          33.000  
C 2  36197615.098                        -376.563          28.000  
G16  19317622.663   101514637.996        -588.249          29.000  
G 8  22936166.866   120530552.5512       3297.926          26.000  
G23  22272162.262                1       2840.465          34.000  
C 8  38336646.883   199628991.420        1331.007          30.000  
C14  23502999.686   122386231.0622        235.740          28.000  
C 3  35183295.741   183208622.1342       -350.520          31.000  
C 4  37309551.078   194280591.4642       -350.783          39.000  
C 5  38140213.542   198606069.3042       -372.316          35.000  
> 2017 12 11 12 32  2.9960000  0 17                     
G 4  20748424.422   109033711.4172      -2921.101          35.000  
G14  20594732.685   108226027.412       -2869.789          41.000  
C 9  35120383.483   182881021.8742      -1138.746          31.000  
G31  21035002.141   110539679.300       -1167.138          39.000  
C 6  35939694.214   187147289.576       -1611.998          32.000  
G26  20068804.891   105462167.7222      -2034.453          30.000  
G27  20222502.352                        2449.204          27.000  
C 1  35819132.029   186519588.4473       -348.041          33.000  
C10  36093358.624                        -650.526          25.000  
G16  19317735.226                        -578.516          30.000  
G22  22305280.646   117215040.3882      -1812.011          41.000  
C 8  38336391.185   199627660.852        1329.561          29.000  
G 3  22339778.200   117396326.3562      -1354.531          37.000  
C14  23502954.970   122386022.4353        233.871          28.000  
C 3  35183363.282   183208973.3042       -351.362          32.000  
C 4  37309618.514   194280942.4831       -352.390          39.000  
C 5  38140284.896   198606440.0383       -374.074          34.000  
> 2017 12 11 12 32  3.9960000  0 19                     
G 4  20748985.202   109036633.3372      -2922.049          35.000  
G14  20595278.405   108228897.297       -2869.972          41.000  
C 9  35120596.960   182882159.2942      -1137.585          32.000  
G31  21035225.224   110540846.478       -1167.285          37.000  
C 6  35940000.195   187148902.011       -1612.409          35.000  
G32  22596773.786                       -3780.682          26.000  
G26  20069188.368   105464202.5402      -2035.001          29.000  
G27  20222032.321                        2448.163          27.000  
C 1  35819198.759   186519936.4792       -347.886          36.000  
G23  22271084.458                        2842.555          29.000  
C10  36093491.725                        -663.214          25.000  
G16  19317850.537   101515989.3163       -590.024          31.000  
G22  22305623.630   117216852.6502      -1812.281          41.000  
C 8  38336134.570   199626331.105        1328.524          29.000  
G 3  22340038.792   117397681.0722      -1355.025          37.000  
C14  23502910.245   122385788.6542        233.265          28.000  
C 3  35183430.675   183209324.2483       -351.273          35.000  
C 4  37309686.038   194281294.815        -352.395          42.000  
C 5  38140356.904   198606815.6122       -373.048          36.000  
> 2017 12 11 12 32  4.9960000  0 19                     
G 4  20749543.129   109039555.4412      -2922.755          35.000  
G14  20595824.745   108231767.790       -2870.902          40.000  
C 9  35120805.830   182883297.1402      -1138.292          34.000  
G31  21035447.854   110542013.995       -1168.158          39.000  
C 6  35940301.324   187150514.720       -1612.673          35.000  
G32  22597486.470   118750592.5843      -3782.141          27.000  
G27  20221558.548                        2447.604          26.000  
C 1  35819265.506   186520284.7202       -348.559          36.000  
G23  22270555.385                        2842.725          30.000  
G16  19317961.800   101516579.4472       -590.707          32.000  
G22  22305969.284   117218665.3212      -1813.015          41.000  
C 2  36197837.833                        -377.016          32.000  
C 8  38335877.180   199624940.9043       1329.941          29.000  
C17  35480225.461                        -275.994          28.000  
G 3  22340333.230   117399036.4152      -1355.899          36.000  
C14  23502873.477   122385555.5092        232.421          31.000  
C 3  35183497.867   183209674.3502       -351.564          36.000  
C 4  37309753.858   194281647.305        -352.693          40.000  
C 5  38140428.537   198607189.4302       -374.377          35.000  
> 2017 12 11 12 32  5.9960000  0 18                     
G 4  20750094.879   109042477.9262      -2922.635          28.000  
G14  20596370.780   108234639.018       -2871.185          40.000  
C 9  35121023.068   182884435.4342      -1137.584          34.000  
G31  21035670.728   110543181.838       -1167.633          39.000  
C 6  35940611.711   187152127.816       -1612.758          36.000  
G32  22598198.116   118754374.5222      -3781.177          29.000  
G27  20221092.941   106262560.4933       2448.080          32.000  
C 1  35819332.541   186520632.1213       -348.206          35.000  
C10  36093734.013   187949512.4733       -655.614          27.000  
G16  19318075.409   101517170.2692       -591.482          32.000  
C 2  36197924.124                        -398.297          30.000  
C 8  38335627.746   199623611.4362       1329.909          28.000  
C17  35480299.049                        -414.544          27.000  
G 3  22340647.735   117400392.4342      -1356.530          35.000  
C14  23502834.345   122385323.0942        232.785          32.000  
C 3  35183565.268   183210025.7742       -351.769          35.000  
C 4  37309821.495   194282000.065        -352.322          40.000  
C 5  38140500.633   198607563.3913       -372.819          34.000  
> 2017 12 11 12 32  6.9960000  0 17                     
G 4  20750652.945   109045399.1631      -2921.093          30.000  
G14  20596916.719   108237510.036       -2871.165          41.000  
C 9  35121240.742   182885573.2922      -1138.116          34.000  
G31  21035893.646   110544349.134       -1167.378          36.000  
C 6  35940921.688   187153740.384       -1612.557          36.000  
G32  22598914.849   118758155.9972      -3781.000          32.000  
G27  20220631.715   106260112.5702       2448.217          32.000  
C 1  35819399.210   186520979.9843       -347.861          34.000  
G16  19318180.041   101517760.8462       -589.464          31.000  
G22  22306647.810   117222225.1793      -1811.449          37.000  
C 2  36197983.167                        -391.895          30.000  
C 8  38335371.150   199622281.2432       1330.476          27.000  
C17  35480371.188                        -429.192          27.000  
C14  23502788.059   122385090.4982        231.230          32.000  
C 3  35183632.696   183210376.5252       -351.484          34.000  
C 4  37309889.368   194282352.149        -351.924          40.000  
C 5  38140572.266   198607936.8153       -373.689          33.000  
> 2017 12 11 12 32  7.9960000  0 19                     
G 4  20751201.065   109048321.039       -2922.888          31.000  
G14  20597463.068   108240381.186       -2871.414          40.000  
C 9  35121461.077   182886710.8992      -1137.484          34.000  
G31  21036116.354   110545516.176       -1167.092          39.000  
C 6  35941231.944   187155352.699       -1612.307          37.000  
G32  22599638.737   118761937.4272      -3782.861          31.000  
G26  20070692.996   105472203.1543      -2035.472          33.000  
G27  20220159.695   106257664.7232       2447.771          31.000  
C 1  35819465.817   186521326.4922       -347.590          35.000  
C10  36093986.072   187950825.7172       -653.055          28.000  
G16  19318295.648   101518351.6392       -591.318          30.000  
C 2  36198052.514                        -383.496          29.000  
C 8  38335109.527   199620950.7212       1331.026          27.000  
C17  35480449.731                        -410.882          26.000  
G 3  22341140.521                       -1356.641          33.000  
C14  23502742.007   122384857.9872        232.506          33.000  
C 3  35183699.931   183210726.9483       -351.483          34.000  
C 4  37309956.804   194282703.935        -351.534          40.000  
C 5  38140643.603   198608309.8032       -373.149          33.000  
> 2017 12 11 12 32  8.9960000  0 21                     
G 4  20751736.988   109051243.700       -2924.255          30.000  
G14  20598009.583   108243253.521       -2872.776          40.000  
C 9  35121678.167   182887849.452       -1138.503          34.000  
G31  21036338.984   110546684.051       -1167.874          39.000  
C 6  35941541.581   187156965.890       -1613.594          37.000  
G32  22600360.512   118765719.6172      -3782.568          30.000  
G26  20071088.933   105474239.1682      -2036.566          31.000  
G27  20219698.957   106255218.0122       2446.135          31.000  
C 1  35819532.730   186521674.7042       -348.200          35.000  
G23  22268322.690   117020825.1032       2838.470          30.000  
C10  36094110.414   187951479.9182       -654.606          28.000  
G16  19318407.557   101518943.5662       -593.221          31.000  
G22  22307333.786   117225829.3342      -1814.288          38.000  
C 2  36198121.617                        -382.227          29.000  
C 8  38334858.122   199619620.9092       1329.209          27.000  
C17  35480516.269                        -331.780          31.000  
G 3  22341401.140   117404855.1323      -1357.293          34.000  
C14  23502702.003   122384626.7112        230.957          34.000  
C 3  35183767.158   183211077.0233       -351.544          34.000  
C 4  37310024.380   194283056.404        -352.488          40.000  
C 5  38140715.611   198608683.5382       -374.074          33.000  
> 2017 12 11 12 32  9.9960000  0 18                     
G 4  20752272.797                       -2920.887          21.000  
G14  20598556.272   108246126.980       -2874.173          40.000  
C 9  35121896.670   182888988.824       -1139.388          34.000  
G31  21036561.946   110547852.707       -1169.032          39.000  
C 6  35941851.654   187158579.853       -1614.362          37.000  
G32  22601081.259   118769502.7072      -3783.508          29.000  
G26  20071482.400   105476276.1232      -2037.503          31.000  
G27  20219239.964   106252772.2932       2445.110          35.000  
C 1  35819599.809   186522024.6213       -349.049          34.000  
C10  36094236.021   187952126.7233       -654.815          28.000  
G16  19318529.115   101519536.4532       -592.293          31.000  
C 2  36198191.714   188493462.3282       -376.740          29.000  
C 8  38334605.364   199618291.6262       1328.672          27.000  
C17  35480593.818                        -420.647          27.000  
C14  23502661.021   122384396.6122        229.241          34.000  
C 3  35183834.734   183211428.8292       -352.561          34.000  
C 4  37310092.480   194283409.564        -353.387          39.000  
C 5  38140787.192   198609055.8933       -374.163          32.000  
> 2017 12 11 12 32 10.9960000  0 20                     
G 4  20752856.349                       -2924.321          20.000  
G14  20599103.537   108249001.071       -2874.011          41.000  
C 9  35122115.591   182890128.621       -1139.932          34.000  
G31  21036784.148   110549021.725       -1169.120          37.000  
C 6  35942161.221   187160194.111       -1614.100          37.000  
G32  22601802.694   118773286.2882      -3783.282          28.000  
G26  20071885.605   105478313.4992      -2036.439          30.000  
G27  20218772.804   106250327.1812       2445.197          36.000  
C 1  35819666.931   186522373.7703       -349.239          34.000  
C10  36094360.214   187952781.7572       -655.361          27.000  
G16  19318644.880   101520130.1772       -593.770          31.000  
G 3  22341917.535   117407568.4683      -1358.059          37.000  
C 2  36198265.485                        -370.410          29.000  
C 8  38334348.462                        1328.993          25.000  
C17  35480659.657                        -309.197          27.000  
G22  22308025.330   117229463.6553      -1816.747          34.000  
C14  23502614.211   122384167.1092        229.319          32.000  
C 3  35183902.057   183211780.8392       -351.996          34.000  
C 4  37310160.623   194283762.914        -353.539          39.000  
C 5  38140859.113   198609430.5352       -375.040          31.000  
> 2017 12 11 12 32 11.9960000  0 18                     
G 4  20753452.536                       -2915.579          20.000  
G14  20599651.159   108251875.398       -2874.394          41.000  
C 9  35122334.565   182891268.328       -1139.761          35.000  
G31  21037006.630   110550190.615       -1168.939          36.000  
C 6  35942471.337   187161808.312       -1614.207          37.000  
G32  22602525.875   118777069.8572      -3783.405          28.000  
G26  20072280.303   105480350.8622      -2037.922          29.000  
G27  20218309.361   106247882.3002       2444.684          37.000  
C 1  35819733.966   186522722.6332       -348.524          35.000  
C10  36094483.447   187953436.3442       -654.311          26.000  
G16  19318761.290   101520724.0942       -594.961          31.000  
C 2  36198336.682                        -364.453          29.000  
C 8  38334094.055                        1330.274          25.000  
C17  35480730.523                        -368.157          27.000  
C14  23502567.872   122383937.9332        229.703          32.000  
C 3  35183969.459   183212130.6333       -351.401          35.000  
C 4  37310228.679   194284116.038        -353.004          39.000  
C 5  38140930.720   198609804.9002       -374.839          30.000  
> 2017 12 11 12 32 12.9960000  0 20                     
G 4  20754033.794                       -2914.029          22.000  
G14  20600198.451   108254750.071       -2874.675          41.000  
C 9  35122553.583   182892408.161       -1140.142          35.000  
G31  21037229.574   110551359.524       -1168.973          37.000  
C 6  35942781.035   187163422.559       -1613.776          37.000  
G32  22603250.914   118780853.577       -3783.282          29.000  
G27  20217846.189   106245437.794        2444.026          37.000  
C 1  35819800.896   186523071.4113       -348.232          34.000  
G23  22266165.686                        2835.990          31.000  
C10  36094610.293   187954090.9172       -653.931          27.000  
G16  19318872.186   101521317.8421       -594.342          31.000  
G22  22308674.940                       -1822.266          33.000  
C 2  36198409.484                        -381.885          29.000  
C 8  38333839.396                        1328.443          23.000  
C17  35480800.324                        -383.416          27.000  
G 3  22342469.573   117410469.1983      -1358.263          34.000  
C14  23502524.534   122383709.1902        228.056          32.000  
C 3  35184036.886   183212481.2853       -350.984          35.000  
C 4  37310296.516   194284469.121        -352.992          39.000  
C 5  38141002.423   198610179.1722       -373.800          30.000  
> 2017 12 11 12 32 13.9960000  0 18                     
G 4  20754592.184                       -2924.929          23.000  
G14  20600745.995   108257625.044       -2874.833          39.000  
C 9  35122772.662   182893547.917       -1139.598          34.000  
G31  21037452.666   110552528.338       -1168.345          37.000  
C 6  35943091.038   187165036.746       -1614.064          37.000  
G32  22603971.032   118784637.352       -3783.874          28.000  
G26  20073050.023   105484588.8503      -2038.284          32.000  
G27  20217378.977   106242993.459        2443.594          36.000  
C 1  35819868.045   186523421.0482       -348.465          34.000  
C10  36094735.847   187954745.2182       -653.769          27.000  
G16  19318983.641   101521912.368        -594.352          31.000  
C 2  36198482.156                        -376.074          28.000  
C 8  38333582.843                        1329.963          24.000  
C17  35480872.855                        -333.123          26.000  
C14  23502479.661   122383480.6362        228.776          33.000  
C 3  35184104.471   183212832.8792       -351.660          35.000  
C 4  37310364.075   194284822.021        -352.977          39.000  
C 5  38141074.449   198610553.2982       -373.752          31.000  
> 2017 12 11 12 32 14.9960000  0 22                     
G 4  20755143.872   109069016.5163      -2922.972          31.000  
G14  20601292.972   108260500.488       -2875.293          39.000  
C 9  35122991.531   182894687.944       -1139.727          34.000  
G31  21037676.221   110553697.345       -1168.310          37.000  
C 6  35943401.024   187166651.084       -1614.041          37.000  
G32  22604687.748   118788421.416       -3783.820          27.000  
G26  20073430.691   105486626.5532      -2038.504          33.000  
G27  20216915.403   106240549.588        2443.584          32.000  
C 1  35819935.272   186523769.7142       -348.565          36.000  
G22  22309310.189                       -1822.562          29.000  
C10  36094864.560   187955399.5352       -653.623          27.000  
G16  19319093.603   101522507.369        -595.918          31.000  
G 8  22928017.013                        3290.838          22.000  
G 3  22342910.051                       -1361.934          33.000  
C 2  36198552.524                        -340.381          28.000  
C 8  38333327.781                        1329.257          25.000  
C17  35480939.035                        -333.123          27.000  
G23  22265023.351                        2835.765          30.000  
C14  23502435.782   122383252.1491        227.928          33.000  
C 3  35184171.611   183213182.4363       -351.091          35.000  
C 4  37310431.808   194285174.962        -353.047          39.000  
C 5  38141146.483   198610927.4463       -374.055          34.000  
> 2017 12 11 12 32 15.9960000  0 21                     
G 4  20755672.710   109071940.1542      -2922.682          30.000  
G14  20601840.403   108263376.338       -2875.884          39.000  
C 9  35123210.558   182895828.070       -1139.692          34.000  
G31  21037899.514   110554866.343       -1168.106          37.000  
C 6  35943710.826   187168265.489       -1613.882          36.000  
G32  22605406.313                       -3783.645          27.000  
G26  20073813.723   105488664.3372      -2037.214          33.000  
G27  20216445.189   106238105.996        2443.302          31.000  
C 1  35820002.376   186524120.2923       -348.168          36.000  
G22  22309665.528                       -1813.700          28.000  
C10  36094992.174   187956053.8262       -654.504          27.000  
G16  19319215.092   101523102.778        -595.682          32.000  
G 8  22927394.816                        3295.107          21.000  
G 3  22343149.285   117414143.7732      -1359.387          34.000  
C 2  36198623.485                        -361.182          28.000  
C 8  38333070.260                        1331.127          25.000  
C17  37879353.003                        -342.278          27.000  
C14  23502390.421   122383024.611         227.617          32.000  
C 3  35184238.724   183213531.9252       -350.879          35.000  
C 4  37310499.523   194285527.789        -352.328          39.000  
C 5  38141218.483   198611301.5542       -373.550          33.000  
> 2017 12 11 12 32 16.9960000  0 21                     
G 4  20756223.151   109074862.6942      -2920.887          30.000  
G14  20602387.563   108266251.516       -2875.281          39.000  
C 9  35123429.383   182896967.260       -1139.417          34.000  
G31  21038122.083   110556034.423       -1168.235          37.000  
C 6  35944020.594   187169878.909       -1613.334          36.000  
G32  22606128.560   118796006.8293      -3783.301          27.000  
G26  20074202.619   105490701.3932      -2036.440          31.000  
G27  20215975.813   106235661.720        2444.486          31.000  
C 1  35820069.010   186524467.8272       -347.561          36.000  
G22  22309990.852   117239792.5352      -1814.821          27.000  
C10  36095120.546   187956706.7962       -652.213          28.000  
G16  19319331.868   101523697.470        -595.417          33.000  
G 8  22926772.149                        3294.523          20.000  
G 3  22343400.699   117415503.0222      -1359.208          34.000  
C 2  36198695.607                        -360.400          28.000  
C 8  38332815.373                        1331.465          26.000  
C17  37879397.955                         -56.878          26.000  
C14  23502345.870   122382796.437         228.237          32.000  
C 3  35184305.881   183213882.3512       -350.813          36.000  
C 4  37310567.152   194285879.538        -351.705          39.000  
C 5  38141290.316   198611674.5372       -372.482          34.000  
> 2017 12 11 12 32 17.9960000  0 22                     
G 4  20756778.190   109077786.1802      -2923.859          31.000  
G14  20602934.933   108269127.674       -2876.587          40.000  
C 9  35123648.139   182898107.171       -1140.645          33.000  
G31  21038344.416   110557203.096       -1168.761          37.000  
C 6  35944330.510   187171493.018       -1614.597          36.000  
G32  22606853.590   118799790.9382      -3784.698          28.000  
G26  20074589.856   105492739.0962      -2038.360          33.000  
G27  20215513.042   106233218.463        2442.590          30.000  
C 1  35820135.644   186524814.8393       -348.245          36.000  
G22  22310346.898   117241607.8582      -1816.073          26.000  
C10  36095247.191   187957360.4142       -654.217          27.000  
G16  19319444.754   101524293.125        -595.977          32.000  
G 8  22926150.214                        3291.362          20.000  
G 3  22343617.099   117416863.1462      -1360.782          32.000  
C 2  36198766.629                        -373.682          28.000  
C 8  38332559.570                        1330.075          26.000  
C17  37879445.245                        -219.598          25.000  
G23  22263458.076                        2834.837          27.000  
C14  23502302.279   122382569.233         227.036          31.000  
C 3  35184373.344   183214233.2793       -351.418          35.000  
C 4  37310634.754   194286231.861        -353.062          39.000  
C 5  38141362.203   198612050.0623       -373.307          34.000  
> 2017 12 11 12 32 18.9960000  0 21                     
G 4  20757331.004   109080710.0462      -2922.938          32.000  
G14  20603482.206   108272004.760       -2877.453          40.000  
C 9  35123866.843   182899247.674       -1140.739          33.000  
G31  21038566.985   110558372.412       -1169.581          36.000  
C 6  35944640.644   187173107.693       -1614.830          35.000  
G32  22607580.584   118803575.6722      -3785.413          29.000  
G26  20074978.185   105494776.9621      -2039.132          33.000  
G27  20215043.466   106230776.088        2441.725          27.000  
C 1  35820202.705   186525163.3952       -349.011          37.000  
G22  22310711.948   117243423.8612      -1816.229          26.000  
C10  36095373.504   187958014.3892       -654.443          27.000  
G16  19319557.788   101524889.720        -596.633          31.000  
G 8  22925525.994                        3291.631          20.000  
G 3  22343846.081   117418224.1292      -1361.169          32.000  
C 2  36198839.309                        -359.912          28.000  
C 8  38332304.815                        1329.233          26.000  
C17  37879490.868                        -107.537          23.000  
C14  23502258.218   122382343.059         226.398          31.000  
C 3  35184440.597   183214583.6433       -351.136          34.000  
C 4  37310702.469   194286584.610        -353.037          40.000  
C 5  38141434.377   198612426.0482       -373.917          34.000  
> 2017 12 11 12 32 19.9960000  0 20                     
G 4  20757890.790   109083634.1262      -2923.391          32.000  
G14  20604029.934   108274882.444       -2878.863          40.000  
C 9  35124081.830   182900388.507       -1140.864          33.000  
G31  21038789.056   110559541.886       -1169.151          35.000  
C 6  35944950.481   187174722.609       -1615.130          35.000  
G32  22608296.531   118807360.7372      -3785.626          29.000  
G26  20075370.361   105496815.675       -2038.598          32.000  
G27  20214568.052   106228271.7123       2440.375          27.000  
C 1  35820269.583   186525512.0262       -348.327          37.000  
G22  22311071.867   117245240.2362      -1816.603          27.000  
C10  36095498.780   187958668.3682       -654.116          27.000  
G16  19319666.014   101525486.917        -597.201          31.000  
G 8  22924902.419                        3301.059          19.000  
G 3  22344105.182   117419585.6232      -1361.980          32.000  
C 8  38332052.424   199605024.1533       1330.853          26.000  
C17  37879533.813                        -262.322          21.000  
C14  23502210.962   122382117.472         224.434          30.000  
C 3  35184508.007   183214935.2162       -351.658          35.000  
C 4  37310770.141   194286937.481        -352.986          41.000  
C 5  38141506.429   198612800.1472       -373.691          34.000  
> 2017 12 11 12 32 20.9960000  0 21                     
G 4  20758446.832                       -2923.776          25.000  
G14  20604577.487   108277760.545       -2878.724          39.000  
C 9  35124304.355   182901529.481       -1141.155          33.000  
G31  21039011.258   110560711.489       -1169.525          38.000  
C 6  35945261.810   187176337.707       -1617.664          31.000  
G32  22609011.929   118811145.8522      -3785.938          29.000  
G26  20075746.745   105498760.5863      -2038.862          32.000  
G27  20214116.344   106225830.0432       2441.538          35.000  
C 1  35820336.382   186525860.5902       -348.748          35.000  
G22  22311407.871                       -1815.719          25.000  
C10  36095623.837   187959321.8571       -654.521          27.000  
G16  19319777.093   101526084.510        -598.074          32.000  
G 8  22924275.162                        3302.298          18.000  
G 3  22344378.810   117420947.4012      -1362.026          32.000  
C 2  36198985.560                        -378.027          30.000  
C 8  38331796.551                        1322.678          26.000  
C17  37879589.584                        -244.012          18.000  
C14  23502164.789   122381892.188         226.104          30.000  
C 3  35184575.330   183215286.6982       -351.078          36.000  
C 4  37310837.997   194287290.354        -352.838          39.000  
C 5  38141578.289   198613174.2232       -373.908          34.000  
> 2017 12 11 12 32 21.9960000  0 20                     
G 4  20759004.061                       -2922.178          21.000  
G14  20605125.485   108280639.198       -2878.744          39.000  
C 9  35124523.015   182902670.823       -1141.211          29.000  
G31  21039234.342   110561881.278       -1169.589          35.000  
C 6  35945573.279   187177952.944       -1615.042          25.000  
G32  22609725.189   118814931.2842      -3785.382          27.000  
G26  20076122.099   105500799.7082      -2039.658          31.000  
G27  20213653.634   106223388.8112       2442.079          31.000  
C 1  35820403.836   186526211.3763       -349.290          32.000  
C10  36095749.626                        -653.013          26.000  
G16  19319892.806   101526682.619        -598.237          32.000  
G 8  22923645.986                        3304.561          17.000  
G 3  22344643.355   117422309.7262      -1361.896          31.000  
C 2  36199057.786                        -373.730          29.000  
C 8  38331539.108   199602351.4973       1330.135          27.000  
C17  37879638.619                        -244.012          15.000  
C14  23502119.358   122381667.545         224.634          29.000  
C 3  35184643.020   183215637.3333       -351.637          35.000  
C 4  37310905.529   194287643.327        -352.942          37.000  
C 5  38141650.280   198613548.3652       -373.685          34.000  
> 2017 12 11 12 32 22.9960000  0 20                     
G 4  20759570.417                       -2927.285          21.000  
G14  20605673.753   108283518.366       -2879.927          39.000  
C 9  35124741.457   182903812.369       -1142.315          29.000  
G31  21039457.094   110563051.209       -1169.782          33.000  
C 6  35945881.799   187179568.219       -1613.157          28.000  
G32  22610436.216                       -3783.752          25.000  
G26  20076509.747   105502839.1592      -2039.973          32.000  
G27  20213196.404   106221063.3703       2439.998          30.000  
C 1  35820470.697   186526559.1032       -348.834          32.000  
C10  36095873.680                        -661.134          23.000  
G16  19320008.998   101527281.265        -598.666          32.000  
G 8  22923018.049                        3299.008          18.000  
G 3  22344893.513   117423672.6112      -1364.247          34.000  
C 2  36199131.522                        -369.336          29.000  
C 8  38331282.537   199601021.3682       1329.547          26.000  
C17  37879686.703                        -233.025          14.000  
C14  23502079.187                         222.844          27.000  
C 3  35184710.578   183215989.0022       -352.330          34.000  
C 4  37310973.419   194287997.8433       -353.631          39.000  
C 5  38141722.305   198613922.6342       -374.404          34.000  
> 2017 12 11 12 32 23.9960000  0 20                     
G 4  20760122.097                       -2916.276          20.000  
G14  20606221.917   108286397.907       -2879.429          38.000  
C 9  35124960.448   182904953.921       -1141.722          32.000  
G31  21039679.296   110564221.342       -1170.375          34.000  
C 6  35946194.594   187181183.684       -1614.980          33.000  
G32  22611152.835                       -3786.129          26.000  
G26  20076907.210   105504878.8442      -2040.840          30.000  
G27  20212727.115   106218623.3732       2439.486          34.000  
C 1  35820537.697   186526907.8512       -349.022          32.000  
C10  36095999.147                        -649.363          24.000  
G16  19320123.550   101527880.303        -598.764          27.000  
G 8  22922389.684                        3289.361          18.000  
G 3  22345160.510   117425035.8022      -1363.337          33.000  
C 2  36199203.609   188498720.4903       -376.035          30.000  
C 8  38331025.557   199599691.1712       1330.531          26.000  
C17  37879726.595                        -170.037          11.000  
C14  23502033.302   122381223.0953        222.887          28.000  
C 3  35184778.163   183216340.6372       -351.219          34.000  
C 4  37311041.126   194288350.8282       -352.869          40.000  
C 5  38141794.375   198614296.8962       -373.595          33.000  
> 2017 12 11 12 32 24.9960000  0 20                     
G 4  20760680.722                       -2925.570          28.000  
G14  20606769.880   108289277.670       -2879.923          41.000  
C 9  35125183.724   182906095.643       -1141.987          33.000  
G31  21039901.237   110565391.304       -1168.694          33.000  
C 6  35946503.969   187182799.200       -1615.679          34.000  
G32  22611860.005                       -3789.325          25.000  
G26  20077300.722   105506918.2782      -2040.072          31.000  
G27  20212263.227                        2460.190          22.000  
C 1  35820604.514   186527256.4002       -348.465          35.000  
C10  36096123.567                        -654.820          25.000  
G16  19320235.990   101528479.517        -600.031          28.000  
G 8  22921762.078                        3297.205          19.000  
G 3  22345419.358   117426399.1622      -1364.442          36.000  
C 2  36199276.638                        -387.744          28.000  
C 8  38330771.743                        1334.023          25.000  
G23  22259722.141                        2834.453          24.000  
C14  23501990.130   122380999.6242        224.111          27.000  
C 3  35184845.678   183216693.1373       -352.043          36.000  
C 4  37311108.772   194288703.6072       -352.963          40.000  
C 5  38141866.130   198614670.8842       -374.252          33.000  
> 2017 12 11 12 32 25.9960000  0 19                     
G 4  20761241.886                       -2941.414          19.000  
G14  20607317.904   108292157.742       -2880.134          41.000  
C 9  35125403.570   182907237.204       -1141.207          29.000  
G31  21040123.020   110566561.222       -1169.850          32.000  
C 6  35946815.639   187184414.535       -1614.666          31.000  
G32  22612582.479                       -3783.888          24.000  
G26  20077688.753   105508957.8872      -2039.055          32.000  
G27  20211790.972                        2437.075          22.000  
C 1  35820671.627                        -350.161          32.000  
C10  36096249.654                        -649.192          23.000  
G16  19320344.880   101529097.5423       -599.575          26.000  
G 8  22921130.877                        3296.117          18.000  
G 3  22345667.430   117427762.6942      -1363.811          34.000  
C 8  38330517.529                        1336.016          23.000  
C17  37879784.215                        -123.162          11.000  
C14  23501938.809                         224.263          24.000  
C 3  35184912.896   183217044.4052       -351.122          34.000  
C 4  37311176.452   194289056.2322       -352.479          36.000  
C 5  38141937.720   198615044.7082       -373.229          29.000  
> 2017 12 11 12 32 26.9960000  0 19                     
G 4  20761802.910                       -2929.480          18.000  
G14  20607865.710   108295037.432       -2879.846          41.000  
C 9  35125617.274   182908378.170       -1141.469          31.000  
G31  21040344.647   110567730.358       -1169.052          32.000  
C 6  35947122.449   187186029.200       -1614.858          33.000  
G32  22613306.297                       -3784.379          25.000  
G26  20078076.480   105510996.8792      -2039.668          34.000  
G27  20211303.055                        2441.217          20.000  
C 1  35820738.365   186527953.3423       -348.036          36.000  
C10  36096373.315                        -659.578          23.000  
G16  19320456.422                        -599.876          25.000  
G 8  22920497.530                        3298.318          20.000  
G 3  22345929.480   117429125.8022      -1363.255          34.000  
C 8  38330262.729                        1331.158          23.000  
C17  37879809.666                        -123.162          12.000  
C14  23501893.115                         230.599          23.000  
C 3  35184980.210   183217393.8183       -349.954          37.000  
C 4  37311243.863   194289407.9932       -351.287          40.000  
C 5  38142009.143   198615418.6523       -372.098          30.000  
> 2017 12 11 12 32 27.9960000  0 18                     
G14  20608413.847   108297917.727       -2881.263          41.000  
C 9  35125840.305   182909519.410       -1141.752          31.000  
G31  21040566.012   110568899.862       -1170.452          32.000  
C 6  35947433.848   187187644.145       -1615.856          33.000  
G32  22614037.478                       -3787.422          25.000  
G26  20078466.614   105513036.2132      -2039.938          37.000  
G27  20210830.948                        2436.744          21.000  
C 1  35820805.104   186528300.0433       -348.254          34.000  
C10  36096499.951                        -653.120          22.000  
G16  19320559.596                        -596.478          23.000  
G 8  22919864.803                        3296.913          22.000  
G 3  22346190.570   117430489.4592      -1364.729          35.000  
C 8  38330006.822                        1337.663          23.000  
C17  37879833.556                        -123.162          11.000  
C14  23501848.469                         217.051          20.000  
C 3  35185047.490   183217743.4152       -351.661          35.000  
C 4  37311311.526   194289759.9382       -352.726          39.000  
C 5  38142081.553                        -379.150          30.000  
> 2017 12 11 12 32 28.9960000  0 18                     
G14  20608961.932   108300799.452       -2882.296          41.000  
C 9  35126055.589   182910661.838       -1142.640          30.000  
G31  21040782.892   110570070.326       -1170.281          33.000  
C 6  35947743.074   187189260.124       -1616.113          32.000  
G32  22614764.655                       -3787.937          25.000  
G26  20078854.271   105515076.7862      -2041.152          36.000  
G27  20210364.303                        2439.247          21.000  
C 1  35820872.025   186528648.7252       -349.296          33.000  
C10  36096629.780                        -650.683          22.000  
G16  19320664.315                        -603.771          21.000  
G 8  22919231.159                        3289.454          22.000  
G 3  22346453.196   117431854.4762      -1365.428          35.000  
G23  22257562.520                        2832.931          23.000  
C 8  38329752.624                        1336.371          22.000  
C14  23501806.213                         216.542          19.000  
C 3  35185115.179   183218096.0113       -352.008          34.000  
C 4  37311379.608   194290112.8312       -352.977          37.000  
C 5  38142152.863                        -378.418          29.000  
> 2017 12 11 12 32 29.9960000  0 17                     
G14  20609510.524   108303682.058       -2882.470          41.000  
C 9  35126275.025   182911804.868       -1143.043          29.000  
G31  21041009.570   110571241.427       -1170.364          32.000  
C 6  35948058.984   187190876.734       -1616.769          29.000  
G32  22615492.259                       -3786.531          24.000  
G26  20079242.625   105517117.8962      -2040.840          36.000  
G27  20209909.961                        2437.985          23.000  
C 1  35820939.095   186528997.8242       -348.869          34.000  
C10  36096756.303                        -652.256          22.000  
G16  19320767.550                        -606.916          19.000  
G 8  22918598.266                        3296.878          23.000  
G 3  22346713.946   117433220.3412      -1365.349          36.000  
C 8  38329496.403                        1331.820          22.000  
C14  23501768.338                         216.542          17.000  
C 3  35185182.973   183218448.0052       -352.395          34.000  
C 4  37311447.594   194290465.6861       -353.204          38.000  
C 5  38142224.566                        -362.645          30.000  
> 2017 12 11 12 32 30.9960000  0 17                     
G14  20610059.202   108306564.697       -2882.752          40.000  
C 9  35126494.662   182912947.699       -1143.971          29.000  
G31  21041225.630   110572412.229       -1171.229          32.000  
C 6  35948366.004   187192492.949       -1616.262          31.000  
G32  22616213.285                       -3787.084          22.000  
G26  20079631.259   105519158.798       -2040.133          35.000  
G27  20209448.839                        2445.411          24.000  
C 1  35821006.305   186529348.0063       -348.703          34.000  
C10  36096881.360                        -649.951          21.000  
G16  19320881.238                        -606.916          17.000  
G 8  22917967.685                        3285.216          23.000  
G 3  22346973.692   117434586.1732      -1366.258          36.000  
C 8  38329241.359                        1325.797          23.000  
C14  23501729.930                         223.680          17.000  
C 3  35185250.436   183218800.5433       -351.785          34.000  
C 4  37311515.562   194290818.587        -352.531          38.000  
C 5  38142296.322                        -372.266          30.000  
> 2017 12 11 12 32 31.9960000  0 17                     
G14  20610608.029   108309447.773       -2883.193          38.000  
C 9  35126715.626   182914090.479       -1142.404          32.000  
G31  21041448.382   110573583.018       -1170.790          36.000  
C 6  35948675.143   187194109.351       -1616.216          35.000  
G32  22616932.260                       -3788.832          21.000  
G27  20208991.800                        2436.855          34.000  
C 1  35821073.366   186529696.7242       -348.993          35.000  
G22  22315193.260                       -1812.306          22.000  
C10  36097007.281                        -654.800          23.000  
G16  19321000.013                        -597.284          16.000  
G 8  22917336.694                        3294.318          22.000  
G 3  22347232.994   117435952.3862      -1366.210          36.000  
C 8  38328985.827                        1338.637          24.000  
C14  23501698.720                         215.884          20.000  
C 3  35185317.732   183219151.1072       -352.065          35.000  
C 4  37311583.444   194291171.514        -352.746          39.000  
C 5  38142367.754   198617286.7722       -373.922          31.000  
> 2017 12 11 12 32 32.9960000  0 17                     
G14  20611156.821   108312331.463       -2884.129          37.000  
C 9  35126932.785   182915233.666       -1142.416          32.000  
G31  21041672.539   110574754.046       -1170.583          36.000  
C 6  35948985.268   187195725.952       -1616.397          35.000  
G32  22617647.396                       -3788.809          23.000  
G27  20208552.002   106196656.5493       2436.466          34.000  
C 1  35821140.471   186530045.4632       -348.345          36.000  
G22  22315552.350                       -1812.306          25.000  
C10  36097136.517   187967230.2413       -653.041          29.000  
G16  19321120.568                        -599.301          18.000  
G 8  22916707.649                        3301.371          22.000  
G 3  22347491.754   117437319.0742      -1366.263          34.000  
C 8  38328729.396   199587720.6543       1330.721          26.000  
C14  23501667.030   122379316.1363        218.978          26.000  
C 3  35185385.204   183219502.7202       -351.271          35.000  
C 4  37311651.063   194291524.525        -352.837          40.000  
C 5  38142439.658   198617660.9852       -373.566          33.000  
> 2017 12 11 12 32 33.9960000  0 17                     
G14  20611706.058   108315215.583       -2884.640          37.000  
C 9  35127152.946   182916377.185       -1144.209          33.000  
G31  21041898.275   110575925.357       -1171.355          36.000  
C 6  35949293.422   187197342.777       -1616.965          31.000  
G32  22618363.902                       -3789.035          24.000  
G27  20208093.873   106194220.5612       2435.836          38.000  
C 1  35821207.227   186530394.3083       -348.882          35.000  
G22  22315923.412                       -1812.306          27.000  
C10  36097259.489   187967883.9082       -654.048          31.000  
G16  19321238.314                        -603.948          23.000  
G 8  22916078.254                        3293.007          21.000  
G 3  22347750.628   117438686.3112      -1367.942          31.000  
C 8  38328473.183   199586390.0152       1331.102          28.000  
C14  23501636.510   122379097.4522        218.781          32.000  
C 3  35185452.823   183219854.5392       -352.174          31.000  
C 4  37311718.517   194291877.659        -353.402          38.000  
C 5  38142511.587   198618035.3023       -373.665          34.000  
> 2017 12 11 12 32 34.9960000  0 17                     
G14  20612254.693   108318100.146       -2884.361          36.000  
C 9  35127375.506   182917520.730       -1142.554          33.000  
G31  21042117.528   110577096.635       -1170.822          35.000  
C 6  35949603.006   187198959.660       -1616.411          32.000  
G32  22619090.206   118864121.0003      -3787.689          26.000  
G27  20207633.362   106191784.9322       2435.773          39.000  
C 1  35821274.122   186530743.1002       -348.805          35.000  
G22  22316279.702                       -1815.869          32.000  
C10  36097382.129   187968537.3722       -653.031          31.000  
G16  19321357.568                        -604.441          26.000  
G 8  22915450.692                        3295.660          22.000  
G 3  22348021.874   117440053.7262      -1367.027          33.000  
C 8  38328219.073   199585059.2482       1331.392          28.000  
C14  23501600.118   122378879.1772        217.921          32.000  
C 3  35185520.338   183220206.1992       -350.992          33.000  
C 4  37311786.198   194292230.666        -352.911          39.000  
C 5  38142583.613   198618410.5492       -374.241          33.000  
> 2017 12 11 12 32 35.9960000  0 17                     
G14  20612803.764   108320984.737       -2885.575          38.000  
C 9  35127594.873   182918664.081       -1143.602          34.000  
G31  21042341.118   110578267.628       -1170.876          36.000  
C 6  35949914.623   187200576.194       -1617.235          33.000  
G32  22619818.544   118867909.2622      -3788.202          28.000  
G27  20207169.919   106189349.2892       2434.674          37.000  
C 1  35821341.035   186531091.4712       -348.149          36.000  
G22  22316640.843   117274738.4153      -1819.661          31.000  
C10  36097511.810   187969190.3922       -652.926          32.000  
G16  19321479.240                        -602.689          26.000  
G 8  22914824.430                        3297.868          23.000  
G 3  22348288.680   117441421.1802      -1367.236          34.000  
C 8  38327963.689   199583727.9992       1331.577          28.000  
C14  23501552.967   122378660.9052        217.996          33.000  
C 3  35185587.975   183220557.4382       -350.648          36.000  
C 4  37311853.844   194292583.249        -352.306          40.000  
C 5  38142655.342   198618784.3273       -373.838          34.000  
> 2017 12 11 12 32 36.9960000  0 17                     
G14  20613352.503   108323869.578       -2884.688          38.000  
C 9  35127814.100   182919807.453       -1142.698          33.000  
G31  21042566.313   110579438.652       -1170.489          36.000  
C 6  35950224.644   187202192.762       -1616.109          34.000  
G32  22620554.315   118871697.6502      -3788.428          30.000  
G27  20206703.876   106186913.9892       2435.431          36.000  
C 1  35821407.991   186531439.7502       -347.408          35.000  
G22  22316984.245   117276558.1652      -1819.389          29.000  
C10  36097636.667   187969843.2682       -651.930          32.000  
G16  19321597.779                        -603.077          26.000  
G 8  22914195.297                        3296.573          24.000  
G 3  22348562.770   117442788.945       -1367.819          36.000  
C 8  38327708.340   199582396.6102       1331.811          28.000  
C14  23501502.405   122378443.0142        218.815          32.000  
C 3  35185655.316   183220908.6373       -350.455          35.000  
C 4  37311921.594   194292935.769        -351.866          40.000  
C 5  38142726.975   198619157.0772       -373.818          34.000  
> 2017 12 11 12 32 37.9960000  0 17                     
G14  20613901.461   108326754.244       -2884.927          38.000  
C 9  35128032.472   182920950.393       -1143.796          35.000  
G31  21042786.212   110580609.101       -1170.040          34.000  
C 6  35950534.751   187203808.797       -1616.306          35.000  
G32  22621279.851   118875485.6442      -3788.837          29.000  
G27  20206242.317   106184478.3972       2435.312          37.000  
C 1  35821474.878   186531787.3592       -347.494          36.000  
G22  22317330.589   117278377.4172      -1819.881          28.000  
C10  36097759.813   187970495.4672       -651.602          34.000  
G16  19321712.549                        -603.582          25.000  
G 8  22913565.623                        3290.689          25.000  
G 3  22348796.411   117444156.376       -1367.509          35.000  
C 8  38327448.585   199581064.4862       1331.677          28.000  
C14  23501460.429   122378224.9532        218.345          34.000  
C 3  35185722.830   183221260.1852       -351.106          36.000  
C 4  37311989.109   194293287.633        -352.470          41.000  
C 5  38142798.513   198619529.0903       -373.000          34.000  
> 2017 12 11 12 32 38.9960000  0 18                     
G14  20614450.672   108329640.053       -2886.249          37.000  
C 9  35128252.606   182922094.152       -1144.032          35.000  
G31  21043009.077   110581780.412       -1172.131          34.000  
C 6  35950845.601   187205425.664       -1617.446          35.000  
G32  22621993.146   118879274.4372      -3789.368          29.000  
G27  20205778.526   106182043.9252       2433.865          36.000  
C 1  35821542.070   186532137.6913       -348.766          35.000  
G22  22317667.264   117280197.5532      -1820.441          27.000  
C10  36097885.655   187971148.3022       -653.476          33.000  
G16  19321825.540                        -605.234          24.000  
G 8  22912938.070                        3299.797          24.000  
G 3  22349049.474   117445524.881       -1368.831          34.000  
C 7  35809886.145                1       -605.032          26.000  
C 8  38327197.380   199579733.0242       1330.705          28.000  
C14  23501417.248   122378008.0742        216.063          33.000  
C 3  35185790.275   183221611.3993       -352.717          35.000  
C 4  37312056.947   194293640.6523       -352.827          40.000  
C 5  38142870.591   198619904.8193       -373.771          34.000  
> 2017 12 11 12 32 39.9960000  0 19                     
G14  20615000.109   108332526.733       -2886.871          37.000  
C 9  35128472.671   182923238.510       -1144.589          34.000  
G31  21043231.707   110582952.204       -1172.221          33.000  
C 6  35951155.866   187207043.001       -1617.032          35.000  
G32  22622705.525   118883063.8582      -3789.538          28.000  
G27  20205314.690   106179610.2542       2433.550          35.000  
C 1  35821608.983   186532486.3833       -347.904          34.000  
G22  22318015.091   117282018.3532      -1821.199          27.000  
C10  36098011.009   187971801.4712       -652.898          32.000  
G16  19321944.280                        -603.266          23.000  
G 8  22912313.387                        3296.053          23.000  
G 3  22349305.643   117446894.233       -1369.642          34.000  
C 7  35810003.140   186472052.2053       -605.867          26.000  
G23  22253453.054                        2642.390          13.000  
C 8  38326940.304   199578401.8622       1330.783          27.000  
C14  23501377.366   122377792.0622        215.186          32.000  
C 3  35185857.642   183221961.9672       -351.759          34.000  
C 4  37312124.758   194293993.5592       -352.672          39.000  
C 5  38142942.189   198620277.9643       -373.904          33.000  
> 2017 12 11 12 32 40.9960000  0 18                     
G14  20615549.241   108335413.641       -2887.186          37.000  
C 9  35128692.509   182924382.798       -1144.467          34.000  
G31  21043453.953   110584123.914       -1172.591          34.000  
C 6  35951466.305   187208660.303       -1617.437          35.000  
G32  22623416.936   118886853.2622      -3789.191          28.000  
G27  20204851.744   106177176.7692       2433.232          35.000  
C 1  35821676.166   186532835.9162       -348.910          34.000  
G22  22318362.961   117283839.0582      -1820.722          28.000  
C10  36098136.799   187972454.3232       -651.686          32.000  
G16  19322058.831                        -607.534          24.000  
G 8  22911690.161                        3295.028          23.000  
G 3  22349562.990   117448263.755       -1369.723          34.000  
C 7  35810119.384   186472657.9222       -605.552          26.000  
C 8  38326685.469   199577070.4672       1331.171          27.000  
C14  23501338.931   122377576.3192        215.355          33.000  
C 3  35185925.087   183222313.3653       -351.857          34.000  
C 4  37312192.273   194294346.2782       -352.470          39.000  
C 5  38143014.276   198620652.8882       -373.551          33.000  
> 2017 12 11 12 32 41.9960000  0 18                     
G14  20616098.984   108338301.047       -2887.913          39.000  
C 9  35128912.486   182925527.306       -1144.669          34.000  
G31  21043676.766   110585295.682       -1171.514          37.000  
C 6  35951776.936   187210277.739       -1617.762          35.000  
G32  22624133.974   118890642.9612      -3789.447          28.000  
G27  20204389.113   106174743.7312       2432.642          38.000  
C 1  35821743.053   186533184.4142       -348.159          34.000  
G22  22318713.850   117285660.1182      -1821.143          29.000  
C10  36098262.135   187973107.2492       -653.237          32.000  
G16  19322174.596                        -607.905          24.000  
G 8  22911065.941                        3289.245          25.000  
G 3  22349824.124   117449633.677       -1370.844          37.000  
C 7  35810232.924   186473263.5692       -605.431          26.000  
C 8  38326430.373   199575739.0292       1331.346          28.000  
C14  23501294.512   122377361.0732        215.132          33.000  
C 3  35185992.515   183222664.7763       -351.511          34.000  
C 4  37312259.954   194294699.0542       -352.919          39.000  
C 5  38143086.197   198621027.8463       -374.034          33.000  
> 2017 12 11 12 32 42.9960000  0 17                     
G14  20616648.692   108341189.121       -2888.229          38.000  
C 9  35129132.525   182926672.251       -1145.126          34.000  
G31  21043899.666   110586467.953       -1172.433          35.000  
C 6  35952087.917   187211895.555       -1617.788          35.000  
G32  22624857.922   118894432.6931      -3790.332          28.000  
G27  20203926.455   106172310.8611       2431.912          37.000  
C 1  35821809.826   186533532.2013       -348.909          34.000  
C10  36098387.593   187973760.3462       -653.111          33.000  
G16  19322291.076                        -607.245          25.000  
G 8  22910442.122                        3294.546          26.000  
G 3  22350085.171   117451004.221       -1370.453          35.000  
C 7  35810351.071   186473869.4462       -605.384          26.000  
C 8  38326174.920   199574407.8092       1331.025          28.000  
C14  23501254.481   122377146.5922        214.588          32.000  
C 3  35186060.169   183223017.4623       -351.510          34.000  
C 4  37312327.818   194295052.0362       -352.645          39.000  
C 5  38143158.310   198621403.0332       -373.824          33.000  
> 2017 12 11 12 32 43.9960000  0 18                     
G14  20617198.653   108344077.689       -2888.805          39.000  
C 9  35129352.755   182927817.353       -1144.685          34.000  
G31  21044122.314   110587640.258       -1172.651          35.000  
C 6  35952398.662   187213513.513       -1618.182          35.000  
G32  22625581.940   118898223.069       -3790.637          28.000  
G27  20203463.885   106169878.924        2432.100          36.000  
C 1  35821876.730   186533880.9862       -348.531          34.000  
G22  22319411.257                       -1824.109          31.000  
C10  36098513.156   187974413.4342       -653.013          33.000  
G16  19322407.286                        -613.874          25.000  
G 8  22909819.821                        3295.024          26.000  
G 3  22350346.305   117452375.150       -1370.961          36.000  
C 7  35810465.701                        -606.195          26.000  
C 8  38325916.761   199573076.5302       1331.643          28.000  
C14  23501208.482   122376932.5712        213.978          32.000  
C 3  35186127.780   183223369.1692       -352.097          35.000  
C 4  37312395.586   194295405.0642       -353.004          39.000  
C 5  38143229.856   198621775.2793       -374.757          33.000  
> 2017 12 11 12 32 44.9960000  0 18                     
G14  20617748.946   108346966.679       -2889.076          39.000  
C 9  35129572.733   182928962.600       -1144.130          34.000  
G31  21044345.275   110588812.705       -1172.707          34.000  
C 6  35952709.686   187215131.575       -1618.024          35.000  
G32  22626306.622   118902013.633       -3790.313          28.000  
G27  20203001.236   106167447.383        2430.968          36.000  
C 1  35821943.739   186534229.7833       -348.460          34.000  
G22  22319748.430   117291068.7973      -1821.013          30.000  
C10  36098638.859   187975065.9351       -652.512          32.000  
G16  19322522.763                        -613.692          24.000  
G 8  22909196.953                        3294.697          26.000  
G 3  22350607.718   117453746.522       -1371.931          35.000  
C 7  35810579.616                        -605.528          25.000  
C 8  38325662.660   199571744.7261       1331.133          28.000  
C14  23501164.499   122376718.5131        212.780          32.000  
C 3  35186195.330   183223720.8252       -351.643          35.000  
C 4  37312463.493   194295758.0732       -352.887          39.000  
C 5  38143301.567   198622149.4433       -373.749          33.000  
> 2017 12 11 12 32 45.9960000  0 17                     
G14  20618299.038   108349855.967       -2889.461          39.000  
C 9  35129792.771   182930107.979       -1145.533          34.000  
G31  21044568.237   110589985.082       -1172.166          35.000  
C 6  35953020.448   187216749.619       -1617.921          35.000  
G32  22627032.263                       -3793.099          28.000  
G27  20202538.448   106165016.043        2431.591          35.000  
C 1  35822010.661   186534578.4533       -348.411          34.000  
G22  22320104.301   117292890.8982      -1822.007          30.000  
C10  36098764.413   187975718.774        -652.321          32.000  
G16  19322636.076                        -610.409          22.000  
G 8  22908573.605                        3295.345          26.000  
G 3  22350869.113   117455118.085       -1371.421          35.000  
C 8  38325408.995   199570413.143        1331.534          27.000  
C14  23501126.431   122376505.344         212.837          33.000  
C 3  35186262.766   183224072.3953       -352.053          34.000  
C 4  37312531.087   194296110.4391       -352.664          41.000  
C 5  38143373.663   198622524.5383       -374.701          33.000  
> 2017 12 11 12 32 46.9960000  0 17                     
G14  20618848.947   108352745.591       -2888.701          40.000  
C 9  35130012.792   182931253.323       -1144.199          33.000  
G31  21044791.521   110591157.458       -1171.683          35.000  
C 6  35953331.306   187218367.630       -1617.121          36.000  
G32  22627754.842                       -3791.608          25.000  
G27  20202075.930   106162585.109        2431.268          33.000  
C 1  35822077.652   186534926.9782       -347.690          35.000  
G22  22320466.401   117294713.0442      -1822.027          29.000  
C10  36098890.186   187976371.418        -651.678          32.000  
G16  19322750.794                        -613.381          21.000  
G 8  22907948.712                        3295.286          26.000  
G 3  22351129.950   117456489.995       -1371.774          35.000  
C 8  38325153.349                        1331.406          27.000  
C14  23501084.307   122376292.413         214.556          33.000  
C 3  35186330.264   183224423.7672       -350.298          33.000  
C 4  37312598.828   194296463.212        -352.090          40.000  
C 5  38143445.479   198622898.4602       -373.335          34.000  
> 2017 12 11 12 32 47.9960000  0 18                     
G14  20619398.838   108355634.561       -2888.881          39.000  
C 9  35130232.421   182932397.746       -1143.678          34.000  
G31  21045014.910   110592328.839       -1170.919          34.000  
C 6  35953641.702   187219984.646       -1616.060          35.000  
G32  22628478.825                       -3790.027          26.000  
G27  20201613.193   106160153.330        2432.582          33.000  
C 1  35822144.242   186535273.4122       -346.884          35.000  
G22  22320819.803   117296534.2002      -1821.008          30.000  
C10  36099015.574   187977022.925        -650.655          33.000  
G16  19322859.325                        -611.544          22.000  
G 8  22907321.656   120378787.2013       3295.358          27.000  
G 3  22351391.162   117457861.066       -1371.152          36.000  
C 7  35810930.889                        -592.750          24.000  
C 8  38324896.639   199567762.1273       1333.395          27.000  
C14  23501043.796   122376078.976         213.367          32.000  
C 3  35186397.517   183224774.0792       -349.756          35.000  
C 4  37312666.352   194296814.810        -351.133          40.000  
C 5  38143517.200   198623272.2753       -372.677          34.000  
> 2017 12 11 12 32 48.9960000  0 18                     
G14  20619949.270   108358524.375       -2890.788          39.000  
C 9  35130452.197   182933542.753       -1145.804          33.000  
G31  21045238.063   110593500.695       -1172.175          34.000  
C 6  35953952.595   187221602.262       -1618.696          35.000  
G32  22629196.805   118917231.4773      -3791.791          27.000  
G27  20201150.483   106157722.493        2430.514          34.000  
C 1  35822210.867   186535620.2513       -348.243          34.000  
C10  36099140.902   187977674.786        -652.496          33.000  
G16  19322970.989                        -609.212          22.000  
G 8  22906692.628   120375491.8312       3294.348          27.000  
G 3  22351652.261   117459232.938       -1372.169          36.000  
C 7  35811047.282   186477488.6773       -604.885          26.000  
C 8  38324639.545   199566429.6692       1331.490          28.000  
C14  23501003.329   122375866.354         211.986          31.000  
C 3  35186465.110   183225125.8093       -351.219          34.000  
C 4  37312733.902   194297166.836        -352.361          40.000  
C 5  38143589.260   198623647.4623       -372.500          34.000  
C13  39456367.893                         852.284          25.000  
> 2017 12 11 12 32 49.9960000  0 19                     
G14  20620499.685   108361415.551       -2891.938          40.000  
C 9  35130672.445   182934688.814       -1146.156          33.000  
G31  21045461.217   110594673.559       -1172.989          34.000  
C 6  35954263.662   187223220.821       -1619.199          34.000  
G32  22629913.425   118921022.9812      -3791.400          28.000  
G27  20200687.634   106155292.963        2428.409          35.000  
C 1  35822277.955   186535969.9743       -349.072          33.000  
G22  22321521.127                       -1828.369          30.000  
C10  36099266.412   187978327.461        -652.107          32.000  
G16  19323084.869                        -609.175          25.000  
G 8  22906066.183   120372197.4572       3294.431          27.000  
G 3  22351913.543   117460606.149       -1373.794          36.000  
C 7  35811162.855   186478093.9882       -606.147          27.000  
C 8  38324382.346   199565084.4243       1331.388          28.000  
C14  23500962.050   122375644.6443        210.634          30.000  
C 3  35186532.782   183225478.4312       -352.213          33.000  
C 4  37312801.609   194297519.775        -353.329          38.000  
C 5  38143661.120   198624021.6062       -374.225          34.000  
C13  39456207.796                         850.856          25.000  
> 2017 12 11 12 32 50.9960000  0 18                     
G14  20621050.265   108364307.435       -2892.201          39.000  
C 9  35130892.641   182935835.367       -1146.714          32.000  
G31  21045679.955   110595846.825       -1173.312          33.000  
C 6  35954574.433   187224839.778       -1618.429          33.000  
G32  22630629.084   118924815.0202      -3791.052          30.000  
G27  20200225.378   106152864.013        2429.287          35.000  
C 1  35822344.815   186536317.9633       -349.039          33.000  
C10  36099391.853   187978980.426        -652.696          32.000  
G16  19323200.756                        -611.179          26.000  
G 8  22905439.423   120368896.4783       3293.555          27.000  
G 3  22352175.009   117461979.975       -1373.525          36.000  
C 7  35811277.363   186478699.4352       -605.653          27.000  
C 8  38324127.686   199563757.9452       1331.897          27.000  
C14  23500922.185   122375434.1422        210.999          29.000  
C 3  35186600.454   183225830.2793       -350.350          33.000  
C 4  37312869.385   194297870.4743       -352.822          38.000  
C 5  38143732.876   198624395.0063       -373.908          33.000  
C13  39456043.250                         850.888          25.000  
> 2017 12 11 12 32 51.9960000  0 20                     
G14  20621600.785   108367199.709       -2892.650          38.000  
C 9  35131113.404   182936981.988       -1146.321          32.000  
G31  21045907.576   110597020.286       -1175.359          30.000  
C 6  35954887.752                       -1614.817          26.000  
G32  22631355.895   118928607.2592      -3791.687          30.000  
C 2  36201218.097                        -371.191          28.000  
G27  20199763.148   106150435.362        2428.810          33.000  
C 1  35822411.867   186536666.9283       -349.684          32.000  
G22  22322223.822                       -1819.766          29.000  
C10  36099521.282   187979633.171        -651.263          31.000  
G16  19323324.880   101544757.4243       -610.913          26.000  
G 8  22904817.925   120365602.2842       3294.791          26.000  
G 3  22352436.622   117463354.154       -1374.836          36.000  
C 7  35811393.608   186479304.6852       -604.982          27.000  
C 8  38323870.959   199562426.3332       1331.357          27.000  
C14  23500881.936   122375224.1062        209.698          28.000  
C 3  35186668.266   183226184.0613       -349.916          33.000  
C 4  37312937.188   194298223.5892       -352.762          37.000  
C 5  38143804.710   198624769.3123       -373.497          33.000  
C13  39455880.954                         851.535          24.000  
> 2017 12 11 12 32 52.9960000  0 18                     
G14  20622151.409   108370092.081       -2892.958          35.000  
C 9  35131336.068   182938128.504       -1147.784          31.000  
G31  21046131.584   110598193.348       -1173.952          29.000  
C 6  35955190.321                       -1618.288          25.000  
G32  22632089.397   118932399.3312      -3792.041          28.000  
C 2  36201285.332                        -278.320          27.000  
G27  20199300.699   106148006.933        2427.493          32.000  
C 1  35822478.946   186537017.0282       -350.088          31.000  
G22  22322563.979                       -1823.967          29.000  
C10  36099653.450   187980285.699        -652.734          32.000  
G16  19323445.766   101545369.1692       -612.341          27.000  
G 3  22352697.852   117464728.350       -1374.119          33.000  
C 7  35811510.018                        -605.872          26.000  
C 8  38323612.565   199561094.3452       1331.958          27.000  
C14  23500845.701                         207.808          27.000  
C 3  35186735.772   183226535.5712       -351.747          33.000  
C 4  37313005.122   194298577.4263       -352.819          36.000  
C 5  38143876.753   198625144.3462       -374.138          35.000  
> 2017 12 11 12 32 53.9960000  0 13                     
G14  20622702.068   108372985.053       -2892.996          38.000  
C 9  35131552.713   182939275.153       -1146.561          24.000  
G31  21046355.217   110599366.640       -1173.035          28.000  
G32  22632803.224   118936191.7972      -3792.511          33.000  
G27  20198838.129   106145578.950        2428.033          30.000  
C10  36099782.232   187980938.202        -652.207          31.000  
G16  19323562.037   101545981.3242       -612.701          27.000  
G 3  22352959.326   117466103.098       -1374.992          36.000  
C 8  38323357.791   199559762.4952       1331.948          27.000  
C14  23500800.575                         207.908          26.000  
C 3  35186803.435   183226887.3082       -351.870          28.000  
C 4  37313072.890   194298930.3092       -352.711          36.000  
C 5  38143948.857   198625519.3923       -374.089          34.000  
> 2017 12 11 12 32 54.9960000  0 15                     
G26  20088944.013                       -2043.066          34.000  
G14  20623252.509   108375878.370       -2893.624          40.000  
C 9  35131768.668   182940422.101       -1147.301          25.000  
G31  21046594.669   110600540.080       -1173.587          36.000  
G32  22633524.398   118939984.3582      -3792.859          32.000  
G23  22243579.922                        2825.537          32.000  
G27  20198365.978                        2430.959          21.000  
C10  36099903.276   187981638.0883       -652.403          29.000  
G16  19323691.421   101546593.8462       -613.459          33.000  
G 3  22353220.512   117467478.196       -1375.740          35.000  
C 8  38323099.650   199558430.3792       1331.900          27.000  
C14  23500760.483                         208.156          24.000  
C 3  35186869.903   183227233.2673       -351.401          29.000  
C 4  37313140.710   194299283.1653       -352.474          34.000  
C 5  38144020.647   198625893.3593       -371.793          32.000  
> 2017 12 11 12 32 55.9960000  0 14                     
G26  20089334.060   105570162.3413      -2045.721          35.000  
G14  20623803.168   108378772.193       -2893.858          41.000  
C 9  35131991.839   182941569.205       -1147.563          27.000  
G31  21046822.456   110601713.578       -1173.295          32.000  
G32  22634251.174   118943777.1932      -3793.085          30.000  
G27  20197900.180                        2427.163          29.000  
C10  36100025.898   187982290.4302       -651.827          28.000  
G16  19323818.136   101547206.9022       -613.131          33.000  
G 3  22353482.065   117468853.625       -1375.703          35.000  
C 8  38322843.429                        1333.192          26.000  
C14  23500719.615                         209.393          21.000  
C 3  35186937.610   183227584.7682       -350.525          29.000  
C 4  37313208.530   194299637.1392       -353.470          33.000  
C 5  38144092.516   198626267.4752       -373.864          32.000  
> 2017 12 11 12 32 56.9960000  0 13                     
G26  20089714.580   105572208.0892      -2046.241          33.000  
G14  20624353.810   108381666.074       -2894.249          36.000  
C 9  35132212.235   182942716.052       -1147.316          27.000  
G31  21047035.366   110602886.760       -1172.819          31.000  
G32  22634976.396                       -3789.989          28.000  
G27  20197440.532   106138266.0843       2426.276          30.000  
G16  19323933.028   101547820.0102       -612.846          32.000  
G 3  22353743.984   117470229.117       -1376.363          34.000  
C 8  38322587.548                        1334.094          26.000  
C14  23500678.031                         209.393          19.000  
C 3  35187005.701                        -346.143          29.000  
C 4  37313276.141   194299988.6143       -352.501          34.000  
C 5  38144164.437   198626642.2163       -373.702          33.000  
> 2017 12 11 12 32 57.9960000  0 15                     
G26  20090108.405   105574254.1702      -2046.174          32.000  
G14  20624904.574   108384560.566       -2894.811          36.000  
C 9  35132436.523   182943863.181       -1146.711          29.000  
G31  21047250.972   110604060.308       -1174.476          32.000  
G32  22635690.372   118951355.0543      -3792.621          28.000  
G22  22324336.066                       -1823.336          25.000  
G27  20196984.052   106135839.6392       2426.039          32.000  
G16  19324052.170   101548433.7562       -613.260          31.000  
G 8  22901056.557                        3291.703          22.000  
G 3  22354005.589   117471605.174       -1376.068          34.000  
C 8  38322331.099                        1333.861          26.000  
C14  23500635.810                         201.635          18.000  
C 3  35187073.355                        -350.830          30.000  
C 4  37313343.717   194300340.2793       -352.682          37.000  
C 5  38144236.315   198627016.0763       -373.373          34.000  
> 2017 12 11 12 32 58.9960000  0 20                     
G26  20090496.899   105576299.7082      -2044.763          32.000  
G14  20625455.398   108387454.736       -2893.243          37.000  
C 9  35132653.656                       -1146.647          29.000  
G31  21047472.817   110605233.186       -1172.583          36.000  
C 6  35957065.286   187237842.5943      -1618.336          32.000  
G32  22636408.753   118955147.6932      -3793.036          30.000  
G22  22324682.112                       -1823.336          22.000  
G27  20196516.133   106133412.7862       2427.168          31.000  
C 1  35822891.984                        -333.828          30.000  
C10  36100405.179   187984251.8773       -651.019          30.000  
G16  19324174.147   101549047.1862       -613.087          32.000  
G 8  22900425.566                        3291.975          24.000  
G 3  22354267.019   117472980.868       -1375.637          37.000  
G23  22241173.738                        2822.522          22.000  
C 8  38322077.783   199553083.4883       1333.746          27.000  
C14  23500598.178                         210.742          23.000  
C 3  35187141.350                        -358.203          30.000  
C 4  37313411.371   194300692.2212       -351.163          40.000  
C 5  38144308.018   198627390.2132       -373.065          34.000  
C13  39454737.476                         853.216          25.000  
> 2017 12 11 12 32 59.9960000  0 19                     
G26  20090887.191   105578345.2802      -2045.444          32.000  
G14  20626006.372   108390349.265       -2895.712          38.000  
C 9  35132875.509   182946070.4333      -1146.322          30.000  
G31  21047700.036   110606406.072       -1173.049          35.000  
C 6  35957375.656   187239461.2112      -1618.007          32.000  
G32  22637126.376   118958940.2502      -3792.548          30.000  
G22  22325008.030                       -1823.336          19.000  
G27  20196058.763   106130986.1672       2425.143          32.000  
C 1  35822949.919                        -363.531          31.000  
C10  36100528.107   187984902.9202       -650.166          31.000  
G16  19324293.646   101549660.9032       -615.019          31.000  
G 3  22354528.581   117474356.751       -1376.150          37.000  
G23  22240859.511                        2822.522          30.000  
C 8  38321823.036   199551750.1462       1332.869          27.000  
C14  23500556.141   122373531.2473        206.425          26.000  
C 3  35187209.301                        -358.154          30.000  
C 4  37313478.913   194301044.0522       -352.513          40.000  
C 5  38144379.764   198627763.1972       -373.877          35.000  
C13  39454575.137                         851.914          26.000  
> 2017 12 11 12 33  0.9960000  0 18                     
G26  20091275.842   105580392.1232      -2047.532          32.000  
G14  20626557.458   108393245.335       -2897.176          36.000  
C 9  35133096.246   182947218.3862      -1148.169          31.000  
G31  21047922.736   110607580.109       -1173.948          35.000  
C 6  35957684.367   187241080.9732      -1619.389          31.000  
G32  22637847.402   118962734.1082      -3794.391          30.000  
G22  22325348.859                       -1823.336          19.000  
G27  20195600.991   106128561.0652       2424.652          33.000  
C 1  35823017.669   186539821.4202       -348.812          33.000  
C10  36100653.077   187985555.0682       -652.687          31.000  
G16  19324411.234   101550276.192        -616.570          35.000  
G 3  22354790.133   117475734.137       -1378.400          37.000  
C 8  38321566.727   199550417.8072       1331.779          27.000  
C14  23500515.840   122373325.1762        206.107          26.000  
C 3  35187276.851   183229353.0733       -351.741          32.000  
C 4  37313546.855   194301396.9102       -353.751          40.000  
C 5  38144451.589   198628137.1293       -372.903          35.000  
C13  39454415.153                         851.990          26.000  
> 2017 12 11 12 33  1.9960000  0 19                     
G26  20091664.711   105582439.4172      -2046.286          34.000  
G14  20627108.588   108396142.060       -2897.242          36.000  
C 9  35133314.653   182948366.7772      -1148.523          31.000  
G31  21048144.999   110608754.621       -1174.778          36.000  
C 6  35957995.147   187242701.3282      -1620.702          30.000  
G32  22638572.005   118966528.5732      -3794.250          32.000  
G22  22325732.205                       -1823.336          21.000  
G27  20195142.295   106126136.7522       2423.883          33.000  
C 1  35823081.554   186540154.8242       -347.287          34.000  
C10  36100775.411                        -654.492          31.000  
G16  19324525.071   101550892.104        -615.579          36.000  
G 3  22355051.293   117477112.185       -1378.149          39.000  
G23  22239819.095   116871038.1413       2825.553          36.000  
C 8  38321311.082   199549085.7232       1332.004          28.000  
C14  23500477.283   122373120.0192        204.813          26.000  
C 3  35187344.723                        -351.758          33.000  
C 4  37313614.649   194301750.1002       -353.360          40.000  
C 5  38144523.214   198628510.5622       -374.030          35.000  
C13  39454251.828                         851.507          27.000  
> 2017 12 11 12 33  2.9960000  0 17                     
G26  20092054.139   105584487.0442      -2047.739          31.000  
G14  20627659.413   108399039.356       -2897.495          38.000  
C 9  35133535.284   182949515.4312      -1148.623          31.000  
G31  21048370.273   110609929.280       -1174.386          36.000  
C 6  35958305.333   187244321.8122      -1620.303          30.000  
G32  22639293.510   118970323.2662      -3794.012          26.000  
G27  20194682.909   106123712.8972       2423.859          33.000  
C 1  35823148.232   186540504.0222       -349.917          35.000  
C10  36100902.571   187986841.9163       -652.076          30.000  
G16  19324644.308   101551508.620        -616.461          33.000  
G 3  22355312.636   117478490.756       -1379.111          37.000  
C 8  38321056.413   199547753.5852       1332.504          27.000  
C14  23500441.196   122372915.3692        204.432          27.000  
C 3  35187412.483   183230058.9052       -351.765          32.000  
C 4  37313682.522   194302103.3972       -353.759          41.000  
C 5  38144595.161   198628885.0042       -374.691          36.000  
C13  39454087.909   205447757.4192        852.620          27.000  
> 2017 12 11 12 33  3.9960000  0 18                     
G26  20092442.878   105586534.6562      -2047.607          30.000  
G14  20628210.762   108401936.913       -2897.729          38.000  
C 9  35133756.466   182950664.0192      -1148.704          34.000  
G31  21048593.391   110611103.888       -1174.748          36.000  
C 6  35958619.778   187245942.2822      -1620.695          33.000  
G32  22640029.499                       -3798.113          24.000  
G27  20194220.644   106121289.2472       2423.234          34.000  
C 1  35823215.380   186540852.8902       -349.184          36.000  
C10  36101025.831   187987494.0942       -651.482          30.000  
G16  19324760.849   101552125.355        -617.242          33.000  
G 3  22355573.892   117479869.477       -1379.399          37.000  
G23  22238727.470   116865301.6172       2825.471          34.000  
C 8  38320798.342                        1325.471          25.000  
C14  23500408.355   122372710.9962        204.393          31.000  
C 3  35187480.085   183230410.7203       -352.706          35.000  
C 4  37313750.159   194302456.4452       -352.973          40.000  
C 5  38144667.012   198629259.2472       -374.078          37.000  
C13  39453926.756   205446905.4022        852.462          27.000  
> 2017 12 11 12 33  4.9960000  0 20                     
G26  20092826.730   105588582.6652      -2049.522          29.000  
G14  20628761.569   108404834.834       -2897.862          34.000  
C 9  35133979.515   182951812.7952      -1149.166          33.000  
G31  21048817.304   110612278.593       -1175.427          36.000  
C 6  35958927.547   187247562.7112      -1620.112          33.000  
G32  22640773.044                       -3778.056          23.000  
G22  22326855.615                       -1828.834          22.000  
G27  20193761.573   106118865.9402       2422.534          35.000  
C 1  35823280.269   186541201.7042       -348.541          37.000  
C10  36101148.698   187988146.2242       -652.810          30.000  
G16  19324877.617   101552742.583        -617.578          33.000  
G 8  22896650.674                        3297.630          23.000  
G 3  22355834.738   117481248.562       -1379.701          37.000  
G23  22238186.295   116862476.2772       2825.980          35.000  
C 8  38320541.562                        1321.972          23.000  
C14  23500365.017   122372506.9952        203.498          30.000  
C 3  35187547.033   183230759.3992       -351.998          34.000  
C 4  37313817.848   194302808.9691       -352.817          41.000  
C 5  38144739.134   198629633.4552       -374.585          36.000  
C13  39453763.867   205446053.2072        852.587          27.000  
> 2017 12 11 12 33  5.9960000  0 18                     
G14  20629312.315   108407733.095       -2898.491          33.000  
C 9  35134199.920   182952961.5072      -1148.615          33.000  
G31  21049040.527   110613453.159       -1174.869          36.000  
C 6  35959238.885   187249183.1492      -1620.656          33.000  
G32  22641489.131                       -3787.491          23.000  
G27  20193301.594   106116442.8772       2422.543          34.000  
C 1  35823345.925   186541550.3852       -348.476          36.000  
G23  22237632.033                        2831.875          36.000  
C10  36101271.887                        -652.398          30.000  
G16  19324995.564   101553359.976        -617.967          34.000  
G 8  22896025.075                        3302.947          22.000  
G 3  22356095.994   117482627.832       -1379.892          38.000  
C 8  38320284.433                        1337.686          24.000  
C14  23500326.819   122372303.3302        203.662          30.000  
C 3  35187614.469   183231110.9163       -351.417          34.000  
C 4  37313885.555   194303161.831        -352.596          40.000  
C 5  38144810.767   198630007.4612       -374.054          36.000  
C13  39453600.219   205445200.7502        852.519          27.000  
> 2017 12 11 12 33  6.9960000  0 18                     
G14  20629863.524   108410631.609       -2898.259          32.000  
C 9  35134421.869   182954110.2802      -1148.601          33.000  
G31  21049263.924   110614627.700       -1173.873          36.000  
C 6  35959546.943   187250803.5062      -1620.040          33.000  
G32  22642203.055                       -3798.045          25.000  
G27  20192840.489   106114020.040        2422.888          34.000  
C 1  35823413.606   186541883.8963       -348.411          36.000  
G23  22237082.612   116856657.3203       2825.933          36.000  
C10  36101400.330   187989433.6993       -650.823          31.000  
G16  19325113.230   101553977.652        -617.682          34.000  
G 8  22895399.362                        3291.721          20.000  
G 3  22356357.346   117484007.297       -1379.099          36.000  
C 8  38320029.520                        1331.838          25.000  
C14  23500289.615   122372099.9602        204.060          31.000  
C 3  35187681.827   183231461.2403       -350.264          34.000  
C 4  37313953.271   194303514.509        -352.528          40.000  
C 5  38144882.348   198630380.2833       -372.889          36.000  
C13  39453436.588   205444347.9192        853.754          26.000  
> 2017 12 11 12 33  7.9960000  0 19                     
G26  20093984.753                       -2047.112          22.000  
G14  20630414.331   108413530.367       -2898.955          36.000  
C 9  35134643.452   182955259.0572      -1149.727          33.000  
G31  21049487.479   110615802.233       -1175.237          35.000  
C 6  35959859.415   187252423.8812      -1620.896          33.000  
G32  22642924.255                       -3792.177          22.000  
G27  20192378.983   106111597.429        2421.952          33.000  
C 1  35823480.737   186542233.2032       -348.388          36.000  
C10  36101523.502   187990074.5623       -650.606          29.000  
G16  19325230.670   101554595.544        -619.061          32.000  
G 8  22894771.468                        3301.508          18.000  
G 3  22356619.064   117485387.041       -1379.871          37.000  
C 8  38319772.810                        1330.159          25.000  
G22  22327710.336                       -1831.282          23.000  
C14  23500246.609   122371896.9482        202.417          29.000  
C 3  35187749.193   183231812.4062       -350.079          34.000  
C 4  37314020.847   194303866.984        -352.298          40.000  
C 5  38144954.094   198630753.9722       -373.411          36.000  
C13  39453272.434   205443494.8702        853.591          26.000  
> 2017 12 11 12 33  8.9960000  0 19                     
G26  20094370.708                       -2046.808          21.000  
G14  20630965.104   108416428.887       -2898.232          36.000  
C 9  35134857.924   182956407.293       -1148.239          32.000  
G31  21049710.720   110616976.119       -1173.537          34.000  
C 6  35960169.540   187254043.0791      -1618.508          31.000  
G32  22643648.194                       -3800.655          22.000  
G27  20191917.495   106109174.546        2422.004          31.000  
C 1  35823547.362   186542579.8523       -347.271          35.000  
G23  22235980.527   116850865.5363       2826.058          36.000  
G16  19325347.212   101555213.182        -617.422          31.000  
G 8  22894145.477                        3301.898          18.000  
G 3  22356880.984   117486766.431       -1379.696          36.000  
C 8  38319512.243                        1334.297          25.000  
G22  22328127.405   117335100.7033      -1826.167          31.000  
C14  23500209.300   122371693.6292        203.564          29.000  
C 3  35187816.446   183232161.9833       -350.286          33.000  
C 4  37314088.248   194304218.827        -352.083          40.000  
C 5  38145025.728   198631126.9583       -372.471          36.000  
C13  39453110.208   205442640.9892        854.408          27.000  
> 2017 12 11 12 33  9.9960000  0 17                     
G26  20094751.053                       -2050.632          20.000  
G14  20631516.129   108419328.015       -2899.536          37.000  
C 9  35135084.218   182957555.844       -1149.270          32.000  
G31  21049933.934   110618150.291       -1174.348          33.000  
C 6  35960480.747   187255663.151       -1620.453          31.000  
G32  22644374.673                       -3789.202          21.000  
G27  20191456.399   106106752.241        2421.155          31.000  
C 1  35823614.039   186542927.6163       -347.710          35.000  
G16  19325455.944   101555831.470        -619.065          30.000  
G 8  22893517.958                        3292.392          19.000  
G 3  22357143.260   117488146.343       -1380.793          37.000  
C 8  38319253.893                        1332.994          25.000  
C14  23500176.476   122371491.0452        202.084          29.000  
C 3  35187883.595   183232511.6783       -351.393          33.000  
C 4  37314156.086   194304571.2913       -352.628          39.000  
C 5  38145097.387   198631500.1003       -374.049          36.000  
C13  39452947.869   205441786.6741        853.232          27.000  
> 2017 12 11 12 33 10.9960000  0 17                     
G14  20632067.757   108422228.054       -2900.966          36.000  
C 9  35135304.832   182958704.989       -1149.492          32.000  
G31  21050157.323   110619324.955       -1174.438          34.000  
C 6  35960791.998   187257283.783       -1620.864          32.000  
G32  22645105.174                       -3793.613          22.000  
G27  20190995.608   106104330.775        2420.544          33.000  
C 1  35823681.188   186543276.8652       -347.906          34.000  
G16  19325572.520   101556450.587        -618.925          30.000  
G 8  22892892.987                        3288.092          20.000  
G 3  22357405.921   117489527.048       -1380.962          36.000  
C 8  38318996.904                        1334.095          24.000  
G22  22328833.912                       -1832.080          30.000  
C14  23500136.568   122371289.2592        202.249          29.000  
C 3  35187950.892   183232862.7262       -351.128          33.000  
C 4  37314223.871   194304923.6592       -352.622          40.000  
C 5  38145169.448   198631875.6252       -373.590          36.000  
C13  39452785.320   205440933.077         854.624          27.000  
> 2017 12 11 12 33 11.9960000  0 17                     
G14  20632619.088   108425128.627       -2900.499          36.000  
C 9  35135525.988                       -1150.341          32.000  
G31  21050380.651   110620499.912       -1174.554          34.000  
C 6  35961103.685   187258904.552       -1620.853          31.000  
G32  22645830.178                       -3795.565          25.000  
G27  20190535.080   106101909.801        2421.031          33.000  
C 1  35823748.144   186543625.1743       -347.707          35.000  
G16  19325689.812   101557070.377        -621.127          29.000  
G 8  22892269.439                        3298.790          21.000  
G 3  22357668.555   117490908.360       -1382.341          33.000  
C 8  38318739.670                        1334.044          25.000  
G22  22329149.167                       -1823.781          33.000  
C14  23500097.436   122371088.1152        201.293          29.000  
C 3  35188018.363   183233213.9243       -350.117          34.000  
C 4  37314291.691   194305276.1252       -352.276          40.000  
C 5  38145241.159   198632249.2562       -373.292          35.000  
C13  39452626.654   205440079.511         854.563          27.000  
> 2017 12 11 12 33 12.9960000  0 17                     
G14  20633170.759   108428029.772       -2901.641          36.000  
C 9  35135744.936   182961012.2063      -1149.370          33.000  
G31  21050604.424   110621675.169       -1175.146          35.000  
C 6  35961414.901   187260525.656       -1621.003          32.000  
G27  20190074.839   106099489.486        2420.364          35.000  
C 1  35823814.882   186543973.7072       -348.489          36.000  
G23  22233846.627   116839651.6573       2824.484          34.000  
G16  19325806.562   101557690.597        -620.896          30.000  
G 8  22891644.791                        3299.332          22.000  
G 3  22357931.530   117492290.071       -1381.708          34.000  
C 8  38318483.736                        1333.231          24.000  
G22  22329530.655   117342475.2672      -1829.342          32.000  
C14  23500058.801   122370887.6352        200.694          29.000  
C 3  35188085.695                        -351.660          34.000  
C 4  37314359.337   194305628.8452       -352.453          40.000  
C 5  38145312.888   198632622.1063       -373.461          35.000  
C13  39452463.852   205439226.131         853.260          27.000  
> 2017 12 11 12 33 13.9960000  0 16                     
G14  20633722.631   108430931.625       -2901.996          35.000  
C 9  35135967.155   182962162.4052      -1150.358          33.000  
G31  21050828.275   110622850.704       -1175.573          35.000  
C 6  35961726.466   187262147.067       -1621.175          32.000  
G27  20189614.590   106097069.778        2419.009          34.000  
C 1  35823882.109   186544322.4602       -349.236          36.000  
C10  36102271.855   187993971.4732       -651.622          28.000  
G16  19325918.663   101558311.578        -621.332          28.000  
G 8  22891021.644                        3287.264          22.000  
G 3  22358195.020   117493672.500       -1382.797          36.000  
C 8  38318230.062                        1331.096          22.000  
C14  23500018.517   122370687.9112        199.238          32.000  
C 3  35188153.018   183233915.4652       -352.150          33.000  
C 4  37314427.288   194305981.7702       -353.147          40.000  
C 5  38145384.556   198632996.1832       -373.939          36.000  
C13  39452299.593   205438372.681         853.990          27.000  
> 2017 12 11 12 33 14.9960000  0 21                     
G26  20096697.930   105608860.0883      -2051.136          27.000  
G14  20634275.000   108433833.843       -2902.688          37.000  
C 9  35136186.766   182963312.6252      -1150.026          32.000  
G31  21051052.659   110624026.248       -1175.540          35.000  
C 6  35962039.130   187263768.484       -1621.215          32.000  
G32  22647985.926                       -3799.036          20.000  
G27  20189154.523   106094650.281        2418.625          34.000  
C 1  35823949.066   186544672.0213       -348.139          36.000  
G23  22232801.455   116834159.4153       2821.550          33.000  
C10  36102397.130   187994622.757        -651.048          28.000  
G16  19326038.877   101558932.850        -621.772          29.000  
G 8  22890394.614                        3303.730          21.000  
G 3  22358458.701   117495055.145       -1382.624          36.000  
C 7  35814052.611   186493138.2723       -602.546          26.000  
C 8  38317973.693                        1324.446          22.000  
G22  22330258.242                       -1823.180          31.000  
C14  23499978.303   122370487.9741        197.772          31.000  
C 3  35188220.480   183234266.8403       -350.320          34.000  
C 4  37314495.030   194306334.4972       -352.187          40.000  
C 5  38145456.364   198633370.0942       -374.246          36.000  
C13  39452134.732   205437519.119         853.301          27.000  
> 2017 12 11 12 33 15.9960000  0 19                     
G26  20097098.761   105610909.6862      -2049.133          32.000  
G14  20634827.622   108436736.345       -2902.954          38.000  
C 9  35136406.247   182964462.9772      -1150.712          32.000  
G31  21051277.173   110625201.821       -1175.588          38.000  
C 6  35962349.657   187265389.980       -1621.409          32.000  
G32  22648709.491                       -3799.036          16.000  
G27  20188694.727   106092231.265        2418.741          35.000  
C 1  35824015.909   186545019.6093       -349.205          35.000  
C10  36102522.300   187995274.074        -652.052          28.000  
G16  19326158.978   101559554.586        -622.529          30.000  
G 8  22889767.924                        3294.476          21.000  
G 3  22358722.706   117496438.119       -1382.409          35.000  
C 8  38317717.183                        1345.671          21.000  
G22  22330610.928   117348152.2302      -1828.313          31.000  
C14  23499939.302   122370288.925         199.166          31.000  
C 3  35188287.899   183234617.3333       -351.284          33.000  
C 4  37314563.191   194306687.2552       -352.990          40.000  
C 5  38145528.337   198633743.9962       -374.530          35.000  
C13  39451969.976                         854.278          27.000  
> 2017 12 11 12 33 16.9960000  0 19                     
G26  20097496.373   105612959.6342      -2050.243          31.000  
G14  20635380.576   108439639.438       -2903.576          38.000  
C 9  35136629.470   182965613.4982      -1150.284          32.000  
G31  21051501.496   110626377.586       -1175.903          38.000  
C 6  35962661.728   187267011.632       -1621.285          33.000  
G32  22649437.496                       -3799.021          17.000  
G27  20188234.844   106089812.638        2418.434          36.000  
C 1  35824083.066   186545369.2022       -348.285          35.000  
G23  22231432.319                        2826.727          30.000  
C10  36102648.840   187995925.324        -651.299          29.000  
G16  19326277.265   101560176.685        -622.275          29.000  
G 8  22889142.430                        3283.233          21.000  
G 3  22358986.632   117497821.635       -1384.755          34.000  
C 8  38317463.178                        1326.586          20.000  
C14  23499904.794   122370090.433         199.095          30.000  
C 3  35188355.702   183234970.7342       -350.801          33.000  
C 4  37314631.054   194307039.5251       -352.740          40.000  
C 5  38145600.197   198634117.8462       -373.157          35.000  
C13  39451808.003   205435884.9483        853.547          27.000  
> 2017 12 11 12 33 17.9960000  0 20                     
G26  20097894.273   105615009.6202      -2050.153          32.000  
G14  20635933.478   108442542.883       -2903.935          36.000  
C 9  35136851.576   182966764.1492      -1150.865          33.000  
G31  21051725.949   110627553.355       -1175.751          38.000  
C 6  35962971.906   187268633.347       -1622.487          32.000  
G32  22650164.053                       -3802.917          17.000  
C 2  36203108.060                        -353.359          29.000  
G27  20187775.363   106087394.401        2418.126          36.000  
C 1  35824150.119   186545717.6822       -348.357          36.000  
C10  36102775.407   187996576.446        -650.567          29.000  
G16  19326401.597   101560799.287        -623.474          29.000  
G 8  22888517.607                        3296.131          22.000  
G 3  22359250.749   117499205.238       -1384.223          37.000  
C 7  35814398.562                        -603.398          26.000  
C 8  38317206.494                        1333.478          20.000  
C14  23499866.046   122369892.335         197.788          31.000  
C 3  35188423.121   183235321.1693       -351.917          34.000  
C 4  37314698.569   194307392.182        -352.660          40.000  
C 5  38145672.084   198634492.7043       -374.150          35.000  
C13  39451644.276   205435030.9032        853.930          27.000  
> 2017 12 11 12 33 18.9960000  0 21                     
G26  20098288.439   105617059.537       -2050.565          35.000  
G14  20636486.335   108445446.338       -2902.945          36.000  
C 9  35137074.433   182967914.6512      -1150.591          33.000  
G31  21051949.670   110628728.898       -1174.388          38.000  
C 6  35963284.893   187270254.811       -1620.985          32.000  
G32  22650878.116                       -3795.393          18.000  
C 2  36203180.627                        -364.746          28.000  
G27  20187315.829   106084976.228        2417.994          35.000  
C 1  35824217.250   186546068.9203       -348.431          36.000  
C10  36102894.129   187997227.213        -650.262          29.000  
G16  19326514.544   101561421.816        -622.614          29.000  
G 8  22887892.924                        3295.870          22.000  
G 3  22359514.544   117500589.030       -1382.903          37.000  
C 7  35814516.447   186495554.2383       -601.660          27.000  
C 8  38316951.546                        1334.722          22.000  
G22  22331649.548                       -1828.291          28.000  
C14  23499825.779   122369694.372         198.686          32.000  
C 3  35188490.417   183235672.2352       -350.774          34.000  
C 4  37314766.215   194307744.541        -351.732          40.000  
C 5  38145743.752   198634866.2132       -372.848          35.000  
C13  39451478.464   205434176.3622        855.830          27.000  
> 2017 12 11 12 33 19.9960000  0 20                     
G26  20098684.628   105619108.539       -2049.860          34.000  
G14  20637038.984   108448349.269       -2902.635          39.000  
C 9  35137295.344   182969064.3002      -1149.833          33.000  
G31  21052173.373   110629903.562       -1174.472          38.000  
C 6  35963593.727   187271875.431       -1620.214          32.000  
G32  22651603.042                       -3794.589          18.000  
C 2  36203250.052                        -354.004          28.000  
G27  20186855.745   106082557.249        2421.044          33.000  
C 1  35824283.979   186546416.1342       -348.392          33.000  
C10  36103018.820   187997876.870        -649.505          29.000  
G16  19326621.112   101562043.729        -622.239          27.000  
G 8  22887265.318                        3298.866          22.000  
G 3  22359777.589   117501972.257       -1384.371          34.000  
C 7  35814631.095   186496155.6432       -601.530          27.000  
C 8  38316696.686                        1325.022          21.000  
C14  23499789.623   122369539.4243        197.870          31.000  
C 3  35188557.496   183236021.2603       -350.748          34.000  
C 4  37314833.695   194308095.875        -351.335          39.000  
C 5  38145815.472   198635238.6822       -371.924          35.000  
C13  39451314.127   205433320.7702        855.661          27.000  
> 2017 12 11 12 33 20.9960000  0 20                     
G26  20099077.538   105621158.461       -2051.168          35.000  
G14  20637591.719   108451253.519       -2904.074          34.000  
C 9  35137512.172   182970214.804       -1150.876          32.000  
G31  21052397.547   110631079.082       -1176.633          38.000  
C 6  35963907.237   187273496.887       -1622.114          33.000  
C 2  36203303.651                        -244.482          28.000  
G27  20186396.202   106080139.772        2417.096          37.000  
C 1  35824350.691   186546762.9303       -347.676          34.000  
C10  36103146.634   187998527.270        -650.870          28.000  
G16  19326738.299   101562667.023        -623.630          27.000  
G 8  22886642.599                        3290.544          22.000  
G 3  22360033.583   117503356.372       -1385.177          34.000  
C 7  35814745.507   186496746.7243       -603.096          27.000  
C 8  38316439.461                        1333.945          22.000  
G22  22332324.871                       -1831.982          35.000  
C14  23499755.019   122369342.0652        196.517          30.000  
C 3  35188624.741   183236371.0393       -351.707          34.000  
C 4  37314901.149   194308447.918        -352.548          39.000  
C 5  38145887.166   198635612.8903       -373.457          37.000  
C13  39451152.521   205432465.7352        853.986          26.000  
> 2017 12 11 12 33 21.9960000  0 21                     
G26  20099471.057   105623209.058       -2050.571          37.000  
G14  20638144.752   108454158.444       -2905.384          38.000  
C 9  35137733.048   182971366.037       -1151.146          33.000  
G31  21052621.617   110632255.112       -1175.593          38.000  
C 6  35964218.610   187275118.915       -1622.556          35.000  
G32  22653055.546                       -3800.024          20.000  
C 2  36203357.904                        -273.975          28.000  
G27  20185936.773   106077722.908        2416.072          37.000  
C 1  35824417.473   186547111.3283       -348.474          37.000  
C10  36103269.143   187999164.6233       -651.161          29.000  
G16  19326854.858   101563291.164        -624.740          28.000  
G 8  22886017.828                        3292.610          24.000  
G 3  22360288.400   117504741.511       -1383.665          35.000  
C 7  35814860.678   186497349.0632       -602.441          26.000  
C 8  38316182.768                        1340.354          21.000  
G22  22332679.818   117359023.9792      -1828.944          31.000  
C14  23499717.431                         196.443          30.000  
C 3  35188692.482   183236724.3063       -351.715          34.000  
C 4  37314968.734   194308800.473        -352.896          39.000  
C 5  38145958.791   198635986.5922       -373.904          35.000  
C13  39450989.919                         855.304          26.000  
> 2017 12 11 12 33 22.9960000  0 20                     
G26  20099861.000   105625259.995       -2051.216          37.000  
G14  20638697.993   108457064.068       -2905.890          37.000  
C 9  35137960.450   182972517.528       -1152.308          34.000  
G31  21052845.608   110633431.451       -1176.459          40.000  
C 6  35964528.753   187276741.170       -1621.982          33.000  
G32  22653783.944                       -3796.486          20.000  
C 2  36203436.822                        -417.676          28.000  
G27  20185477.335   106075306.702        2415.277          35.000  
C 1  35824484.334   186547458.8102       -348.165          36.000  
C10  36103397.298   187999815.4382       -650.359          29.000  
G16  19326974.174   101563915.913        -624.629          28.000  
G 8  22885387.666                        3292.942          25.000  
G 3  22360548.566   117506127.112       -1387.116          28.000  
C 7  35814976.609   186497951.5682       -602.053          26.000  
C 8  38315927.628                        1335.245          22.000  
C14  23499674.006   122368938.0493        195.768          29.000  
C 3  35188759.692   183237074.5902       -350.626          34.000  
C 4  37315036.702   194309153.137        -352.990          41.000  
C 5  38146030.502   198636359.3953       -374.191          35.000  
C13  39450828.531                         854.934          26.000  
> 2017 12 11 12 33 23.9960000  0 20                     
G26  20100251.850   105627311.139       -2051.816          37.000  
G14  20639251.261   108459970.187       -2905.944          38.000  
C 9  35138177.060   182973669.194       -1152.423          34.000  
G31  21053070.000   110634607.884       -1176.368          39.000  
C 6  35964839.384   187278363.647       -1623.481          33.000  
C 2  36203514.624                        -387.793          29.000  
G27  20185017.897   106072890.908        2414.685          36.000  
C 1  35824551.247   186547807.3063       -348.868          35.000  
C10  36103519.973   188000466.3162       -651.445          30.000  
G16  19327089.223   101564540.959        -625.314          28.000  
G 8  22884756.588                        3293.747          24.000  
G 3  22360797.188   117507513.122       -1385.405          31.000  
C 7  35815092.339   186498553.9812       -602.111          27.000  
C 8  38315673.719                        1339.835          21.000  
G22  22333351.852                       -1829.394          31.000  
C14  23499632.318   122368742.8702        194.755          30.000  
C 3  35188827.215   183237426.0093       -351.397          35.000  
C 4  37315104.383   194309505.797        -353.030          39.000  
C 5  38146102.240   198636733.1673       -373.792          35.000  
C13  39450661.210   205429914.0323        854.997          27.000  
> 2017 12 11 12 33 24.9960000  0 21                     
G26  20100642.168   105629362.411       -2052.332          37.000  
G14  20639804.939   108462876.619       -2906.676          39.000  
C 9  35138396.741   182974820.879       -1151.340          34.000  
G31  21053294.384   110635784.366       -1176.602          39.000  
C 6  35965153.279   187279986.028       -1622.571          35.000  
C 2  36203588.561                        -371.387          29.000  
G27  20184558.293   106070475.403        2415.336          40.000  
C 1  35824618.142   186548155.7932       -348.343          36.000  
G23  22227373.695   116805636.6052       2819.980          34.000  
C10  36103655.360   188001116.9722       -651.180          30.000  
G16  19327210.267   101565166.436        -627.174          28.000  
G 8  22884121.199                        3291.949          24.000  
G 3  22361063.853   117508899.408       -1386.355          30.000  
C 7  35815210.878   186499156.2222       -602.360          27.000  
C 8  38315421.127                        1330.248          20.000  
G22  22333697.087   117364370.2052      -1828.980          31.000  
C14  23499591.039                         191.888          28.000  
C 3  35188894.626   183237777.2603       -350.662          34.000  
C 4  37315172.116   194309858.362        -352.747          40.000  
C 5  38146174.222   198637106.9002       -373.685          35.000  
C13  39450494.455   205429058.9892        854.839          28.000  
> 2017 12 11 12 33 25.9960000  0 20                     
G26  20101033.000   105631413.652       -2051.394          33.000  
G14  20640358.966   108465783.368       -2907.933          37.000  
C 9  35138620.609   182975972.643       -1151.434          35.000  
G31  21053517.616   110636960.775       -1176.836          38.000  
C 6  35965465.769   187281608.454       -1623.402          35.000  
G32  22655955.955                       -3790.914          19.000  
C 2  36203661.153   188521931.9782       -375.573          29.000  
G27  20184098.645   106068060.223        2414.958          37.000  
C 1  35824685.116   186548504.0632       -349.184          35.000  
C10  36103774.685   188001767.4082       -649.249          31.000  
G16  19327328.335   101565792.279        -626.367          27.000  
G 8  22883486.657                        3294.440          24.000  
G 3  22361328.067   117510285.920       -1386.264          31.000  
C 7  35815326.006   186499758.2092       -602.159          27.000  
C 8  38315167.165                        1337.551          19.000  
C14  23499555.135                         167.104          26.000  
C 3  35188961.922   183238127.3812       -350.835          34.000  
C 4  37315239.753   194310210.804        -352.776          39.000  
C 5  38146245.882   198637480.4933       -373.698          34.000  
C13  39450331.976                         855.418          27.000  
> 2017 12 11 12 33 26.9960000  0 20                     
G26  20101422.603   105633464.834       -2050.836          31.000  
G14  20640912.731   108468690.286       -2907.891          33.000  
C 9  35138841.634   182977124.360       -1152.206          34.000  
G31  21053741.197   110638137.075       -1176.385          34.000  
C 6  35965775.772   187283230.630       -1621.819          34.000  
G32  22656671.554                       -3794.968          19.000  
C 2  36203735.954                        -376.953          28.000  
G27  20183638.448   106065645.091        2415.963          33.000  
C 1  35824752.116   186548854.0553       -348.350          34.000  
C10  36103902.176   188002461.6443       -650.931          30.000  
G16  19327446.063                        -630.528          24.000  
G 8  22882859.295                        3291.793          22.000  
G 3  22361594.950   117511672.581       -1386.695          29.000  
C 7  35815443.097   186500379.4143       -602.347          27.000  
C 8  38314911.947                        1330.371          21.000  
C14  23499514.956                         197.861          24.000  
C 3  35189029.149   183238477.3112       -351.500          34.000  
C 4  37315307.495   194310562.960        -352.427          39.000  
C 5  38146317.934   198637855.7943       -373.550          33.000  
C13  39450170.675   205427359.0793        855.194          27.000  
> 2017 12 11 12 33 27.9960000  0 20                     
G26  20101808.724   105635516.748       -2051.918          36.000  
G14  20641466.470   108471598.043       -2907.875          39.000  
C 9  35139062.842   182978276.605       -1152.015          34.000  
G31  21053965.074   110639313.870       -1177.284          38.000  
C 6  35966088.549   187284853.475       -1622.745          34.000  
C 2  36203807.334                        -379.688          28.000  
G27  20183178.696   106063230.906        2413.727          38.000  
C 1  35824819.230   186549203.5062       -348.963          37.000  
C10  36104025.445   188003112.1952       -650.734          30.000  
G16  19327562.238                        -623.955          24.000  
G 8  22882230.233                        3286.426          23.000  
G 3  22361860.621   117513060.027       -1387.061          30.000  
C 7  35815562.247   186500981.3532       -601.462          27.000  
C 8  38314655.865                        1334.321          22.000  
G22  22334690.126                       -1822.509          30.000  
C14  23499480.553                         190.793          22.000  
C 3  35189096.498   183238827.5843       -351.449          33.000  
C 4  37315375.359   194310915.559        -352.779          39.000  
C 5  38146389.968   198638229.5022       -373.621          34.000  
C13  39449999.908   205426503.7032        855.412          27.000  
> 2017 12 11 12 33 28.9960000  0 20                     
G26  20102205.262   105637568.820       -2052.548          35.000  
G14  20642020.759   108474506.339       -2908.469          39.000  
C 9  35139283.168   182979429.161       -1152.281          34.000  
G31  21054189.222   110640490.895       -1177.417          39.000  
C 6  35966398.779   187286476.525       -1622.132          34.000  
G32  22658110.455                       -3823.506          24.000  
C 2  36203880.267                        -369.727          28.000  
G27  20182718.935   106060817.208        2413.260          35.000  
C 1  35824886.177   186549551.9573       -347.740          36.000  
C10  36104145.973   188003762.7162       -650.135          29.000  
G16  19327680.594                        -625.794          25.000  
G 3  22362134.328   117514448.002       -1387.939          34.000  
C 7  35815679.382   186501583.5572       -602.725          27.000  
C 8  38314396.267                        1332.234          21.000  
G22  22335069.354   117371581.6113      -1830.626          29.000  
C14  23499446.063                         201.165          22.000  
C 3  35189164.162   183239178.9392       -351.055          33.000  
C 4  37315442.812   194311268.248        -352.705          40.000  
C 5  38146461.924   198638606.3243       -374.304          34.000  
C13  39449838.214   205425648.3702        855.434          27.000  
> 2017 12 11 12 33 29.9960000  0 18                     
G26  20102586.611   105639619.943       -2051.565          32.000  
G14  20642574.402   108477413.856       -2907.056          35.000  
C 9  35139504.306   182980580.614       -1151.462          33.000  
G31  21054413.353   110641666.747       -1175.867          37.000  
C 6  35966710.196   187288098.277       -1620.991          30.000  
C 2  36203952.991                        -357.324          28.000  
G27  20182259.253   106058402.578        2414.574          34.000  
C 1  35824953.047   186549900.2573       -347.294          35.000  
C10  36104271.100   188004411.9752       -648.793          28.000  
G16  19327800.616                        -627.275          25.000  
G 3  22362400.487   117515834.929       -1387.380          33.000  
C 7  35815794.169   186502184.1112       -600.544          26.000  
C 8  38314139.103                        1334.057          21.000  
C14  23499408.135                         189.683          21.000  
C 3  35189231.642   183239532.0573       -348.856          32.000  
C 4  37315510.214   194311619.663        -351.443          38.000  
C 5  38146533.444   198638977.8393       -372.299          34.000  
C13  39449673.484   205424791.5982        857.668          26.000  
> 2017 12 11 12 33 30.9960000  0 19                     
G26  20102975.803   105641671.258       -2051.302          32.000  
G14  20643128.403   108480321.972       -2909.508          36.000  
C 9  35139725.705   182981732.381       -1153.364          32.000  
G31  21054637.728   110642842.825       -1176.988          38.000  
C 6  35967020.819   187289720.496       -1624.191          33.000  
G32  22659557.541                       -3800.505          25.000  
C 2  36204020.584                        -352.881          27.000  
G27  20181799.780   106055988.660        2411.050          29.000  
C 1  35825019.680   186550246.6252       -348.359          35.000  
C10  36104389.980   188005061.3952       -650.630          29.000  
G16  19327924.382                        -627.835          24.000  
G 3  22362665.216   117517222.578       -1388.591          32.000  
C 7  35815908.302   186502784.9352       -602.139          27.000  
C 8  38313882.917                        1332.418          22.000  
C14  23499368.610                         193.867          21.000  
C 3  35189298.965   183239882.3903       -351.067          32.000  
C 4  37315577.685   194311971.190        -352.644          39.000  
C 5  38146604.824   198639349.4742       -373.397          34.000  
C13  39449513.151                         856.237          25.000  
> 2017 12 11 12 33 31.9960000  0 18                     
G26  20103372.935   105643723.848       -2053.313          36.000  
G14  20643682.395   108483231.486       -2910.226          38.000  
C 9  35139947.402   182982895.8113      -1153.252          31.000  
G31  21054862.914   110644020.072       -1177.451          41.000  
C 6  35967327.358                       -1621.625          27.000  
G32  22660285.223                       -3801.513          26.000  
G27  20181339.879                        2410.174          28.000  
C 1  35825086.768   186550596.0193       -348.194          35.000  
C10  36104525.515   188005711.7412       -650.440          28.000  
G16  19328042.686                        -628.052          25.000  
G 3  22362928.967   117518611.334       -1389.118          35.000  
C 8  38313626.494                        1325.686          21.000  
G22  22336049.298                       -1827.504          27.000  
C14  23499335.402                         181.863          21.000  
C 3  35189366.750   183240235.6622       -350.975          33.000  
C 4  37315645.366   194312323.713        -352.429          40.000  
C 5  38146676.457   198639723.2663       -378.637          30.000  
C13  39449347.304                         854.934          25.000  
> 2017 12 11 12 33 32.9960000  0 20                     
G26  20103768.863   105645776.902       -2053.525          30.000  
G14  20644236.850   108486141.664       -2910.959          40.000  
C 9  35140169.325   182984049.1072      -1153.737          33.000  
G31  21055087.507   110645197.689       -1177.357          41.000  
C 6  35967647.517   187292947.4093      -1623.909          29.000  
G32  22661005.062   119084384.6933      -3800.562          27.000  
G27  20180881.672   106051248.5433       2412.118          35.000  
C 1  35825153.846   186550945.7122       -349.227          35.000  
G23  22223145.368   116783416.4172       2819.037          33.000  
C10  36104644.744   188006362.3032       -650.817          27.000  
G16  19328167.080   101570178.4363       -627.605          31.000  
G 3  22363207.796   117520001.100       -1389.291          37.000  
C 7  35816140.983   186504012.9903       -602.867          27.000  
C 8  38313371.302                        1338.602          22.000  
G22  22336421.755   117378688.0933      -1832.302          29.000  
C14  23499307.429                         186.175          21.000  
C 3  35189434.396   183240587.1782       -351.274          34.000  
C 4  37315712.985   194312676.554        -353.084          40.000  
C 5  38146748.116   198640097.1192       -374.440          35.000  
C13  39449182.330                         856.349          26.000  
> 2017 12 11 12 33 33.9960000  0 19                     
G26  20104160.245   105647830.816       -2057.275          30.000  
G14  20644791.095   108489052.305       -2911.021          40.000  
C 9  35140390.899   182985202.6272      -1152.815          33.000  
G31  21055312.344   110646375.433       -1178.040          40.000  
C 6  35967957.860   187294571.0772      -1623.434          31.000  
G32  22661721.856   119088185.4752      -3800.873          27.000  
G27  20180416.964   106048837.0342       2411.383          33.000  
C 1  35825220.908   186551294.4203       -348.998          36.000  
C10  36104764.383   188007012.7832       -650.202          28.000  
G16  19328287.032   101570833.5953       -630.036          27.000  
G 8  22878457.853                        3292.307          26.000  
G 3  22363474.121   117521391.078       -1389.817          37.000  
C 7  35816255.692   186504614.6992       -601.637          28.000  
C 8  38313117.201                        1346.102          23.000  
G22  22336802.248   117380520.2862      -1832.579          30.000  
C 3  35189501.989   183240939.7083       -351.819          34.000  
C 4  37315780.814   194313029.323        -352.712          40.000  
C 5  38146819.933   198640469.9963       -373.811          35.000  
C13  39449019.729                         856.356          25.000  
> 2017 12 11 12 33 34.9960000  0 20                     
G26  20104574.504   105650251.4913      -2053.204          29.000  
G14  20645345.279   108491963.457       -2911.412          40.000  
C 9  35140612.665   182986356.4272      -1154.115          33.000  
G31  21055536.501   110647553.248       -1177.936          42.000  
C 6  35968269.137   187296194.9712      -1622.735          35.000  
G32  22662440.456   119091986.4652      -3800.360          28.000  
G27  20179960.309   106046406.5363       2410.714          36.000  
C 1  35825287.829   186551643.0872       -348.361          35.000  
G23  22222083.566                        2820.500          28.000  
C10  36104894.134   188007663.3082       -650.772          29.000  
G16  19328412.046                        -627.301          28.000  
G 8  22877825.222                        3293.398          25.000  
G 3  22363739.059   117522781.489       -1390.033          38.000  
C 7  35816373.377   186505216.4992       -601.805          28.000  
C 8  38312859.723                        1325.004          23.000  
G22  22337170.142                       -1833.206          29.000  
C 3  35189569.818   183241292.2672       -351.510          34.000  
C 4  37315848.713   194313382.176        -352.587          40.000  
C 5  38146891.601   198640844.0172       -373.916          35.000  
C13  39448855.758   205420512.2503        856.303          26.000  
> 2017 12 11 12 33 35.9960000  0 17                     
G26  20104987.874                       -2052.369          27.000  
G14  20645899.890   108494874.902       -2911.532          40.000  
C 9  35140833.847   182987510.1382      -1153.195          33.000  
G31  21055760.893   110648731.036       -1177.827          42.000  
C 6  35968579.725   187297818.8812      -1623.377          34.000  
G32  22663156.979   119095787.6062      -3800.629          28.000  
G27  20179502.947   106043995.6842       2410.824          36.000  
C 1  35825354.995   186551992.5713       -347.790          35.000  
C10  36105021.014   188008313.6212       -650.535          29.000  
G16  19328528.980   101572105.2122       -629.990          28.000  
G 3  22364007.338   117524172.173       -1391.487          34.000  
C 7  35816490.197   186505818.0622       -601.315          29.000  
C 8  38312605.011                        1339.019          24.000  
C 3  35189637.351   183241644.6713       -351.945          34.000  
C 4  37315916.638   194313734.845        -352.614          40.000  
C 5  38146963.321   198641216.8323       -373.585          35.000  
C13  39448689.902                         856.375          25.000  
> 2017 12 11 12 33 36.9960000  0 19                     
G26  20105317.378                       -2049.682          26.000  
G14  20646453.900   108497786.641       -2911.490          38.000  
C 9  35141055.447   182988663.9272      -1152.949          34.000  
G31  21055985.521   110649908.813       -1177.368          41.000  
C 6  35968895.487   187299442.7962      -1624.765          33.000  
G32  22663888.065   119099588.8172      -3801.532          28.000  
G27  20179047.523   106041585.1362       2409.723          37.000  
C 1  35825421.803   186552341.0452       -348.626          35.000  
C10  36105147.921   188008948.6483       -649.834          29.000  
G16  19328654.281   101572735.9072       -630.000          33.000  
G 8  22876560.098                        3292.227          21.000  
G 3  22364277.407                       -1391.830          30.000  
C 7  35816603.877   186506419.3142       -600.676          29.000  
C 8  38312346.530                        1338.091          23.000  
C14  23499184.074                         188.688          21.000  
C 3  35189704.892   183241995.9093       -350.975          34.000  
C 4  37315984.345   194314087.391        -352.288          40.000  
C 5  38147035.251   198641590.5012       -373.696          34.000  
C13  39448527.074                         855.104          25.000  
> 2017 12 11 12 33 37.9960000  0 19                     
G26  20105678.903   105656054.7813      -2053.070          31.000  
G14  20647008.075   108500698.449       -2912.003          38.000  
C 9  35141276.838   182989817.5482      -1153.600          33.000  
G31  21056209.879   110651086.340       -1177.447          42.000  
C 6  35969204.425   187301066.3682      -1623.563          33.000  
G32  22664615.748   119103389.8952      -3801.147          28.000  
G27  20178590.205   106039174.6092       2410.336          38.000  
C 1  35825488.568   186552688.0893       -347.833          35.000  
C10  36105265.143   188009598.4322       -649.958          28.000  
G16  19328778.404   101573415.1813       -628.337          33.000  
G 8  22875927.118                        3291.638          21.000  
G 3  22364560.728   117526559.8543      -1391.064          29.000  
C 7  35816714.851   186507020.1962       -600.502          29.000  
C 8  38312090.247                        1348.913          22.000  
C14  23499146.137                         187.236          20.000  
C 3  35189772.398   183242347.8302       -351.166          34.000  
C 4  37316052.130   194314439.560        -352.262          40.000  
C 5  38147106.727   198641963.7972       -373.956          33.000  
C13  39448364.456                         855.734          24.000  
> 2017 12 11 12 33 38.9960000  0 19                     
G26  20106086.217   105658108.2952      -2054.116          31.000  
G14  20647562.599   108503610.548       -2912.728          36.000  
C 9  35141498.238   182990970.6101      -1153.267          33.000  
G31  21056434.594   110652263.775       -1177.468          41.000  
C 6  35969518.512   187302689.8742      -1623.486          32.000  
G32  22665331.948   119107190.9862      -3801.135          27.000  
G27  20178131.352   106036764.3172       2410.911          38.000  
C 1  35825555.393   186553036.9363       -347.781          35.000  
C10  36105395.461   188010247.7632       -649.485          27.000  
G16  19328901.280   101574046.2282       -631.301          33.000  
G 8  22875301.824                        3297.644          22.000  
G 3  22364812.387   117527950.9192      -1390.482          31.000  
C 7  35816828.932   186507595.8103       -601.489          30.000  
C 8  38311833.179                        1325.613          21.000  
C14  23499110.940                         187.799          19.000  
C 3  35189839.599   183242697.5102       -350.564          34.000  
C 4  37316119.628   194314791.534        -351.572          39.000  
C 5  38147178.160   198642335.8243       -371.949          33.000  
C13  39448199.368                         856.883          24.000  
> 2017 12 11 12 33 39.9960000  0 20                     
G26  20106491.629   105660161.7762      -2053.482          30.000  
G14  20648116.940   108506522.903       -2912.639          38.000  
C 9  35141723.084   182992124.300       -1154.900          32.000  
G31  21056659.196   110653441.260       -1177.394          40.000  
C 6  35969830.906   187304313.4712      -1624.195          33.000  
G32  22666058.253                       -3801.363          26.000  
G27  20177674.967   106034354.3782       2409.576          35.000  
C 1  35825622.306   186553384.7123       -347.786          34.000  
C10  36105518.572   188010897.0782       -649.522          27.000  
G16  19329020.657   101574677.5692       -632.525          29.000  
G 8  22874678.598                        3295.908          23.000  
G 3  22365071.400   117529342.2782      -1392.055          32.000  
C 7  35816941.233   186508196.2172       -600.515          30.000  
C 8  38311576.294                        1332.861          21.000  
G22  22338894.643                       -1832.009          19.000  
C14  23499074.155                         187.799          17.000  
C 3  35189907.044   183243049.1373       -350.846          34.000  
C 4  37316187.151   194315143.429        -352.113          41.000  
C 5  38147249.671   198642707.8812       -372.817          32.000  
C13  39448033.591                         857.975          24.000  
> 2017 12 11 12 33 40.9960000  0 20                     
G26  20106881.511   105662215.2792      -2052.654          29.000  
G14  20648670.714   108509435.591       -2912.387          41.000  
C 9  35141943.087   182993277.923       -1153.252          33.000  
G31  21056883.361   110654618.692       -1176.817          40.000  
C 6  35970142.209   187305936.9672      -1622.730          34.000  
G32  22666785.412                       -3801.363          22.000  
G27  20177215.041   106031944.6762       2410.103          34.000  
C 1  35825688.826   186553732.3242       -346.979          35.000  
C10  36105647.451   188011546.1992       -648.328          26.000  
G16  19329142.093   101575309.1212       -631.338          32.000  
G 8  22874054.902                        3288.700          22.000  
G 3  22365330.423   117530733.8012      -1391.326          33.000  
C 7  35817056.544   186508796.3492       -599.675          30.000  
C 8  38311319.584                        1338.316          20.000  
G22  22339254.580                       -1832.009          22.000  
C14  23499041.663                         188.429          20.000  
C 3  35189974.166   183243399.5532       -349.968          34.000  
C 4  37316254.666   194315495.160        -351.139          40.000  
C 5  38147321.304   198643080.7822       -372.565          33.000  
C13  39447870.056                         858.787          24.000  
> 2017 12 11 12 33 41.9960000  0 20                     
G26  20107284.192   105664268.4362      -2053.623          30.000  
G14  20649224.794   108512348.126       -2913.135          42.000  
C 9  35142164.583   182994431.140       -1152.990          33.000  
G31  21057107.387   110655795.616       -1177.284          40.000  
C 6  35970453.957   187307560.0422      -1622.998          33.000  
G32  22667508.619                       -3803.610          21.000  
G27  20176757.810   106029534.7152       2409.814          30.000  
C 1  35825755.312   186554079.3092       -346.982          35.000  
C10  36105770.859   188012194.6942       -649.198          25.000  
G16  19329262.770   101575940.5952       -632.508          33.000  
G 8  22873430.114                        3296.874          20.000  
G 3  22365590.649   117532125.1632      -1392.005          33.000  
C 7  35817164.762   186509395.9062       -599.713          29.000  
C 8  38311062.813                        1339.974          21.000  
G22  22339617.492                       -1832.009          25.000  
C14  23499004.869                         185.157          21.000  
C 3  35190041.375   183243748.3873       -349.490          34.000  
C 4  37316322.391   194315846.316        -351.469          40.000  
C 5  38147392.666   198643451.9863       -372.275          34.000  
C13  39447704.401                         859.316          24.000  
> 2017 12 11 12 33 42.9960000  0 19                     
G26  20107665.496   105666322.3392      -2054.474          30.000  
G14  20649779.431   108515261.733       -2914.317          42.000  
C 9  35142389.952   182995585.232       -1155.557          32.000  
G31  21057331.788   110656973.283       -1178.028          40.000  
C 6  35970765.653   187309183.8492      -1624.685          33.000  
G32  22668232.593                       -3803.289          23.000  
G27  20176309.182   106027126.000        2407.537          31.000  
C 1  35825822.041   186554424.9833       -348.690          35.000  
G16  19329386.012   101576573.0822       -632.718          33.000  
G 8  22872809.235                        3295.170          19.000  
G 3  22365855.386   117533517.5362      -1393.173          33.000  
C 7  35817280.596   186509995.9502       -600.143          29.000  
C 8  38310807.987                        1329.453          21.000  
G22  22339970.222                       -1835.567          27.000  
C14  23498963.241                         193.182          23.000  
C 3  35190108.541   183244097.8623       -350.903          33.000  
C 4  37316389.923   194316198.051        -351.960          40.000  
C 5  38147464.273   198643824.8823       -372.771          35.000  
C13  39447539.767                         858.570          24.000  
> 2017 12 11 12 33 43.9960000  0 17                     
G26  20108054.078   105668376.9432      -2055.025          30.000  
G14  20650333.903   108518176.257       -2915.234          42.000  
C 9  35142608.124   182996739.827       -1154.976          33.000  
G31  21057556.085   110658151.533       -1178.637          40.000  
C 6  35971077.549   187310808.1652      -1624.798          34.000  
G32  22668962.274                       -3804.510          23.000  
G27  20175852.065   106024718.036        2406.956          33.000  
C 1  35825888.823   186554773.0532       -348.368          35.000  
G16  19329505.581   101577206.5062       -633.727          34.000  
G 8  22872190.599                        3296.767          19.000  
G 3  22366117.052   117534910.7332      -1394.258          33.000  
C 7  35817398.525   186510596.4122       -601.123          29.000  
C 8  38310550.841                        1341.200          22.000  
C 3  35190175.890   183244448.8652       -351.271          34.000  
C 4  37316457.577   194316550.283        -352.564          41.000  
C 5  38147536.090   198644199.2532       -374.508          35.000  
C13  39447373.920                         857.220          23.000  
> 2017 12 11 12 33 44.9960000  0 17                     
G26  20108442.886   105670431.8682      -2054.299          31.000  
G14  20650888.471   108521091.396       -2914.928          40.000  
C 9  35142830.832   182997894.814       -1154.369          33.000  
G31  21057780.285   110659330.041       -1178.256          41.000  
C 6  35971389.358   187312432.746       -1624.505          34.000  
G32  22669690.611                       -3802.576          23.000  
G27  20175394.145   106022310.677        2406.906          35.000  
C 1  35825955.858   186555121.3072       -348.693          36.000  
G16  19329626.057   101577840.5622       -634.015          34.000  
G 8  22871574.842                        3291.549          21.000  
G 3  22366379.861   117536304.4212      -1393.720          33.000  
C 7  35817520.423   186511196.9172       -600.164          29.000  
C 8  38310290.955                        1328.074          22.000  
C 3  35190243.335   183244799.9943       -351.486          35.000  
C 4  37316525.215   194316902.662        -352.057          40.000  
C 5  38147608.124   198644572.6832       -373.185          35.000  
C13  39447210.813                         858.235          24.000  
> 2017 12 11 12 33 45.9960000  0 18                     
G26  20108836.389   105672486.9292      -2054.905          32.000  
G14  20651443.510   108524006.900       -2915.876          39.000  
C 9  35143053.959   182999049.948       -1154.995          33.000  
G31  21058004.468   110660508.608       -1178.645          41.000  
C 6  35971700.993   187314057.416       -1624.770          33.000  
G32  22670415.834                       -3803.292          25.000  
G22  22340961.935                       -1825.173          24.000  
G27  20174940.056   106019903.649        2406.462          37.000  
C 1  35826022.867   186555469.4872       -348.970          35.000  
G16  19329746.979   101578474.9662       -634.904          36.000  
G 8  22870959.041                        3292.277          22.000  
G 3  22366644.119   117537698.5472      -1395.417          33.000  
C 7  35817633.169   186511797.3302       -601.013          30.000  
C 8  38310033.259                        1339.208          22.000  
C 3  35190310.658   183245150.9882       -351.172          35.000  
C 4  37316592.860   194317255.011        -352.758          40.000  
C 5  38147679.810   198644948.1053       -373.367          34.000  
C13  39447045.368                         861.579          23.000  
> 2017 12 11 12 33 46.9960000  0 18                     
G26  20109232.840   105674542.2582      -2055.886          33.000  
G14  20651998.619   108526922.888       -2916.398          38.000  
C 9  35143271.904   183000205.234       -1154.879          32.000  
G31  21058228.546   110661687.341       -1179.054          41.000  
C 6  35972016.572   187315682.319       -1624.900          31.000  
G32  22671138.386                       -3803.801          26.000  
G22  22341297.599                       -1825.173          25.000  
G27  20174473.515   106017497.116        2406.183          39.000  
C 1  35826089.675   186555818.6893       -348.529          35.000  
G16  19329867.839   101579109.8132       -635.411          36.000  
G 8  22870344.244                        3292.250          25.000  
G 3  22366907.879   117539093.0152      -1394.992          32.000  
C 7  35817749.841   186512397.6862       -600.465          30.000  
C 8  38309780.082                        1338.718          22.000  
C 3  35190378.208   183245502.0892       -351.392          35.000  
C 4  37316660.489   194317607.367        -352.466          40.000  
C 5  38147751.565   198645321.5502       -373.232          34.000  
C13  39446878.954                         856.876          22.000  
> 2017 12 11 12 33 47.9960000  0 18                     
G26  20109621.116   105676597.8452      -2056.029          33.000  
G14  20652554.129   108529839.485       -2917.774          36.000  
C 9  35143492.693   183001360.904       -1156.322          32.000  
G31  21058452.572   110662866.313       -1179.324          40.000  
C 6  35972325.632   187317307.391       -1625.112          31.000  
G32  22671857.684                       -3804.076          26.000  
G22  22341639.292                       -1825.173          25.000  
G27  20174014.348   106015091.080        2405.695          41.000  
C 1  35826156.571   186556167.0133       -348.158          35.000  
G16  19329989.135   101579745.2212       -635.590          37.000  
G 8  22869730.275   120181242.8263       3291.880          26.000  
G 3  22367176.394   117540488.0212      -1395.890          32.000  
C 7  35817862.282   186512998.1222       -601.525          30.000  
C 8  38309524.018                        1342.734          22.000  
C 3  35190445.959   183245855.3543       -352.571          34.000  
C 4  37316728.073   194317959.823        -352.651          40.000  
C 5  38147823.407   198645695.1743       -373.965          34.000  
C13  39446711.850                         868.788          21.000  
> 2017 12 11 12 33 48.9960000  0 17                     
G26  20110010.823   105678653.0031      -2055.465          32.000  
G14  20653109.474   108532756.375       -2917.380          36.000  
C 9  35143720.942   183002516.569       -1156.203          30.000  
G31  21058677.427   110664045.242       -1178.708          40.000  
C 6  35972642.319   187318932.471       -1624.575          30.000  
G32  22672574.434                       -3802.971          26.000  
G27  20173554.875   106012685.403        2405.380          40.000  
C 1  35826223.414   186556515.3413       -348.241          34.000  
G16  19330110.519   101580380.905        -635.308          36.000  
G 8  22869110.635   120177951.1632       3291.479          27.000  
G 3  22367460.300   117541883.347       -1394.999          31.000  
C 7  35817979.608   186513598.2962       -600.319          31.000  
C 8  38309267.255                        1331.145          22.000  
C 3  35190513.796   183246208.3343       -350.557          32.000  
C 4  37316795.841   194318312.175        -352.257          39.000  
C 5  38147895.285   198646069.5992       -372.756          33.000  
C13  39446546.178                         851.885          19.000  
> 2017 12 11 12 33 49.9960000  0 17                     
G26  20110401.263   105680708.871       -2055.636          32.000  
G14  20653664.487   108535673.701       -2917.861          36.000  
C 9  35143945.351   183003672.400       -1156.149          29.000  
G31  21058901.680   110665224.323       -1178.880          38.000  
C 6  35972951.659   187320557.657       -1625.364          30.000  
G32  22673290.338                       -3802.655          26.000  
G27  20173096.903   106010280.122        2404.604          40.000  
C 1  35826290.283   186556863.5892       -348.209          34.000  
G16  19330232.121   101581017.102        -636.470          35.000  
G 8  22868490.332   120174659.5032       3291.882          28.000  
G 3  22367719.741   117543278.998       -1395.761          33.000  
C 7  35818098.880   186514198.4122       -600.626          31.000  
C 8  38309011.584                        1330.031          22.000  
C 3  35190581.137   183246558.4492       -350.640          35.000  
C 4  37316863.435   194318664.523        -352.500          39.000  
C 5  38147967.162   198646443.1102       -373.367          35.000  
C13  39446380.724                         857.643          18.000  
> 2017 12 11 12 33 50.9960000  0 19                     
G26  20110793.561   105682764.255       -2055.228          32.000  
G14  20654219.247   108538590.775       -2916.303          35.000  
C 9  35144160.434   183004827.768       -1155.223          29.000  
G31  21059125.828   110666402.847       -1177.924          40.000  
C 6  35973256.793   187322182.373       -1624.414          30.000  
G32  22674010.046                       -3803.180          25.000  
G22  22342689.952                       -1832.932          24.000  
G27  20172639.070   106007874.525        2406.205          41.000  
C 1  35826357.074   186557211.0872       -346.404          34.000  
C 2  36205488.113                        -369.789          32.000  
G16  19330353.260   101581653.082        -636.578          36.000  
G 8  22867868.319   120171367.1922       3293.623          27.000  
G 3  22367996.903   117544674.378       -1395.801          32.000  
C 7  35818213.240   186514797.2671       -597.126          31.000  
C 8  38308756.540                        1342.028          24.000  
C 3  35190648.294   183246908.8113       -348.905          34.000  
C 4  37316930.941   194319016.184        -350.455          39.000  
C 5  38148038.839   198646816.8833       -372.001          36.000  
C13  39446213.123                         848.874          18.000  
> 2017 12 11 12 33 51.9960000  0 18                     
G26  20111183.644   105684818.907       -2055.322          31.000  
G14  20654773.902   108541507.382       -2917.795          34.000  
C 9  35144378.326                       -1153.712          28.000  
G31  21059349.941   110667580.525       -1178.780          38.000  
C 6  35973572.442   187323806.125       -1624.066          32.000  
G32  22674728.062                       -3803.843          24.000  
G22  22343057.296                       -1833.851          25.000  
G27  20172180.435   106005468.399        2405.123          38.000  
C 1  35826423.550   186557557.7063       -347.095          33.000  
C 2  36205565.827                        -400.488          27.000  
G16  19330474.531   101582288.415        -635.802          32.000  
G 8  22867243.288   120168074.1582       3291.027          27.000  
G 3  22368271.360   117546069.088       -1394.688          32.000  
C 7  35818327.941   186515401.6473       -598.652          30.000  
C 3  35190715.434   183247258.3713       -350.701          34.000  
C 4  37316998.229   194319366.904        -350.938          38.000  
C 5  38148110.437   198647188.7452       -372.352          35.000  
C13  39446046.753                         848.874          17.000  
> 2017 12 11 12 33 52.9960000  0 17                     
G26  20111576.160   105686874.878       -2056.485          27.000  
G14  20655328.391   108544425.628       -2918.758          34.000  
C 9  35144605.807                       -1156.714          27.000  
G31  21059574.525   110668759.438       -1179.417          38.000  
C 6  35973879.845                       -1622.482          24.000  
G32  22675443.215                       -3803.390          25.000  
G22  22343405.856                       -1836.363          26.000  
G27  20171722.986   106003063.834        2404.064          38.000  
C 1  35826490.062   186557903.4172       -346.198          31.000  
G16  19330600.137   101582925.411        -637.453          31.000  
G 8  22866618.762                        3291.004          26.000  
G 3  22368531.499   117547465.363       -1396.839          35.000  
C 7  35818447.632   186516001.0232       -598.750          29.000  
C 3  35190782.949   183247609.9862       -351.656          32.000  
C 4  37317066.154   194319718.790        -352.001          37.000  
C 5  38148182.446   198647561.7062       -373.163          34.000  
C13  39445881.752                         852.650          16.000  
> 2017 12 11 12 33 53.9960000  0 18                     
G26  20111962.159   105688931.344       -2056.422          28.000  
G14  20655881.336   108547344.661       -2919.498          35.000  
C 9  35144828.149   183008310.7833      -1156.495          27.000  
G31  21059799.031   110669938.906       -1180.340          38.000  
C 6  35974187.571                       -1628.589          23.000  
G32  22676163.543   119164042.7243      -3805.035          32.000  
G22  22343762.686   117417264.6773      -1835.637          28.000  
G27  20171266.104   106000660.132        2403.365          40.000  
C 1  35826557.106   186558252.6322       -348.520          31.000  
G16  19330726.817   101583563.247        -638.503          32.000  
G 8  22865989.280                        3292.117          26.000  
G 3  22368805.773   117548862.451       -1397.512          35.000  
C 7  35818562.733   186516600.9232       -600.898          28.000  
C14  23498555.037   122363110.8083        181.052          28.000  
C 3  35190850.446   183247961.0353       -351.937          31.000  
C 4  37317133.747   194320071.099        -353.162          36.000  
C 5  38148254.410   198647940.0713       -373.242          34.000  
C13  39445713.340                         859.073          17.000  
> 2017 12 11 12 33 54.9960000  0 18                     
G26  20112344.092   105691080.8473      -2057.032          29.000  
G14  20656434.377   108550264.282       -2919.892          37.000  
C 9  35145052.533   183009467.6982      -1157.785          28.000  
G31  21060023.519   110671118.723       -1179.659          38.000  
C 6  35974510.033   187328682.7943      -1625.861          31.000  
G32  22676893.634   119167847.7212      -3805.432          31.000  
G22  22344125.660   117419101.1142      -1836.460          34.000  
G27  20170808.830   105998257.099        2402.284          38.000  
C 1  35826624.411   186558601.1082       -349.317          32.000  
G16  19330840.523   101584201.733        -638.324          33.000  
G 8  22865369.204                        3291.380          27.000  
G 3  22369075.074   117550260.192       -1398.397          34.000  
C 7  35818674.956   186517208.4183       -600.998          28.000  
C14  23498519.919   122362930.1572        181.335          28.000  
C 3  35190918.048   183248313.2833       -352.555          32.000  
C 4  37317201.131   194320423.594        -352.664          37.000  
C 5  38148326.270   198648313.7573       -373.965          33.000  
C13  39445547.642                         870.552          18.000  
> 2017 12 11 12 33 55.9960000  0 17                     
G14  20656987.471   108553184.385       -2919.846          37.000  
C 9  35145270.259   183010624.5842      -1157.278          30.000  
G31  21060247.057   110672298.585       -1179.929          40.000  
C 6  35974821.127   187330308.8352      -1626.022          32.000  
G32  22677626.988   119171652.7762      -3804.260          35.000  
G22  22344519.476   117420937.8062      -1836.656          37.000  
G27  20170351.303   105995854.405        2402.292          40.000  
C 1  35826691.603   186558953.4233       -349.264          33.000  
G16  19330958.957   101584840.588        -638.588          36.000  
G 8  22864748.535                        3294.042          26.000  
G 3  22369323.530   117551658.214       -1398.409          39.000  
C 7  35818796.025   186517808.0562       -600.656          28.000  
C14  23498476.616   122362750.0522        180.475          28.000  
C 3  35190985.258   183248664.3752       -350.715          36.000  
C 4  37317268.568   194320776.016        -352.147          44.000  
C 5  38148398.253   198648689.3072       -373.960          34.000  
C13  39445381.515                         870.552          17.000  
> 2017 12 11 12 33 56.9960000  0 18                     
G26  20113122.145   105695170.2182      -2057.289          34.000  
G14  20657544.866   108556104.817       -2921.012          41.000  
C 9  35145489.739   183011781.5632      -1156.805          33.000  
G31  21060470.271   110673478.430       -1179.589          40.000  
C 6  35975133.041   187331926.8603      -1625.738          35.000  
G32  22678354.950   119175457.9822      -3805.841          36.000  
G27  20169893.304   105993451.984        2402.125          41.000  
C 1  35826758.743   186559303.1333       -348.396          32.000  
G16  19331077.750   101585479.745        -639.793          36.000  
G 8  22864122.909   120151775.9083       3291.658          26.000  
G 3  22369593.520   117553056.446       -1398.579          40.000  
C 7  35818914.041   186518453.5643       -598.053          31.000  
G23  22210072.075                        2802.116          26.000  
C14  23498445.092                         178.907          26.000  
C 3  35191052.746   183249015.4502       -350.586          35.000  
C 4  37317335.856   194321128.370        -352.308          43.000  
C 5  38148469.790   198649061.7013       -373.290          35.000  
C13  39445215.005                         870.552          16.000  
> 2017 12 11 12 33 57.9960000  0 19                     
G26  20113533.499   105697227.4712      -2056.167          30.000  
G14  20658101.074   108559025.517       -2920.506          40.000  
C 9  35145711.156   183012938.5932      -1156.208          32.000  
G31  21060693.704   110674658.232       -1178.904          41.000  
C 6  35975449.658   187333552.8862      -1626.021          33.000  
G32  22679081.882   119179263.2462      -3806.146          34.000  
G22  22345207.111   117424855.4733      -1835.023          37.000  
G27  20169434.791   105991049.884        2402.340          40.000  
C 1  35826825.394   186559651.2452       -347.611          36.000  
G16  19331196.254   101586119.293        -639.777          33.000  
G 8  22863498.445                        3282.588          25.000  
G 3  22369844.427   117554454.956       -1398.229          40.000  
C 7  35819026.202   186519052.9502       -599.443          31.000  
G23  22209509.811                        2812.736          26.000  
C14  23498416.657   122362390.2863        179.293          27.000  
C 3  35191120.069                        -347.363          35.000  
C 4  37317403.196   194321480.535        -352.078          43.000  
C 5  38148541.353   198649434.0033       -372.588          35.000  
C13  39445048.818                         856.869          14.000  
> 2017 12 11 12 33 58.9960000  0 18                     
G26  20113925.570   105699284.5202      -2057.531          32.000  
G14  20658655.493   108561946.321       -2920.825          39.000  
C 9  35145933.507   183014095.4362      -1156.469          32.000  
G31  21060917.136   110675837.821       -1179.649          41.000  
C 6  35975756.825   187335178.6382      -1625.820          33.000  
G32  22679801.878   119183068.3092      -3804.999          35.000  
G27  20168976.950   105988647.788        2402.281          40.000  
C 1  35826892.246   186559998.9452       -347.211          35.000  
G16  19331318.414   101586763.7803       -639.539          32.000  
G 8  22862877.409                        3296.574          23.000  
G 3  22370107.062   117555853.448       -1398.584          41.000  
C 7  35819137.360   186519651.8512       -598.483          30.000  
G23  22208980.791                        2812.736          25.000  
C14  23498385.386   122362210.9312        178.402          26.000  
C 3  35191187.445   183249716.4413       -350.868          34.000  
C 4  37317470.772   194321832.353        -351.393          43.000  
C 5  38148613.056   198649806.9492       -373.325          35.000  
C13  39444883.582                         856.869          13.000  
> 2017 12 11 12 33 59.9960000  0 19                     
G26  20114316.961                       -2051.504          26.000  
G14  20659210.550   108564867.664       -2922.121          38.000  
C 9  35146159.889   183015252.6582      -1157.578          31.000  
G31  21061140.665   110677017.610       -1179.698          35.000  
C 6  35976069.358   187336804.6742      -1626.354          34.000  
G32  22680520.609   119186873.7162      -3805.597          31.000  
G22  22345905.015   117428522.7622      -1836.513          36.000  
G27  20168519.536   105986246.249        2401.907          36.000  
C 1  35826959.525   186560347.8103       -348.380          35.000  
G16  19331444.640   101587403.9502       -640.120          32.000  
G 8  22862250.187                        3286.654          22.000  
G 3  22370371.468   117557252.488       -1399.894          35.000  
C 7  35819260.245   186520250.8512       -598.789          31.000  
G23  22208461.978                        2812.736          27.000  
C14  23498344.465                         177.981          25.000  
C 3  35191254.942   183250067.1533       -350.762          32.000  
C 4  37317538.121   194322184.372        -352.715          39.000  
C 5  38148684.759   198650180.9843       -373.324          35.000  
C13  39444717.762                         856.869          13.000  
> 2017 12 11 12 34  0.9960000  0 17                     
G26  20114707.139                       -2059.028          26.000  
G14  20659766.950   108567789.236       -2921.268          41.000  
C 9  35146377.222   183016409.7752      -1156.406          31.000  
G31  21061364.446   110678197.450       -1179.314          35.000  
C 6  35976382.677   187338430.6352      -1625.749          36.000  
G32  22681254.679   119190678.6031      -3805.328          28.000  
G27  20168061.860   105983845.086        2401.434          37.000  
C 1  35827026.133   186560695.5153       -347.195          34.000  
G16  19331568.493   101588044.3102       -640.098          34.000  
G 8  22861622.729                        3282.657          19.000  
G 3  22370642.784   117558651.718       -1398.383          35.000  
C 7  35819372.930   186520849.5592       -598.231          30.000  
C14  23498309.888                         149.751          22.000  
C 3  35191322.152   183250417.7102       -350.273          34.000  
C 4  37317605.619   194322536.141        -351.607          39.000  
C 5  38148756.296   198650552.8302       -371.624          35.000  
C13  39444546.976                         861.440          17.000  
> 2017 12 11 12 34  1.9960000  0 18                     
G22  22346601.523   117432183.1752      -1835.986          41.000  
G14  20660322.862   108570710.221       -2921.313          40.000  
C 9  35146600.786   183017566.0272      -1156.382          32.000  
G31  21061587.914   110679376.246       -1179.170          36.000  
C 6  35976694.486   187340055.5922      -1625.036          36.000  
G32  22681973.689   119194483.157       -3804.431          27.000  
G26  20115090.294                       -2056.164          30.000  
G27  20167604.176   105981443.116        2401.938          38.000  
C 1  35827092.347   186561040.0862       -346.363          35.000  
G16  19331691.753   101588684.0322       -639.545          32.000  
G 8  22860992.864                        3282.657          18.000  
G 3  22370910.932   117560050.229       -1398.831          38.000  
C 7  35819489.436   186521447.1402       -597.585          31.000  
C14  23498279.332                         180.230          23.000  
C 3  35191388.846   183250767.1192       -349.575          36.000  
C 4  37317673.456   194322886.835        -350.766          39.000  
C 5  38148828.051   198650924.6462       -372.076          37.000  
C13  39444375.301                         859.587          21.000  
> 2017 12 11 12 34  2.9960000  0 16                     
G14  20660878.939   108573631.693       -2922.549          40.000  
C 9  35146818.748   183018722.493       -1157.163          33.000  
G31  21061811.687   110680555.142       -1180.008          36.000  
C 6  35977007.543   187341680.7332      -1626.000          35.000  
G32  22682692.141   119198287.958       -3805.029          26.000  
G27  20167146.928   105979041.620        2400.541          38.000  
C 1  35827158.754   186561386.7392       -347.516          37.000  
G16  19331811.505   101589324.3202       -641.995          32.000  
G 8  22860363.993                        3282.038          16.000  
G 3  22371177.729   117561449.124       -1400.098          38.000  
C 7  35819603.290   186522044.6522       -598.346          31.000  
C14  23498248.777                         176.075          25.000  
C 3  35191455.733   183251116.5912       -350.342          38.000  
C 4  37317740.919   194323237.561        -351.432          40.000  
C 5  38148899.484   198651298.4593       -372.827          37.000  
C13  39444208.390                         863.630          21.000  
> 2017 12 11 12 34  3.9960000  0 17                     
G22  22347303.702   117435873.1742      -1838.381          42.000  
G14  20661435.723   108576554.888       -2923.642          41.000  
C 9  35147044.580   183019880.393       -1158.154          32.000  
G31  21062035.678   110681735.491       -1180.991          36.000  
C 6  35977320.138   187343307.2612      -1626.320          35.000  
G26  20115902.776   105709782.2123      -2059.427          34.000  
G27  20166689.610   105976641.822        2399.607          38.000  
C 1  35827225.676   186561734.6422       -347.969          36.000  
G16  19331933.465   101589966.2302       -643.038          33.000  
G 8  22859735.445                        3282.038          15.000  
G 3  22371444.342   117562849.746       -1400.886          38.000  
C 7  35819719.910   186522643.3882       -598.386          31.000  
C14  23498220.639   122361369.3373        176.762          26.000  
C 3  35191522.873   183251467.3552       -351.003          37.000  
C 4  37317808.809   194323589.590        -352.381          39.000  
C 5  38148971.161   198651671.5812       -373.446          37.000  
C13  39444039.925                         863.430          21.000  
> 2017 12 11 12 34  4.9960000  0 16                     
G14  20661992.568   108579478.968       -2924.276          40.000  
C 9  35147265.979   183021038.892       -1158.195          32.000  
G31  21062260.166   110682916.406       -1181.202          37.000  
C 6  35977632.453   187344934.3842      -1626.979          35.000  
G26  20116302.464   105711841.0392      -2059.233          34.000  
G27  20166233.296   105974242.888        2398.417          38.000  
C 1  35827292.336   186562083.0452       -348.561          36.000  
G16  19332056.550   101590609.0532       -643.222          33.000  
G 8  22859106.295                        3286.609          14.000  
G 3  22371710.624   117564251.162       -1401.712          38.000  
C 7  35819833.781   186523242.5082       -599.420          31.000  
C14  23498187.440   122361193.5282        175.314          26.000  
C 3  35191590.353   183251818.5572       -351.180          36.000  
C 4  37317876.882   194323942.053        -352.353          39.000  
C 5  38149043.152   198652045.0942       -373.561          36.000  
C13  39443870.850                         859.290          21.000  
> 2017 12 11 12 34  5.9960000  0 18                     
G22  22347998.465   117439524.2743      -1839.133          41.000  
G14  20662549.457   108582403.628       -2924.998          41.000  
C 9  35147488.801   183022197.710       -1158.922          33.000  
G31  21062484.480   110684097.500       -1181.424          37.000  
C 6  35977944.672   187346561.7192      -1627.971          34.000  
G26  20116697.433   105713900.2192      -2059.753          34.000  
G27  20165776.580   105971844.464        2397.891          38.000  
C 1  35827359.153   186562429.4953       -348.688          36.000  
G 4  20816999.860                       -2934.673          26.000  
G16  19332180.446   101591252.3922       -643.679          32.000  
G 8  22858482.659                        3286.609          12.000  
G 3  22371977.123   117565653.072       -1402.169          38.000  
C 7  35819947.644   186523841.6152       -599.195          31.000  
C14  23498155.113   122361018.1892        176.166          27.000  
C 3  35191657.719   183252164.8723       -351.354          36.000  
C 4  37317944.641   194324294.605        -352.564          40.000  
C 5  38149115.046   198652418.7522       -373.879          35.000  
C13  39443704.890                         859.955          22.000  
> 2017 12 11 12 34  6.9960000  0 17                     
G14  20663106.835   108585328.663       -2925.323          42.000  
C 9  35147710.061   183023356.606       -1158.884          32.000  
G31  21062709.300   110685278.694       -1180.977          38.000  
C 6  35978257.179   187348189.1182      -1627.442          34.000  
G26  20117088.745   105715959.5442      -2059.031          34.000  
G27  20165320.222   105969446.467        2397.861          38.000  
C 1  35827425.882   186562777.9542       -348.570          36.000  
G 4  20817565.570                       -2934.821          28.000  
G16  19332303.523   101591896.152        -643.376          32.000  
G 8  22857860.515                        3286.609          12.000  
G 3  22372243.606   117567055.329       -1402.140          37.000  
C 7  35820067.352   186524440.6132       -599.136          31.000  
C14  23498118.066   122360843.4502        174.340          29.000  
C 3  35191725.060   183252516.1482       -351.440          37.000  
C 4  37318012.811   194324647.122        -352.046          41.000  
C 5  38149186.549   198652792.3362       -373.582          38.000  
C13  39443539.034                         859.836          22.000  
> 2017 12 11 12 34  7.9960000  0 17                     
G22  22348693.943   117443178.4793      -1837.929          38.000  
G14  20663663.819   108588253.935       -2925.393          40.000  
C 9  35147931.688   183024515.499       -1158.083          31.000  
G31  21062934.303   110686459.792       -1181.293          36.000  
C 6  35978569.634   187349816.4362      -1627.088          36.000  
G26  20117478.129   105718018.8272      -2058.800          31.000  
G27  20164863.742   105967048.650        2397.560          35.000  
C 1  35827493.004   186563126.1912       -348.700          37.000  
G 4  20818132.824   109399979.4833      -2934.414          27.000  
G16  19332426.398   101592540.159        -644.438          30.000  
G 3  22372509.870   117568457.777       -1402.974          36.000  
C 7  35820184.426   186525039.3322       -597.953          30.000  
C14  23498084.099   122360668.9022        173.812          31.000  
C 3  35191792.444   183252867.1892       -350.846          36.000  
C 4  37318080.500   194324999.455        -351.932          40.000  
C 5  38149258.121   198653165.7672       -373.949          38.000  
C13  39443370.718                         854.592          22.000  
> 2017 12 11 12 34  8.9960000  0 17                     
G22  22349050.416   117445017.4812      -1839.317          37.000  
G14  20664220.726   108591179.524       -2925.652          39.000  
C 9  35148154.196   183025674.498       -1159.025          30.000  
G31  21063159.254   110687640.856       -1180.891          36.000  
C 6  35978882.185   187351443.700       -1626.816          33.000  
G26  20117870.471   105720078.2082      -2059.808          30.000  
G27  20164407.192   105964651.139        2396.796          36.000  
C 1  35827559.821   186563474.2712       -348.198          36.000  
G 4  20818697.417   109402914.3982      -2935.533          26.000  
G16  19332550.696   101593184.425        -644.520          29.000  
G 3  22372776.317   117569860.432       -1402.910          35.000  
C 7  35820303.358   186525637.3831       -598.815          31.000  
C14  23498049.251   122360494.6702        173.848          31.000  
C 3  35191859.889   183253218.1282       -350.546          35.000  
C 4  37318148.181   194325351.658        -351.972          39.000  
C 5  38149329.640   198653539.0152       -373.635          38.000  
C13  39443207.812                         862.663          21.000  
> 2017 12 11 12 34  9.9960000  0 16                     
G14  20664777.614   108594105.386       -2925.725          40.000  
C 9  35148376.956   183026833.443       -1158.909          32.000  
G31  21063384.431   110688821.885       -1180.997          37.000  
C 6  35979194.692   187353070.979       -1627.211          35.000  
G26  20118262.726   105722137.6822      -2059.890          31.000  
G27  20163950.633   105962253.814        2397.753          36.000  
C 1  35827626.647   186563822.1972       -347.519          36.000  
G16  19332672.420   101593828.985        -644.924          29.000  
G 3  22373042.895   117571263.315       -1403.240          35.000  
C 7  35820417.203   186526235.666        -599.021          31.000  
G23  22203077.740                        2805.679          30.000  
C14  23498012.824   122360320.7342        174.345          32.000  
C 3  35191927.569   183253568.9232       -350.969          35.000  
C 4  37318215.853   194325703.672        -351.609          39.000  
C 5  38149401.160   198653911.5931       -372.349          38.000  
C13  39443043.099                         863.434          20.000  
> 2017 12 11 12 34 10.9960000  0 17                     
G22  22349751.418                       -1836.133          34.000  
G14  20665334.870   108597031.807       -2927.097          40.000  
C 9  35148599.769   183027992.655       -1159.871          31.000  
G31  21063609.033   110690003.135       -1182.208          39.000  
C 6  35979507.671   187354698.480       -1627.316          35.000  
G32  22688504.983   119228897.9573      -3807.904          26.000  
G26  20118648.585   105724211.3153      -2059.969          30.000  
G27  20163494.536   105959857.087        2395.903          38.000  
C 1  35827693.865   186564170.2152       -348.488          36.000  
G16  19332792.085   101594474.038        -644.736          30.000  
G 3  22373309.090   117572666.737       -1404.058          35.000  
C 7  35820526.851   186526834.018        -598.855          31.000  
C14  23497977.636   122360147.4802        172.103          33.000  
C 3  35191994.910   183253919.7822       -350.967          35.000  
C 4  37318283.472   194326055.815        -352.573          39.000  
C 5  38149472.881   198654284.812        -373.345          37.000  
C13  39442880.384                         869.112          21.000  
> 2017 12 11 12 34 11.9960000  0 18                     
G22  22350124.722   117450697.6033      -1837.639          34.000  
G14  20665891.863   108599958.105       -2925.805          43.000  
C 9  35148819.738   183029151.479       -1158.125          32.000  
G31  21063833.800   110691183.942       -1180.042          39.000  
C 6  35979820.126   187356325.546       -1626.728          36.000  
G32  22689225.170   119232705.5772      -3806.836          26.000  
G26  20119029.532   105726270.7422      -2059.187          31.000  
G27  20163038.335   105957460.222        2397.527          40.000  
C 1  35827760.551   186564517.716        -346.984          37.000  
C10  36109496.035   188031589.9883       -645.934          27.000  
G16  19332915.860   101595119.031        -643.955          32.000  
G 3  22373575.781   117574069.923       -1402.509          38.000  
C 7  35820644.422   186527431.679        -596.987          31.000  
C14  23497943.363   122359974.0642        173.931          34.000  
C 3  35192062.023   183254269.6511       -349.397          36.000  
C 4  37318351.048   194326407.380        -351.127          40.000  
C 5  38149544.732   198654657.502        -371.884          38.000  
C13  39442714.511                         868.759          21.000  
> 2017 12 11 12 34 12.9960000  0 17                     
G14  20666449.328   108602883.876       -2926.703          44.000  
C 9  35149043.345   183030309.535       -1158.367          33.000  
G31  21064058.472   110692363.935       -1181.167          39.000  
C 6  35980132.397   187357951.767       -1626.876          37.000  
G32  22689944.198                       -3807.979          26.000  
G26  20119417.695   105728329.3562      -2060.048          31.000  
G27  20162581.881   105955062.805        2396.487          40.000  
C 1  35827827.089   186564864.265        -346.821          37.000  
C10  36109618.963   188032236.4942       -646.855          27.000  
G16  19333037.566   101595763.515        -645.615          34.000  
G 3  22373842.377   117575472.548       -1403.163          38.000  
C 7  35820761.906   186528028.386        -598.452          31.000  
C14  23497911.203   122359800.1672        172.609          34.000  
C 3  35192128.587   183254616.5553       -350.024          37.000  
C 4  37318418.188   194326758.020        -350.971          39.000  
C 5  38149616.033   198655029.212        -372.316          38.000  
C13  39442553.132                         869.014          21.000  
> 2017 12 11 12 34 13.9960000  0 18                     
G14  20667006.801   108605811.304       -2928.162          44.000  
C 9  35149270.652   183031468.937       -1159.508          33.000  
G31  21064283.309   110693545.212       -1182.090          41.000  
C 6  35980444.957   187359579.264       -1627.178          37.000  
G32  22690664.892   119240248.5273      -3808.038          27.000  
G26  20119805.718   105730389.2582      -2061.115          30.000  
G27  20162125.864   105952666.992        2394.966          40.000  
C 1  35827893.941   186565212.007        -347.679          37.000  
G16  19333156.795   101596409.525        -646.893          35.000  
G 8  22853511.327                        3286.609          12.000  
G 3  22374109.278   117576876.780       -1405.164          38.000  
C 7  35820878.918   186528626.119        -598.957          32.000  
G22  22350894.651                       -1840.430          35.000  
C14  23497877.663   122359627.9542        171.781          35.000  
C 3  35192195.971   183254967.0932       -350.907          37.000  
C 4  37318485.930   194327109.853        -352.582          40.000  
C 5  38149687.928   198655402.105        -373.217          38.000  
C13  39442388.681                         862.338          21.000  
> 2017 12 11 12 34 14.9960000  0 17                     
G14  20667564.641   108608739.717       -2928.688          41.000  
C 9  35149490.603   183032629.067       -1159.734          32.000  
G31  21064508.059   110694727.096       -1181.979          42.000  
C 6  35980757.988   187361207.494       -1628.463          35.000  
G32  22691386.999   119244057.5722      -3809.412          32.000  
G27  20161669.776   105950272.123        2394.427          39.000  
C 1  35827960.644   186565560.238        -348.421          37.000  
G16  19333275.282   101597056.600        -647.747          34.000  
G 8  22852881.915                        3286.609          15.000  
G 3  22374376.773   117578281.916       -1405.154          32.000  
C 7  35820993.461                        -598.157          31.000  
G22  22351216.058   117456432.7012      -1840.887          33.000  
C14  23497845.764   122359456.752         171.085          35.000  
C 3  35192263.373   183255319.2093       -351.205          35.000  
C 4  37318553.610   194327462.205        -352.650          39.000  
C 5  38149759.876   198655775.521        -373.406          37.000  
C13  39442228.654                         866.337          21.000  
> 2017 12 11 12 34 15.9960000  0 18                     
G14  20668122.402   108611668.614       -2929.226          39.000  
C 9  35149714.236   183033789.501       -1161.437          32.000  
G31  21064733.298   110695909.226       -1182.451          38.000  
C 6  35981070.853   187362835.874       -1628.632          36.000  
G32  22692120.545   119247866.8322      -3810.425          27.000  
G26  20120586.065   105734392.4623      -2060.832          27.000  
G27  20161214.125   105947877.810        2394.080          39.000  
C 1  35828027.400   186565908.611        -347.794          37.000  
G16  19333398.280   101597704.135        -647.988          33.000  
G 8  22852253.018                        3282.480          18.000  
G 3  22374644.389   117579687.476       -1405.894          32.000  
C 7  35821110.997   186529879.0903       -598.568          31.000  
G23  22199871.533   116661111.6572       2809.052          31.000  
C14  23497813.281   122359286.104         170.029          36.000  
C 3  35192330.678   183255670.4022       -351.254          36.000  
C 4  37318621.029   194327814.652        -352.583          41.000  
C 5  38149831.631   198656152.5373       -373.275          35.000  
C13  39442068.138                         854.938          21.000  
> 2017 12 11 12 34 16.9960000  0 17                     
G22  22351892.176   117459985.7053      -1840.829          32.000  
G14  20668680.068   108614598.082       -2929.728          41.000  
C 9  35149936.142   183034950.141       -1160.723          32.000  
G31  21064957.944   110697091.565       -1182.163          38.000  
C 6  35981383.831   187364464.495       -1628.366          36.000  
G26  20120970.860   105736453.7372      -2061.760          27.000  
G27  20160758.674   105945484.016        2393.649          36.000  
C 1  35828094.182   186566257.075        -348.180          37.000  
G16  19333523.293   101598352.206        -648.165          33.000  
G 8  22851622.847                        3283.509          18.000  
G 3  22374915.618   117581093.549       -1406.535          31.000  
C 7  35821218.054   186530477.3402       -598.165          32.000  
C14  23497780.466   122359116.069         169.473          36.000  
C 3  35192398.193   183256020.6813       -350.939          36.000  
C 4  37318688.701   194328167.163        -352.323          40.000  
C 5  38149903.561   198656527.1512       -373.459          35.000  
C13  39441906.200                         852.650          21.000  
> 2017 12 11 12 34 17.9960000  0 18                     
G14  20669237.419   108617527.795       -2929.932          41.000  
C 9  35150158.763   183036110.743       -1160.155          32.000  
G31  21065182.842   110698273.861       -1182.256          38.000  
C 6  35981696.870   187366093.079       -1628.672          36.000  
G26  20121351.022   105738515.0132      -2061.437          28.000  
G27  20160303.153   105943090.433        2393.033          36.000  
C 1  35828161.217   186566605.363        -348.188          35.000  
C10  36110247.293   188035502.3533       -647.802          28.000  
G16  19333646.710   101599000.572        -648.138          33.000  
G 8  22850990.425                        3290.220          17.000  
G 3  22375188.714   117582499.852       -1406.106          32.000  
C 7  35821333.880   186531075.3832       -598.513          31.000  
G23  22198809.617   116655531.7683       2809.516          26.000  
C14  23497747.511   122358946.323         169.106          35.000  
C 3  35192465.656   183256371.7912       -351.039          35.000  
C 4  37318756.321   194328519.520        -352.395          38.000  
C 5  38149975.194   198656900.5972       -373.704          33.000  
C13  39441743.791                         858.739          21.000  
> 2017 12 11 12 34 18.9960000  0 19                     
G14  20669795.084   108620458.038       -2930.454          42.000  
C 9  35150381.707   183037271.693       -1160.940          31.000  
G31  21065408.020   110699456.323       -1182.327          40.000  
C 6  35982009.866   187367721.823       -1628.653          36.000  
G26  20121745.074   105740576.5612      -2061.932          30.000  
G27  20159847.441   105940697.321        2393.583          37.000  
C 1  35828228.069   186566953.6813       -348.114          34.000  
C10  36110372.656   188036150.3052       -647.904          27.000  
G22  22352587.462                       -1839.551          35.000  
G16  19333770.275   101599649.430        -648.803          34.000  
G 8  22850357.811                        3291.360          16.000  
G 3  22375458.852   117583906.583       -1407.581          32.000  
C 7  35821448.589   186531673.3732       -598.312          30.000  
G23  22198292.332   116652722.6072       2808.559          25.000  
C14  23497714.931   122358777.062         169.421          35.000  
C 3  35192532.926   183256722.9862       -351.072          35.000  
C 4  37318824.036   194328871.932        -352.120          38.000  
C 5  38150046.836   198657273.0663       -373.457          33.000  
C13  39441579.183                         861.103          19.000  
> 2017 12 11 12 34 19.9960000  0 18                     
G14  20670352.636   108623388.280       -2930.379          42.000  
C 9  35150604.555   183038432.286       -1160.507          31.000  
G31  21065633.258   110700638.439       -1182.359          40.000  
C 6  35982322.722   187369350.244       -1628.642          37.000  
G26  20122142.913   105742637.8672      -2061.224          32.000  
G27  20159392.086   105938304.228        2392.924          37.000  
C 1  35828294.851   186567301.6102       -347.370          35.000  
C10  36110496.465   188036797.8472       -647.592          28.000  
G16  19333894.197   101600298.338        -648.896          34.000  
G 8  22849722.580                        3297.834          18.000  
G 3  22375725.290   117585313.127       -1407.423          31.000  
C 7  35821565.715   186532270.8332       -597.424          30.000  
G23  22197763.127                        2809.982          25.000  
C14  23497682.823   122358607.961         168.769          35.000  
C 3  35192600.284   183257073.7532       -350.765          36.000  
C 4  37318891.682   194329223.933        -351.887          39.000  
C 5  38150118.582   198657647.1242       -373.239          34.000  
C13  39441413.092                         863.475          18.000  
> 2017 12 11 12 34 20.9960000  0 20                     
G14  20670910.458   108626318.915       -2931.128          41.000  
C 9  35150827.403   183039593.071       -1161.349          30.000  
G31  21065858.942   110701820.633       -1182.530          39.000  
C 6  35982635.544   187370978.648       -1628.544          34.000  
G32  22695741.693                       -3804.905          21.000  
G26  20122547.409   105744699.2812      -2061.898          32.000  
G27  20158936.566   105935911.483        2392.490          35.000  
C 1  35828361.406   186567649.4572       -347.733          35.000  
C10  36110618.599   188037445.1742       -647.288          27.000  
G22  22353272.409   117467239.0653      -1841.305          36.000  
G16  19334018.015   101600947.524        -649.200          33.000  
G 8  22849088.535                        3294.640          20.000  
G 3  22375980.988   117586720.037       -1406.718          34.000  
C 7  35821686.584   186532868.1382       -596.564          30.000  
G23  22197197.627                        2809.529          26.000  
C14  23497650.488   122358439.196         168.755          35.000  
C 3  35192667.572   183257424.4602       -350.968          35.000  
C 4  37318959.215   194329575.850        -351.862          38.000  
C 5  38150190.390   198658021.0273       -372.383          34.000  
C13  39441245.997                         861.982          19.000  
> 2017 12 11 12 34 21.9960000  0 19                     
G14  20671468.612   108629249.901       -2930.990          43.000  
C 9  35151048.576   183040753.910       -1161.014          30.000  
G31  21066084.006   110703002.869       -1182.583          40.000  
C 6  35982948.226   187372607.222       -1628.414          35.000  
G32  22696457.247                       -3812.513          21.000  
G26  20122946.809   105746760.7792      -2061.160          34.000  
G27  20158480.784   105933519.071        2392.498          37.000  
C 1  35828428.083   186567997.2652       -347.279          35.000  
C10  36110743.935   188038091.9431       -647.460          27.000  
G16  19334141.493   101601597.141        -649.270          36.000  
G 8  22848451.384                        3290.793          22.000  
G 3  22376250.839   117588127.287       -1406.775          34.000  
C 7  35821800.639   186533465.3972       -596.866          30.000  
G23  22196650.807   116644186.7743       2808.702          27.000  
C14  23497618.039   122358270.899         168.308          35.000  
C 3  35192734.590   183257775.0352       -349.825          35.000  
C 4  37319026.948   194329927.719        -351.388          39.000  
C 5  38150262.259   198658394.9872       -372.267          35.000  
C13  39441079.199                         861.408          20.000  
> 2017 12 11 12 34 22.9960000  0 19                     
G14  20672026.557   108632180.865       -2930.987          45.000  
C 9  35151269.932   183041914.441       -1159.718          31.000  
G31  21066309.253   110704184.734       -1181.527          43.000  
C 6  35983260.907   187374235.400       -1627.919          37.000  
G26  20123343.959   105748822.0202      -2061.332          39.000  
G27  20158025.403   105931126.652        2392.266          42.000  
C 1  35828494.507   186568344.5982       -347.190          35.000  
C10  36110868.582   188038738.719        -646.991          28.000  
G22  22353966.492   117470885.9482      -1841.118          41.000  
G16  19334265.294   101602246.701        -649.358          37.000  
G 8  22847811.065                        3288.427          24.000  
G 3  22376520.244   117589534.496       -1407.421          36.000  
C 7  35821916.089   186534062.0652       -596.941          31.000  
G23  22196124.779                        2809.211          29.000  
C14  23497585.704   122358102.557         167.998          36.000  
C 3  35192801.503   183258125.2042       -349.845          37.000  
C 4  37319094.480   194330279.117        -351.162          39.000  
C 5  38150333.796   198658767.4592       -372.611          35.000  
C13  39440909.217                         852.879          21.000  
> 2017 12 11 12 34 23.9960000  0 18                     
G14  20672584.563   108635111.796       -2931.610          41.000  
C 9  35151492.771   183043074.644       -1159.854          33.000  
G31  21066534.318   110705366.216       -1181.718          39.000  
C 6  35983573.467   187375863.149       -1627.903          36.000  
G26  20123735.594   105750882.8952      -2060.861          35.000  
G27  20157570.074   105928734.050        2392.435          37.000  
C 1  35828560.766   186568686.3503       -346.665          38.000  
C10  36110995.794   188039384.885        -646.699          29.000  
G16  19334388.737   101602896.155        -650.182          34.000  
G 8  22847173.923                        3292.998          24.000  
G 3  22376787.154   117590941.523       -1407.967          35.000  
C 7  35822026.270   186534658.0982       -595.865          31.000  
G23  22195596.063   116638644.5043       2808.996          29.000  
C14  23497553.412   122357934.142         167.853          38.000  
C 3  35192868.572   183258469.8733       -350.046          37.000  
C 4  37319161.689   194330629.961        -350.915          40.000  
C 5  38150405.158   198659139.3763       -372.387          37.000  
C13  39440742.541                         859.883          22.000  
> 2017 12 11 12 34 24.9960000  0 19                     
G14  20673142.594   108638043.904       -2932.880          42.000  
C 9  35151718.464   183044235.815       -1160.916          32.000  
G31  21066759.103   110706548.620       -1182.934          39.000  
C 6  35983886.672   187377491.877       -1628.805          38.000  
G26  20124130.257   105752944.3261      -2062.572          36.000  
G27  20157115.243   105926342.766        2390.651          37.000  
C 1  35828627.461   186569034.0063       -348.309          37.000  
C10  36111122.021   188040031.753        -646.353          30.000  
G22  22354659.379   117474527.3903      -1842.049          39.000  
G16  19334512.616   101603546.828        -651.210          35.000  
G 8  22846543.141                        3292.739          25.000  
G 3  22377055.110   117592349.817       -1409.139          32.000  
C 7  35822143.666   186535254.9052       -597.373          33.000  
G23  22195055.848   116635835.9692       2808.119          33.000  
C14  23497521.522   122357767.096         165.989          38.000  
C 3  35192936.175   183258820.2742       -350.389          37.000  
C 4  37319229.292   194330981.644        -352.054          41.000  
C 5  38150476.547   198659511.1243       -373.113          37.000  
C13  39440576.519                         857.852          22.000  
> 2017 12 11 12 34 25.9960000  0 18                     
G14  20673700.844   108640976.911       -2933.427          43.000  
C 9  35151943.196   183045397.619       -1162.855          33.000  
G31  21066984.516   110707731.558       -1183.267          40.000  
C 6  35984199.781   187379121.128       -1629.221          39.000  
G26  20124523.646   105755006.878       -2063.091          35.000  
G27  20156660.307   105923952.312        2390.094          38.000  
C 1  35828694.077   186569381.9812       -347.583          36.000  
C10  36111244.617   188040679.096        -648.021          29.000  
G16  19334636.704   101604198.443        -652.310          35.000  
G 8  22845911.600                        3292.769          25.000  
G 3  22377323.189   117593758.863       -1410.237          35.000  
C 7  35822259.283   186535852.0002       -596.492          33.000  
G23  22194535.762   116633028.1242       2808.049          31.000  
C14  23497489.780   122357600.880         166.094          37.000  
C 3  35193003.498   183259171.1882       -351.283          37.000  
C 4  37319296.780   194331333.747        -352.294          40.000  
C 5  38150548.250   198659884.2722       -373.042          36.000  
C13  39440411.554                         862.775          20.000  
> 2017 12 11 12 34 26.9960000  0 19                     
G14  20674259.103   108643910.537       -2933.934          43.000  
C 9  35152165.669   183046559.720       -1162.677          33.000  
G31  21067209.955   110708914.794       -1183.233          41.000  
C 6  35984512.655   187380750.730       -1629.757          39.000  
G22  22355370.301   117478263.0392      -1842.477          38.000  
G26  20124915.421   105757069.926       -2064.724          31.000  
G27  20156205.860   105921562.474        2389.551          41.000  
C 1  35828761.155   186569730.2282       -348.121          37.000  
C10  36111367.763   188041326.528        -647.535          30.000  
G16  19334761.054   101604850.618        -652.638          38.000  
G 8  22845284.091                        3289.929          26.000  
G 3  22377591.487   117595168.417       -1409.638          38.000  
C 7  35822374.454   186536448.7611       -596.472          33.000  
G23  22194007.116   116630220.6532       2808.407          32.000  
C14  23497458.300   122357435.366         165.325          36.000  
C 3  35193070.916   183259522.2662       -351.265          37.000  
C 4  37319364.574   194331686.052        -352.286          40.000  
C 5  38150620.023   198660257.6583       -373.549          35.000  
C13  39440244.712                         863.171          20.000  
> 2017 12 11 12 34 27.9960000  0 18                     
G14  20674817.484   108646844.507       -2934.514          43.000  
C 9  35152388.683   183047721.913       -1162.057          33.000  
G31  21067435.229   110710098.023       -1183.575          39.000  
C 6  35984825.616   187382380.259       -1629.446          39.000  
G26  20125296.638   105759132.811       -2062.812          33.000  
G27  20155751.613   105919172.927        2388.993          40.000  
C 1  35828828.164   186570078.3143       -347.604          36.000  
C10  36111492.131   188041973.800        -647.060          29.000  
G16  19334885.405   101605503.121        -652.482          38.000  
G 8  22844655.795                        3289.413          26.000  
G 3  22377859.705   117596578.317       -1409.781          38.000  
C 7  35822490.158   186537045.860        -597.291          33.000  
G23  22193482.607   116627413.3882       2807.430          31.000  
C14  23497426.985   122357270.197         165.248          35.000  
C 3  35193138.196   183259873.1862       -350.787          37.000  
C 4  37319431.950   194332038.204        -352.311          39.000  
C 5  38150691.464   198660630.8662       -373.015          34.000  
C13  39440076.562                         865.106          20.000  
> 2017 12 11 12 34 28.9960000  0 19                     
G14  20675375.838   108649778.705       -2934.275          43.000  
C 9  35152613.669   183048884.066       -1161.399          33.000  
G31  21067660.057   110711281.194       -1183.354          38.000  
C 6  35985138.394   187384009.771       -1629.788          37.000  
G22  22356110.225   117482151.8313      -1842.925          37.000  
G26  20125676.364   105761195.725       -2062.111          31.000  
G27  20155297.366   105916783.597        2389.293          40.000  
C 1  35828894.911   186570426.2602       -348.158          36.000  
C10  36111615.818   188042620.832        -646.471          29.000  
G16  19335010.078   101606155.852        -652.950          38.000  
G 8  22844028.486                        3289.242          26.000  
G 3  22378127.880   117597988.370       -1410.611          37.000  
C 7  35822609.090                        -596.057          32.000  
G23  22192953.647   116624606.1272       2806.976          30.000  
C14  23497395.278   122357105.290         165.897          34.000  
C 3  35193205.580   183260223.9372       -350.665          36.000  
C 4  37319499.377   194332390.195        -351.961          37.000  
C 5  38150763.115   198661002.8903       -372.932          30.000  
C13  39439910.357                         866.815          19.000  
> 2017 12 11 12 34 29.9960000  0 18                     
G14  20675934.673   108652713.277       -2935.045          43.000  
C 9  35152836.813   183050046.361       -1162.705          31.000  
G31  21067885.052   110712464.382       -1183.423          38.000  
C 6  35985451.154   187385639.271       -1629.857          35.000  
G26  20126057.372   105763258.885       -2063.270          29.000  
G27  20154843.068   105914394.608        2388.619          39.000  
C 1  35828961.676   186570774.0993       -348.057          33.000  
C10  36111740.343   188043267.773        -647.318          28.000  
G16  19335134.672   101606808.951        -653.561          37.000  
G 8  22843403.899                        3290.211          25.000  
G 3  22378396.256   117599398.656       -1410.285          38.000  
C 7  35822722.848   186538286.2573       -596.511          30.000  
G23  22192428.395   116621798.9662       2807.042          29.000  
C14  23497363.737   122356940.872         163.768          32.000  
C 3  35193272.719   183260574.5913       -350.549          34.000  
C 4  37319566.901   194332742.077        -351.886          36.000  
C 5  38150834.826   198661376.3323       -372.720          31.000  
C13  39439742.347                         866.815          17.000  
> 2017 12 11 12 34 30.9960000  0 19                     
G14  20676492.993   108655648.264       -2934.815          44.000  
C 9  35153059.705   183051208.795       -1162.513          32.000  
G31  21068110.352   110713647.688       -1183.302          40.000  
C 6  35985764.220   187387268.905       -1629.240          36.000  
G22  22356816.688   117485863.9483      -1841.146          37.000  
G26  20126461.396   105765322.170       -2062.975          31.000  
G27  20154389.161   105912006.064        2388.418          42.000  
C 1  35829028.510   186571121.9572       -347.753          34.000  
C10  36111867.293   188043914.640        -647.177          28.000  
G16  19335259.651   101607462.471        -653.434          39.000  
G 8  22842784.076   120039640.0572       3289.968          27.000  
G 3  22378664.753   117600809.383       -1410.687          40.000  
C 7  35822839.878   186538882.8122       -596.336          32.000  
G23  22191900.587   116618992.1122       2806.474          31.000  
C14  23497332.623   122356776.820         164.754          31.000  
C 3  35193340.173   183260925.2442       -349.987          37.000  
C 4  37319634.599   194333093.965        -351.492          39.000  
C 5  38150906.355   198661749.2822       -372.963          35.000  
C13  39439574.458                         866.815          17.000  
> 2017 12 11 12 34 31.9960000  0 19                     
G14  20677051.827   108658583.642       -2935.873          44.000  
C 9  35153282.614   183052371.267       -1162.529          35.000  
G31  21068335.145   110714831.048       -1183.644          39.000  
C 6  35986077.207   187388898.596       -1630.187          38.000  
G26  20126855.361   105767385.693       -2064.609          26.000  
G27  20153934.897   105909617.826        2387.751          42.000  
C 1  35829095.371   186571469.7272       -347.747          39.000  
C10  36111988.677   188044561.364        -647.169          29.000  
G32  22703732.165                       -3818.577          22.000  
G16  19335384.804   101608116.364        -654.453          37.000  
G 8  22842162.831   120036350.4172       3288.888          27.000  
G 3  22378933.461   117602220.429       -1411.902          38.000  
C 7  35822953.435   186539479.2622       -596.158          32.000  
G23  22191360.564   116616185.4052       2805.832          32.000  
C14  23497301.178   122356613.236         163.533          31.000  
C 3  35193407.296   183261275.8512       -350.592          39.000  
C 4  37319702.236   194333445.782        -352.023          40.000  
C 5  38150978.101   198662122.1712       -373.342          35.000  
C13  39439405.636                         865.131          17.000  
> 2017 12 11 12 34 32.9960000  0 20                     
G14  20677610.705   108661519.196       -2935.615          47.000  
C 9  35153506.081   183053533.754       -1162.452          34.000  
G31  21068559.415   110716014.195       -1182.591          39.000  
C 6  35986390.176   187390528.103       -1629.588          38.000  
G22  22357513.763   117489527.0373      -1843.603          36.000  
G26  20127239.441   105769448.893       -2063.376          31.000  
G27  20153480.162   105907229.755        2388.458          42.000  
C 1  35829161.917   186571817.1642       -346.582          37.000  
C10  36112114.737   188045207.746        -646.152          28.000  
G32  22704467.909                       -3818.577          22.000  
G16  19335509.555   101608770.353        -653.130          38.000  
G 8  22841540.234   120033060.5872       3289.416          28.000  
G 3  22379202.412   117603631.516       -1410.645          40.000  
C 7  35823068.755   186540075.3512       -597.696          32.000  
G23  22190859.403   116613378.6012       2806.812          32.000  
C14  23497270.466   122356449.847         163.426          32.000  
C 3  35193474.444   183261626.1822       -350.507          38.000  
C 4  37319770.117   194333797.371        -351.785          38.000  
C 5  38151049.359   198662494.6812       -371.487          35.000  
C13  39439238.716                         865.131          15.000  
> 2017 12 11 12 34 33.9960000  0 18                     
G14  20678169.583   108664455.154       -2936.072          46.000  
C 9  35153729.374   183054696.324       -1162.213          34.000  
G31  21068783.598   110717197.490       -1182.961          38.000  
C 6  35986703.085   187392157.733       -1629.649          40.000  
G26  20127627.350   105771512.413       -2063.439          32.000  
G27  20153025.845   105904842.091        2387.250          41.000  
C 1  35829228.629   186572164.6772       -347.208          37.000  
C10  36112241.199   188045854.038        -645.594          29.000  
G16  19335634.717   101609424.867        -654.875          39.000  
G 8  22840917.060   120029770.6872       3289.869          28.000  
G 3  22379470.805   117605043.038       -1411.555          40.000  
C 7  35823187.111   186540671.2542       -596.723          31.000  
G23  22190291.032   116610572.0922       2805.897          32.000  
C14  23497239.265   122356286.959         162.058          32.000  
C 3  35193541.776   183261976.4512       -349.977          39.000  
C 4  37319837.650   194334148.882        -351.468          40.000  
C 5  38151120.740   198662867.3142       -372.316          35.000  
C13  39439071.220                         867.375          16.000  
> 2017 12 11 12 34 34.9960000  0 19                     
G14  20678728.557   108667391.712       -2937.071          41.000  
C 9  35153952.781   183055859.275       -1163.463          29.000  
G31  21069008.235   110718381.078       -1183.998          34.000  
C 6  35987016.308   187393787.671       -1630.385          35.000  
G22  22358191.486                       -1839.844          31.000  
G26  20128021.647   105773576.270       -2065.263          27.000  
G27  20152571.389   105902455.036        2386.023          37.000  
C 1  35829295.298   186572511.3223       -347.751          33.000  
C10  36112367.364   188046500.589        -646.808          28.000  
G16  19335759.617   101610079.941        -655.483          34.000  
G 8  22840286.898                        3292.793          26.000  
G 3  22379739.294   117606455.066       -1412.435          35.000  
C 7  35823300.180   186541267.2512       -596.102          28.000  
G23  22189753.565   116607765.8852       2806.182          27.000  
C14  23497208.404   122356124.708         160.493          29.000  
C 3  35193609.064   183262325.9453       -350.388          35.000  
C 4  37319905.182   194334500.583        -352.195          36.000  
C 5  38151192.477   198663240.0562       -373.395          32.000  
C13  39438905.077                         868.932          17.000  
> 2017 12 11 12 34 35.9960000  0 18                     
G14  20679287.470   108670329.100       -2937.842          41.000  
C 9  35154176.196   183057022.701       -1163.660          33.000  
G31  21069232.985   110719565.143       -1184.300          34.000  
C 6  35987329.408   187395418.038       -1630.949          36.000  
G26  20128403.911                       -2064.938          26.000  
G27  20152117.195   105900068.745        2385.844          38.000  
C 1  35829362.089   186572859.4093       -349.122          34.000  
C10  36112488.556   188047147.395        -647.034          27.000  
G16  19335884.840   101610735.824        -657.003          34.000  
G 8  22839661.962                        3289.820          24.000  
G 3  22380007.932   117607867.854       -1413.445          38.000  
C 7  35823416.258   186541863.6552       -596.771          28.000  
G23  22189178.659   116604960.4042       2805.395          28.000  
C14  23497182.133                         157.254          27.000  
C 3  35193676.448   183262676.7753       -350.769          35.000  
C 4  37319972.680   194334859.1353       -352.586          36.000  
C 5  38151264.128   198663612.1823       -373.743          32.000  
C13  39438736.132                         868.932          16.000  
> 2017 12 11 12 34 36.9960000  0 19                     
G14  20679846.340   108673267.025       -2938.074          41.000  
C 9  35154399.803   183058186.462       -1163.934          32.000  
G31  21069457.561   110720749.447       -1183.893          35.000  
C 6  35987642.744   187397048.682       -1630.818          35.000  
G22  22358879.295                       -1842.725          32.000  
G26  20128782.764                       -2063.378          25.000  
G27  20151663.228   105897682.991        2385.936          38.000  
C 1  35829428.993   186573207.5063       -348.021          33.000  
C10  36112608.500   188047794.259        -646.051          26.000  
G16  19336010.411   101611392.194        -656.453          36.000  
G 8  22839030.980                        3293.843          22.000  
G 3  22380276.752   117609281.099       -1413.370          37.000  
C 7  35823528.428   186542459.9522       -595.424          28.000  
G23  22188631.036   116602155.2062       2805.651          31.000  
C14  23497156.734                         159.492          25.000  
C 3  35193743.849   183263027.7492       -351.151          35.000  
C 4  37320040.447   194335211.3112       -352.224          36.000  
C 5  38151335.805   198663985.3922       -373.490          31.000  
C13  39438564.911                         880.822          16.000  
> 2017 12 11 12 34 37.9960000  0 18                     
G14  20680404.913   108676204.994       -2937.988          43.000  
C 9  35154623.366   183059349.983       -1163.237          32.000  
G31  21069682.354   110721933.407       -1183.442          35.000  
C 6  35987956.011   187398679.078       -1630.638          36.000  
G26  20129178.648                       -2063.770          25.000  
G27  20151209.129   105895297.282        2385.675          40.000  
C 1  35829495.748   186573555.2392       -347.479          34.000  
C10  36112734.482   188048440.688        -646.066          26.000  
G16  19336135.896   101612048.672        -656.519          36.000  
G 8  22838389.859                        3294.813          21.000  
G 3  22380545.477   117610694.393       -1413.802          34.000  
C 7  35823641.759   186543055.9532       -596.105          28.000  
G23  22188094.040   116599349.7922       2806.071          30.000  
C14  23497130.672                         163.776          24.000  
C 3  35193811.198   183263378.2883       -350.160          35.000  
C 4  37320107.936   194335563.0942       -352.084          36.000  
C 5  38151407.115                        -377.881          30.000  
C13  39438394.300                         880.822          14.000  
> 2017 12 11 12 34 38.9960000  0 20                     
G14  20680963.764   108679143.566       -2938.954          43.000  
C 9  35154847.244   183060513.800       -1163.446          33.000  
G31  21069907.541   110723117.706       -1184.679          36.000  
C 6  35988269.259   187400309.694       -1630.899          37.000  
G22  22359582.024   117500395.7302      -1845.280          34.000  
G26  20129571.793   105781612.2463      -2064.509          25.000  
G27  20150755.293   105892912.141        2385.057          40.000  
C 1  35829562.539   186573903.1273       -347.850          34.000  
C10  36112857.933   188049087.166        -645.797          26.000  
G16  19336261.468   101612705.713        -657.584          38.000  
G 8  22837754.374                        3284.378          22.000  
G 3  22380814.489   117612108.144       -1413.183          39.000  
C 7  35823754.950   186543651.888        -595.933          28.000  
G32  22708873.950                       -3813.132          17.000  
G23  22187562.044   116596544.8762       2804.289          34.000  
C14  23497106.329                         160.207          23.000  
C 3  35193878.434   183263729.0092       -350.643          37.000  
C 4  37320175.181   194335914.0103       -351.980          38.000  
C 5  38151478.652   198664729.2673       -373.981          30.000  
C13  39438226.219                         863.460          14.000  
> 2017 12 11 12 34 39.9960000  0 19                     
G14  20681522.913   108682082.581       -2939.298          43.000  
C 9  35155071.087   183061677.810       -1163.635          34.000  
G31  21070132.535   110724302.075       -1184.138          35.000  
C 6  35988582.150   187401940.401       -1630.281          37.000  
G26  20129971.770   105783715.3193      -2063.851          24.000  
G27  20150301.805   105890527.432        2384.662          40.000  
C 1  35829629.295   186574250.0203       -348.359          34.000  
C10  36112981.385   188049733.612        -645.695          26.000  
G16  19336387.153   101613363.163        -657.434          39.000  
G 8  22837122.868                        3286.987          20.000  
G 3  22381083.118   117613522.294       -1413.764          38.000  
C 7  35823869.606   186544247.808        -595.670          28.000  
G32  22709560.293                       -3813.132          18.000  
G23  22187031.060   116593740.0922       2804.334          32.000  
C14  23497079.682                         160.449          20.000  
C 3  35193945.609   183264079.7102       -350.527          36.000  
C 4  37320242.687   194336265.9542       -351.955          37.000  
C 5  38151549.884                        -369.043          30.000  
C13  39438062.693                         843.040          14.000  
> 2017 12 11 12 34 40.9960000  0 20                     
G14  20682082.166   108685021.807       -2939.685          41.000  
C 9  35155294.676   183062841.758       -1163.161          32.000  
G31  21070357.207   110725486.335       -1184.216          32.000  
C 6  35988895.696   187403570.992       -1631.016          34.000  
G22  22360276.447                       -1843.945          37.000  
G26  20130375.672   105785780.3792      -2065.403          27.000  
G27  20149847.847   105888142.868        2384.186          36.000  
C 1  35829696.112   186574597.6122       -347.348          35.000  
C10  36113105.194   188050379.761        -645.888          26.000  
G16  19336513.213   101614020.843        -658.479          38.000  
G 8  22836496.501                        3286.987          18.000  
G 3  22381352.148   117614936.536       -1414.712          32.000  
C 7  35823986.357   186544843.353        -595.125          28.000  
G 4  20836530.798   109496707.4273      -2937.124          39.000  
G23  22186496.743   116590935.2882       2803.830          32.000  
C14  23497052.268                         160.421          21.000  
C 3  35194013.001   183264430.1622       -351.006          35.000  
C 4  37320309.888   194336615.6243       -351.376          36.000  
C 5  38151621.421   198665473.2962       -372.238          35.000  
C13  39437898.914                         857.532          14.000  
> 2017 12 11 12 34 41.9960000  0 19                     
G14  20682641.699   108687961.381       -2939.750          35.000  
C 9  35155521.608   183064005.866       -1165.085          31.000  
G31  21070583.571   110726670.593       -1184.645          31.000  
C 6  35989210.358   187405230.6713      -1630.827          30.000  
G26  20130769.751                       -2064.792          28.000  
G27  20149393.792   105885758.624        2384.073          32.000  
C 1  35829763.033   186574947.1563       -347.766          34.000  
C10  36113227.860                        -648.876          24.000  
G16  19336639.178   101614678.859        -658.586          35.000  
G 8  22835872.010                        3286.987          14.000  
G 3  22381620.873   117616351.091       -1414.583          32.000  
C 7  35824100.516   186545438.920        -596.014          27.000  
G 4  20837090.644   109499644.8702      -2937.351          36.000  
G23  22185962.139   116588130.7392       2804.587          27.000  
C14  23497022.149                         161.157          18.000  
C 3  35194080.377   183264780.5523       -350.320          31.000  
C 4  37320377.350   194336966.2622       -352.450          35.000  
C 5  38151693.272   198665846.9623       -372.384          34.000  
C13  39437733.321                         857.532          13.000  
> 2017 12 11 12 34 42.9960000  0 19                     
G14  20683201.519   108690901.047       -2939.656          39.000  
C 9  35155745.128   183065169.652       -1162.941          33.000  
G31  21070800.948   110727854.654       -1182.836          35.000  
C 6  35989525.771   187406861.0982      -1629.956          36.000  
G22  22360973.740   117507709.5302      -1844.755          41.000  
G26  20131159.082   105789954.4793      -2067.350          33.000  
G27  20148940.374   105883374.516        2384.241          38.000  
C 1  35829829.938   186575294.3792       -346.635          36.000  
C10  36113350.274   188051660.0313       -645.155          26.000  
G16  19336764.741   101615336.945        -658.032          39.000  
G 8  22835246.577                        3286.987          12.000  
G 3  22381890.444   117617765.597       -1413.671          31.000  
C 7  35824217.459   186546033.854        -593.493          32.000  
G 4  20837649.898   109502582.0242      -2935.956          39.000  
G23  22185447.933   116585325.4141       2805.682          34.000  
C14  23496988.042                         160.990          20.000  
C 3  35194147.630   183265130.5742       -349.481          35.000  
C 4  37320444.699   194337317.4652       -350.259          39.000  
C 5  38151764.740   198666219.3302       -371.018          36.000  
> 2017 12 11 12 34 43.9960000  0 20                     
G14  20683760.816   108693839.753       -2939.560          39.000  
C 9  35155969.363   183066332.337       -1162.697          33.000  
G31  21071024.957   110729037.528       -1183.471          32.000  
C 6  35989839.910   187408490.2522      -1629.019          36.000  
G26  20131565.620   105792018.0962      -2064.285          32.000  
G27  20148486.163   105880989.417        2384.775          35.000  
C 1  35829896.659   186575640.2562       -345.922          36.000  
C10  36113474.545   188052304.2312       -644.177          27.000  
G16  19336890.051   101615994.074        -657.616          37.000  
G 8  22834623.438                        3287.701          12.000  
G 3  22382159.578   117619179.224       -1413.142          32.000  
C 7  35824330.528   186546627.428        -593.389          28.000  
G32  22712411.563                       -3813.132          25.000  
G 4  20838208.418   109505517.9892      -2936.641          36.000  
G23  22184932.392   116582519.582        2805.992          31.000  
C14  23496955.768                         164.431          21.000  
C 3  35194214.796   183265479.2542       -348.735          35.000  
C 4  37320511.996   194337667.3742       -349.757          39.000  
C 5  38151836.172   198666591.2643       -371.295          34.000  
C13  39437398.521                         864.704          15.000  
> 2017 12 11 12 34 44.9960000  0 21                     
G14  20684319.860   108696779.255       -2939.894          40.000  
C 9  35156191.364   183067495.527       -1163.143          34.000  
G31  21071248.895   110730220.732       -1182.770          32.000  
C 6  35990152.487   187410119.9322      -1629.894          36.000  
G22  22361679.872   117511420.8303      -1844.558          38.000  
G26  20131963.590   105794082.3372      -2064.572          32.000  
G27  20148032.431   105878605.103        2384.452          37.000  
C 1  35829963.074   186575986.4312       -345.416          35.000  
C10  36113599.297   188052956.7853       -644.838          28.000  
G16  19337015.221   101616652.007        -657.777          37.000  
G 8  22833999.131                        3287.701          12.000  
G 3  22382428.713   117620593.528       -1414.905          32.000  
C 7  35824438.344   186547221.266        -593.725          29.000  
G32  22713130.407                       -3813.132          21.000  
G 4  20838767.183   109508454.2752      -2936.672          37.000  
G23  22184410.387   116579714.313        2804.662          31.000  
C14  23496916.689                         157.733          22.000  
C 3  35194281.455   183265828.2842       -348.943          36.000  
C 4  37320579.450   194338017.6372       -350.118          38.000  
C 5  38151907.605   198666962.5772       -371.453          35.000  
C13  39437230.266                         864.704          14.000  
> 2017 12 11 12 34 45.9960000  0 20                     
G14  20684879.593   108699719.201       -2940.512          36.000  
C 9  35156413.279   183068658.861       -1164.086          31.000  
G31  21071475.931   110731404.113       -1184.201          32.000  
C 6  35990461.801   187411749.6152      -1629.669          33.000  
G22  22362034.260                       -1845.312          38.000  
G26  20132349.868   105796146.7432      -2064.506          33.000  
G27  20147578.516   105876221.116        2383.846          35.000  
C 1  35830029.559   186576334.6123       -346.785          32.000  
C10  36113723.290   188053601.1752       -644.347          27.000  
G16  19337140.383   101617310.333        -658.811          36.000  
G 8  22833378.505                        3287.701          14.000  
G 3  22382702.341                       -1413.952          25.000  
C 7  35824551.788   186547814.948        -592.839          29.000  
G 4  20839326.078   109511390.6652      -2936.555          37.000  
G23  22183879.682   116576909.231        2803.329          31.000  
C14  23496884.004                         157.359          24.000  
C 3  35194348.316   183266175.2613       -348.604          32.000  
C 4  37320646.441   194338367.8492       -350.614          35.000  
C 5  38151978.828   198667333.8203       -371.802          34.000  
C13  39437063.433                         864.704          14.000  
> 2017 12 11 12 34 46.9960000  0 19                     
G14  20685439.658   108702659.982       -2941.522          37.000  
C 9  35156638.265   183069822.849       -1165.175          32.000  
G31  21071696.755   110732588.069       -1183.996          32.000  
C 6  35990775.442   187413379.9832      -1630.570          33.000  
G26  20132748.378   105798211.8672      -2065.702          34.000  
G27  20147125.054   105873838.201        2382.429          34.000  
C 1  35830095.870   186576680.2522       -346.341          34.000  
C10  36113846.828   188054245.9802       -643.674          26.000  
G16  19337266.164   101617969.603        -660.027          37.000  
G 8  22832753.813                        3287.701          13.000  
G 3  22382981.684   117623361.7923      -1415.626          27.000  
C 7  35824662.902   186548409.193        -595.374          29.000  
G 4  20839884.939   109514327.6992      -2937.095          37.000  
G23  22183356.551   116574104.729        2804.196          32.000  
C14  23496852.952                         157.396          25.000  
C 3  35194415.560   183266525.7792       -350.597          33.000  
C 4  37320713.590   194338718.5322       -350.936          39.000  
C 5  38152050.182   198667705.5262       -371.691          34.000  
C13  39436897.734                         864.704          11.000  
> 2017 12 11 12 34 47.9960000  0 19                     
G14  20685999.749   108705601.740       -2941.617          40.000  
C 9  35156861.802   183070987.544       -1164.734          33.000  
G31  21071916.706   110733772.621       -1183.744          32.000  
C 6  35991089.956   187415011.0082      -1630.495          33.000  
G22  22362733.281   117516956.2182      -1845.617          39.000  
G26  20133147.159   105800277.7082      -2065.583          36.000  
G27  20146671.925   105871456.166        2382.109          33.000  
C 1  35830162.609   186577027.4182       -346.969          38.000  
C10  36113971.074   188054891.4562       -645.065          27.000  
G16  19337391.727   101618629.792        -660.099          39.000  
G 3  22383270.895                       -1416.727          27.000  
C 7  35824774.348   186549003.807        -595.263          30.000  
G 4  20840444.027   109517265.3172      -2937.436          40.000  
G23  22182817.889   116571301.157        2803.174          36.000  
C14  23496819.569   122354073.5793        157.166          32.000  
C 3  35194483.224   183266877.7862       -350.392          33.000  
C 4  37320780.956   194339069.2461       -351.063          42.000  
C 5  38152121.893   198668077.7852       -372.451          38.000  
C13  39436734.479                         864.704          13.000  
> 2017 12 11 12 34 48.9960000  0 20                     
G14  20686560.407   108708544.051       -2942.513          38.000  
C 9  35157085.173   183072152.393       -1164.921          35.000  
G31  21072146.613   110734957.395       -1184.823          33.000  
C 6  35991401.076   187416642.1272      -1630.993          34.000  
G22  22363067.810                       -1847.607          39.000  
G26  20133538.725   105802343.7652      -2066.199          36.000  
G27  20146218.786   105869074.590        2380.624          33.000  
C 1  35830229.469   186577374.6052       -346.850          35.000  
C10  36114096.585   188055536.8142       -645.710          28.000  
G16  19337517.674   101619290.460        -661.012          39.000  
G 3  22383523.496                       -1417.351          24.000  
C 7  35824891.561   186549598.288        -594.707          30.000  
G32  22716032.614                       -3821.559          24.000  
G 4  20841002.189   109520203.0272      -2937.895          40.000  
G23  22182275.902   116568497.750        2803.066          35.000  
C14  23496790.428   122353917.4882        155.589          32.000  
C 3  35194550.564   183267228.8393       -350.498          34.000  
C 4  37320848.305   194339420.492        -350.960          40.000  
C 5  38152193.684   198668453.0663       -372.482          35.000  
C13  39436570.639                         877.907          15.000  
> 2017 12 11 12 34 49.9960000  0 21                     
G14  20687121.213   108711486.847       -2942.734          39.000  
C 9  35157309.199   183073317.521       -1165.723          34.000  
G31  21072374.085   110736142.405       -1186.638          34.000  
C 6  35991714.578   187418273.4582      -1631.431          33.000  
G26  20133933.091   105804410.0612      -2066.577          36.000  
G27  20145764.871   105866693.398        2381.044          34.000  
C 1  35830296.085   186577722.9403       -347.068          35.000  
C10  36114220.254   188056182.1902       -645.427          28.000  
G16  19337643.429   101619951.653        -661.254          39.000  
G 8  22830885.331                        3277.613          20.000  
G 3  22383775.032                       -1423.523          21.000  
C 7  35825000.005   186550192.743        -593.253          29.000  
G32  22716765.139                       -3821.559          24.000  
G 4  20841560.622   109523140.9532      -2938.393          40.000  
G23  22181727.093   116565694.721        2803.123          34.000  
C14  23496756.731   122353761.9862        155.431          33.000  
C 3  35194617.442   183267576.9502       -351.117          33.000  
C 4  37320915.689   194339771.843        -351.873          39.000  
C 5  38152264.889   198668823.4112       -372.686          34.000  
C13  39436403.265                         877.907          14.000  
G22  22363410.270                       -1846.289          38.000  
> 2017 12 11 12 34 50.9960000  0 20                     
G14  20687681.697   108714430.018       -2942.971          38.000  
C 9  35157532.806   183074482.744       -1164.613          33.000  
G31  21072602.709   110737327.390       -1185.264          34.000  
C 6  35992028.167   187419904.951       -1632.453          32.000  
G26  20134325.974   105806476.4852      -2066.460          36.000  
G27  20145311.549   105864312.730        2380.455          34.000  
C 1  35830362.344   186578067.2303       -347.462          34.000  
C10  36114344.046   188056827.4452       -645.581          27.000  
G16  19337769.175   101620613.209        -661.546          39.000  
G 8  22830260.587                        3294.529          21.000  
G 3  22384045.537                       -1415.493          20.000  
C 7  35825112.934   186550787.264        -594.489          29.000  
G 4  20842119.134   109526078.8672      -2937.568          40.000  
G23  22181171.042   116562891.901        2802.260          32.000  
C14  23496725.879   122353585.9213        154.554          33.000  
C 3  35194684.835   183267927.9703       -349.756          33.000  
C 4  37320983.126   194340123.116        -351.745          39.000  
C 5  38152336.304                        -372.070          29.000  
C13  39436236.232                         877.907          15.000  
G22  22363766.115   117522383.6842      -1846.165          38.000  
> 2017 12 11 12 34 51.9960000  0 19                     
G14  20688242.643   108717373.622       -2943.690          35.000  
C 9  35157756.475   183075648.146       -1165.601          32.000  
G31  21072825.610   110738512.421       -1184.892          32.000  
C 6  35992349.993   187421536.371       -1631.180          32.000  
G22  22364121.506                       -1846.143          34.000  
G26  20134719.695   105808543.1172      -2068.076          34.000  
G27  20144858.646   105861932.365        2380.044          32.000  
C 1  35830429.134   186578415.4083       -347.475          33.000  
C10  36114470.237   188057472.6162       -645.658          27.000  
G16  19337895.017   101621275.168        -661.725          36.000  
G 3  22384313.895   117630362.8372      -1418.216          29.000  
C 7  35825227.190   186551381.540        -594.523          29.000  
G 4  20842677.942   109529016.9182      -2938.312          38.000  
G23  22180601.920                        2801.800          29.000  
C14  23496693.282   122353431.2502        154.022          34.000  
C 3  35194752.323   183268279.0323       -350.309          32.000  
C 4  37321050.579   194340474.309        -351.084          38.000  
C 5  38152407.798                        -370.801          30.000  
C13  39436069.730                         869.089          16.000  
> 2017 12 11 12 34 52.9960000  0 19                     
G14  20688803.205   108720317.620       -2944.308          36.000  
C 9  35157980.143   183076813.650       -1166.195          31.000  
G31  21073043.886   110739592.6063      -1185.535          31.000  
C 6  35992662.832   187423167.915       -1631.778          32.000  
G26  20135113.223   105810609.7262      -2066.161          32.000  
G27  20144405.691   105859552.431        2378.483          31.000  
C 1  35830495.820   186578762.6112       -347.738          33.000  
C10  36114596.926   188058117.6972       -645.335          28.000  
G16  19338021.174   101621937.514        -662.444          36.000  
G 8  22829010.620                        3281.749          19.000  
G 3  22384581.747   117631781.1822      -1418.561          29.000  
C 7  35825338.592   186551975.692        -594.021          29.000  
G 4  20843237.004   109531954.9432      -2937.728          37.000  
G23  22180060.719   116557004.8303       2802.255          28.000  
C14  23496660.135   122353277.0722        153.556          34.000  
C 3  35194819.638   183268629.0142       -350.389          32.000  
C 4  37321118.077   194340823.9733       -350.755          38.000  
C 5  38152479.099   198669938.7393       -373.259          29.000  
C13  39435905.690                         853.752          15.000  
> 2017 12 11 12 34 53.9960000  0 20                     
G14  20689363.531   108723261.292       -2943.550          35.000  
C 9  35158203.811   183077978.545       -1163.840          31.000  
G31  21073267.964   110740777.1352      -1184.539          31.000  
C 6  35992973.245   187424798.920       -1632.173          32.000  
G22  22364834.069                       -1848.070          33.000  
G26  20135505.923   105812675.9292      -2065.199          32.000  
G27  20143951.994   105857172.111        2380.547          30.000  
C 1  35830562.157   186579108.0323       -346.625          33.000  
C10  36114718.667                        -643.192          27.000  
G16  19338147.391   101622599.564        -661.879          35.000  
G 8  22828384.610                        3289.200          18.000  
G 3  22384857.775   117633199.0742      -1417.592          29.000  
C 7  35825450.535   186552569.146        -593.649          29.000  
G 4  20843795.943   109534892.3682      -2937.268          37.000  
G23  22179537.422   116554201.8272       2803.368          29.000  
C14  23496628.332   122353122.5362        155.781          35.000  
C 3  35194887.196   183268981.2413       -348.829          32.000  
C 4  37321185.452   194341174.4382       -349.953          38.000  
C 5  38152550.017   198670308.1972       -371.854          30.000  
C13  39435741.623                         853.752          15.000  
> 2017 12 11 12 34 54.9960000  0 19                     
G14  20689923.963   108726205.176       -2944.437          38.000  
C 9  35158427.558   183079143.493       -1165.615          31.000  
G31  21073492.723   110741961.5602      -1185.532          31.000  
C 6  35993285.639   187426429.684       -1632.398          32.000  
G26  20135894.565   105814741.6441      -2067.241          32.000  
G27  20143497.695   105854792.044        2377.681          30.000  
C 1  35830628.852   186579455.2192       -346.981          34.000  
C10  36114842.381                        -643.323          27.000  
G16  19338273.286   101623261.786        -662.800          35.000  
G 8  22827759.893                        3305.372          19.000  
G 3  22385143.583   117634617.1512      -1418.261          31.000  
C 7  35825566.230   186553162.110        -593.104          29.000  
G 4  20844354.777   109537829.1411      -2938.238          37.000  
G23  22179006.604   116551398.8532       2802.198          30.000  
C14  23496600.962   122352968.4252        152.313          35.000  
C 3  35194954.423   183269332.1593       -348.539          32.000  
C 4  37321252.391   194341524.6902       -351.173          38.000  
C 5  38152621.188   198670678.9353       -372.545          30.000  
C13  39435575.226                         868.438          14.000  
> 2017 12 11 12 34 55.9960000  0 20                     
G14  20690484.839   108729150.548       -2945.840          37.000  
C 9  35158651.522   183080309.503       -1165.940          31.000  
G31  21073716.234   110743146.9992      -1185.050          32.000  
C 6  35993593.225   187428061.628       -1632.635          32.000  
G22  22365548.891                       -1848.584          31.000  
G26  20136294.071   105816939.3783      -2068.307          26.000  
G27  20143033.938   105852413.335        2378.218          30.000  
C 1  35830695.250   186579801.4143       -347.241          34.000  
C10  36114966.748   188060075.0023       -645.101          27.000  
G16  19338399.433   101623925.456        -663.644          36.000  
G 8  22827134.983                        3292.620          20.000  
G 3  22385420.117   117636036.5752      -1419.832          31.000  
C 7  35825685.040   186553756.181        -595.128          29.000  
G 4  20844913.760   109540767.532       -2938.358          37.000  
G23  22178481.762   116548597.1102       2801.646          29.000  
C14  23496571.061   122352815.5852        153.480          34.000  
C 3  35195021.510   183269681.2662       -350.820          32.000  
C 4  37321319.583   194341872.9063       -351.649          38.000  
C 5  38152692.620   198671051.1112       -371.060          30.000  
C13  39435408.899                         868.438          14.000  
> 2017 12 11 12 34 56.9960000  0 19                     
G14  20691045.017   108732096.822       -2947.036          40.000  
C 9  35158875.426   183081476.154       -1167.517          32.000  
G31  21073948.767   110744333.2782      -1188.181          35.000  
C 6  35993903.821   187429694.058       -1632.143          33.000  
G26  20136697.336   105819007.3602      -2069.123          27.000  
G27  20142584.892   105850035.525        2377.385          34.000  
C 1  35830761.893   186580148.1253       -348.453          34.000  
C10  36115091.404   188060720.3832       -643.977          29.000  
G16  19338525.511   101624590.055        -664.932          37.000  
G 8  22826507.988                        3286.599          22.000  
G 3  22385689.836   117637456.9292      -1421.338          30.000  
C 7  35825794.261   186554350.493        -595.195          28.000  
G 4  20845472.918   109543706.505       -2939.691          37.000  
G23  22177960.202   116545967.0793       2800.973          29.000  
C14  23496541.125   122352663.9462        151.991          33.000  
C 3  35195088.641   183270030.7233       -350.690          35.000  
C 4  37321387.404   194342224.5962       -351.739          39.000  
C 5  38152764.454                        -381.006          28.000  
C13  39435241.299                         868.438          14.000  
> 2017 12 11 12 34 57.9960000  0 20                     
G14  20691605.361   108735043.632       -2947.052          40.000  
C 9  35159099.731   183082643.108       -1166.241          31.000  
G31  21074175.655   110745519.5452      -1185.886          33.000  
C 6  35994220.717   187431326.895       -1633.157          36.000  
G22  22366234.230                       -1845.906          30.000  
G26  20137089.216                       -2068.253          25.000  
G27  20142135.924   105847658.317        2377.860          34.000  
C 1  35830828.762   186580495.8933       -347.443          37.000  
C10  36115216.793   188061365.8022       -643.251          33.000  
G16  19338651.223   101625255.200        -665.051          36.000  
G 8  22825884.718                        3283.136          23.000  
G 3  22385941.398                       -1436.316          28.000  
C 7  35825914.056   186554944.877        -594.472          29.000  
G 4  20846032.171   109546645.668       -2939.131          36.000  
G23  22177452.810   116543166.5012       2799.931          29.000  
C14  23496509.924   122352512.7332        151.012          35.000  
C 3  35195155.711   183270380.3843       -350.919          35.000  
C 4  37321455.041   194342576.4202       -351.796          40.000  
C 5  38152836.462                        -373.633          28.000  
C13  39435077.249                         868.438          13.000  
> 2017 12 11 12 34 58.9960000  0 19                     
G14  20692165.426   108737990.783       -2947.485          39.000  
C 9  35159323.844   183083810.195       -1166.899          33.000  
G31  21074411.241   110746705.8872      -1185.916          34.000  
C 6  35994534.638   187432959.626       -1632.094          35.000  
G26  20137467.301                       -2068.503          24.000  
G27  20141686.598   105845281.375        2377.148          34.000  
C 1  35830895.230   186580843.6012       -348.002          35.000  
C10  36115336.510   188062011.2332       -644.521          31.000  
G16  19338777.274   101625920.633        -665.159          37.000  
G 8  22825262.208                        3290.342          24.000  
G 3  22386200.325                       -1424.774          27.000  
C 7  35826028.504   186555539.090        -592.848          30.000  
G 4  20846591.459   109549584.800       -2939.105          34.000  
G23  22176950.968   116540365.8502       2800.737          28.000  
C14  23496485.267   122352361.9422        150.482          34.000  
C 3  35195222.938   183270729.8282       -349.901          35.000  
C 4  37321522.486   194342928.1042       -351.219          38.000  
C 5  38152908.994                        -380.469          28.000  
C13  39434910.774                         866.681          16.000  
> 2017 12 11 12 34 59.9960000  0 20                     
G14  20692726.092   108740938.231       -2947.371          39.000  
C 9  35159545.654   183084977.300       -1167.003          32.000  
G31  21074637.169   110747892.3172      -1186.900          34.000  
C 6  35994847.861   187434592.429       -1633.294          35.000  
G26  20137861.502                       -2070.624          24.000  
G27  20141232.613   105842904.827        2376.686          34.000  
C 1  35830961.986   186581190.1763       -346.816          35.000  
C10  36115463.696   188062656.3452       -644.953          30.000  
G16  19338904.041   101626586.405        -665.285          36.000  
G 8  22824639.410                        3293.542          23.000  
G 3  22386463.448                       -1420.638          26.000  
C 7  35826142.837                        -596.037          30.000  
G32  22723994.040                       -3816.201          12.000  
G 4  20847151.096   109552523.912       -2939.335          35.000  
G23  22176409.645   116537565.3982       2799.682          32.000  
C14  23496455.628   122352211.4612        150.519          33.000  
C 3  35195290.270   183271080.2643       -351.700          33.000  
C 4  37321590.018   194343279.6912       -351.382          38.000  
C 5  38152981.386                        -382.715          29.000  
C13  39434742.720                         863.161          17.000  
> 2017 12 11 12 35  0.9960000  0 21                     
G14  20693286.751   108743885.917       -2947.677          39.000  
C 9  35159771.181   183086144.336       -1166.996          31.000  
G31  21074862.617   110749078.517       -1185.625          34.000  
C 6  35995161.520   187436225.088       -1632.723          34.000  
G22  22367313.291                       -1848.890          27.000  
G26  20138272.297                       -2068.315          24.000  
G27  20140778.367   105840528.479        2375.956          33.000  
C 1  35831028.706   186581537.5113       -346.681          34.000  
C10  36115587.697   188063301.2442       -644.755          30.000  
G16  19339029.962   101627252.410        -666.169          35.000  
G 8  22824017.257                        3304.952          22.000  
G 3  22386734.842   117643085.4983      -1421.527          26.000  
C 7  35826258.105   186556695.8983       -593.796          30.000  
G32  22724723.442                       -3816.201          11.000  
G 4  20847710.228   109555462.915       -2938.101          34.000  
G23  22175880.991   116534764.9322       2799.846          30.000  
C14  23496426.285   122352061.3152        149.263          32.000  
C 3  35195357.401   183271430.3842       -350.022          33.000  
C 4  37321657.568   194343631.0542       -351.208          38.000  
C 5  38153053.325                        -378.418          28.000  
C13  39434576.594                         864.293          17.000  
> 2017 12 11 12 35  1.9960000  0 19                     
G14  20693847.269   108746833.880       -2947.528          39.000  
C 9  35159995.913   183087311.448       -1167.162          31.000  
G31  21075088.371   110750264.733       -1185.513          33.000  
C 6  35995475.091   187437857.729       -1632.591          34.000  
G26  20138671.026                       -2062.003          22.000  
G27  20140329.774   105838152.399        2374.523          33.000  
C 1  35831095.480   186581884.7772       -347.666          34.000  
C10  36115710.965   188063945.9712       -644.766          30.000  
G16  19339156.311   101627918.693        -666.656          34.000  
G 8  22823394.424                        3286.813          23.000  
G 3  22386997.677   117644507.1992      -1422.409          26.000  
C 7  35826373.678   186557289.4112       -592.968          30.000  
G 4  20848269.873   109558401.957       -2939.698          33.000  
G23  22175347.276   116531964.5932       2800.172          29.000  
C14  23496391.009   122351911.4712        148.690          30.000  
C 3  35195424.802   183271781.4323       -350.043          33.000  
C 4  37321724.987   194343982.2842       -351.458          37.000  
C 5  38153125.115                        -385.352          27.000  
C13  39434411.619                         872.999          16.000  
> 2017 12 11 12 35  2.9960000  0 20                     
G14  20694408.093   108749782.396       -2948.732          40.000  
C 9  35160222.565   183088478.822       -1168.055          30.000  
G31  21075314.159   110751451.137       -1185.882          34.000  
C 6  35995788.768   187439490.586       -1633.181          34.000  
G22  22368019.335                       -1835.693          29.000  
G26  20139074.012                       -2071.354          23.000  
G27  20139878.136   105835776.673        2375.884          34.000  
C 1  35831162.297   186582233.0362       -347.066          34.000  
C10  36115835.569   188064590.1671       -644.548          30.000  
G16  19339282.589   101628585.412        -666.185          34.000  
G 8  22822771.172                        3289.256          23.000  
G 3  22387259.134   117645929.2762      -1422.081          27.000  
C 7  35826486.520   186557882.9372       -593.515          30.000  
G32  22726181.434                       -3816.201          11.000  
G 4  20848829.249   109561341.014       -2938.759          33.000  
G23  22174777.770   116529164.5192       2800.165          28.000  
C14  23496360.855   122351761.6201        149.054          30.000  
C 3  35195492.125   183272131.5003       -350.358          33.000  
C 4  37321792.249   194344333.0461       -350.750          37.000  
C13  39434243.015                         872.999          16.000  
> 2017 12 11 12 35  3.9960000  0 19                     
G14  20694968.568   108752731.143       -2948.866          40.000  
C 9  35160443.599   183089646.126       -1167.275          30.000  
G31  21075540.070   110752637.542       -1186.171          34.000  
C 6  35996102.383   187441123.364       -1632.600          34.000  
G26  20139481.519                       -2069.785          24.000  
G27  20139425.835   105833401.355        2375.057          34.000  
C 1  35831229.148   186582581.2733       -348.182          33.000  
C10  36115957.703   188065234.641        -643.852          29.000  
G16  19339409.173   101629252.489        -667.310          34.000  
G 8  22822144.954                        3288.445          23.000  
G 3  22387523.435   117647351.5482      -1422.379          33.000  
C 7  35826601.028   186558476.1402       -592.744          29.000  
G32  22726913.304                       -3816.201          15.000  
G 4  20849389.000   109564280.038       -2938.756          32.000  
G23  22174216.284   116526364.5262       2800.458          29.000  
C14  23496329.942   122351612.684         148.796          30.000  
C 3  35195559.265   183272481.4033       -348.345          32.000  
C 4  37321859.825   194344684.169        -350.405          36.000  
C13  39434076.418                         874.600          16.000  
> 2017 12 11 12 35  4.9960000  0 20                     
G14  20695529.374   108755679.399       -2948.665          42.000  
C 9  35160664.981   183090812.706       -1167.445          30.000  
G31  21075766.015   110753823.078       -1185.994          35.000  
C 6  35996415.728   187442755.337       -1632.951          35.000  
G22  22368742.708   117548535.7913      -1848.485          37.000  
G26  20139887.847                       -2068.787          26.000  
G27  20138973.246   105831025.435        2375.249          34.000  
C 1  35831295.730   186582928.3843       -346.511          34.000  
C10  36116081.547   188065878.135        -643.115          30.000  
G16  19339535.652   101629918.959        -666.965          37.000  
G 3  22387802.525   117648773.3742      -1422.670          33.000  
C 7  35826715.405   186559068.4362       -592.395          30.000  
G32  22727647.496                       -3816.201          18.000  
G 4  20849948.864   109567218.252       -2939.152          32.000  
G23  22173680.815   116523563.8632       2800.379          33.000  
C14  23496302.162   122351463.178         148.795          29.000  
C 3  35195626.440   183272831.4752       -350.162          32.000  
C 4  37321926.973   194345034.391        -350.695          37.000  
C 5  38153333.829                        -345.984          31.000  
C13  39433908.067                         870.816          17.000  
> 2017 12 11 12 35  5.9960000  0 19                     
G14  20696090.398   108758628.700       -2950.116          40.000  
C 9  35160891.598   183091980.041       -1168.268          31.000  
G31  21075991.777   110755009.238       -1185.614          36.000  
C 6  35996729.352   187444387.995       -1632.793          35.000  
G26  20140290.921   105837943.0573      -2068.323          27.000  
G27  20138521.469   105828650.553        2375.225          37.000  
C 1  35831362.381   186583275.1683       -346.953          33.000  
C10  36116204.676   188066522.191        -644.576          30.000  
G16  19339662.175   101630586.511        -667.870          36.000  
G 3  22388087.339                       -1422.066          32.000  
C 7  35826831.641   186559661.2582       -593.684          31.000  
G32  22728377.168                       -3816.201          19.000  
G 4  20850509.138   109570157.130       -2939.266          34.000  
G23  22173148.505   116520764.0082       2799.166          33.000  
C14  23496277.016   122351314.681         148.125          28.000  
C 3  35195693.579   183273181.0133       -349.939          32.000  
C 4  37321994.121   194345385.152        -350.606          36.000  
C 5  38153403.821                        -332.172          29.000  
C13  39433742.412                         870.816          17.000  
> 2017 12 11 12 35  6.9960000  0 20                     
G14  20696651.693   108761578.271       -2949.865          42.000  
C 9  35161112.448   183093147.323       -1165.212          31.000  
G31  21076217.583   110756195.498       -1186.322          36.000  
C 6  35997042.793   187446020.704       -1633.932          34.000  
G22  22369432.157                       -1852.197          36.000  
G26  20140691.307   105840011.9242      -2069.022          28.000  
G27  20138069.787   105826276.018        2374.668          37.000  
C 1  35831428.884   186583620.8113       -346.635          33.000  
C10  36116326.557   188067166.062        -644.260          30.000  
G16  19339788.619   101631254.340        -667.948          36.000  
G 8  22820254.449                        3286.931          23.000  
G 3  22388324.575                       -1424.387          27.000  
C 7  35826945.155   186560253.7892       -592.283          30.000  
G 4  20851069.054   109573095.933       -2937.940          33.000  
G23  22172617.826   116517964.217        2799.946          33.000  
C14  23496235.912   122351166.723         147.496          27.000  
C 3  35195760.545   183273529.4033       -348.683          35.000  
C 4  37322061.401   194345735.780        -350.539          37.000  
C 5  38153476.048                        -387.939          28.000  
C13  39433577.874                         870.349          18.000  
> 2017 12 11 12 35  7.9960000  0 20                     
G14  20697212.954   108764528.702       -2951.412          37.000  
C 9  35161336.954   183094315.370       -1168.708          30.000  
G31  21076443.651   110757382.212       -1186.755          34.000  
C 6  35997356.356   187447653.856       -1632.992          31.000  
G22  22369777.942                       -1847.559          36.000  
G26  20141068.232   105842081.2952      -2069.960          28.000  
G27  20137618.542   105823902.342        2372.789          36.000  
C 1  35831495.858                        -343.945          29.000  
C10  36116449.886   188067810.387        -645.184          29.000  
G16  19339915.639   101631923.039        -669.426          34.000  
G 8  22819627.210                        3286.792          22.000  
G 3  22388615.112                       -1422.784          26.000  
C 7  35827054.568   186560846.7312       -593.521          29.000  
G 4  20851628.325   109576035.353       -2940.763          33.000  
G23  22172083.596   116515165.178        2798.761          30.000  
C14  23496207.721   122351019.603         145.620          27.000  
C 3  35195827.632   183273878.2972       -348.835          31.000  
C 4  37322129.090   194346086.914        -352.045          34.000  
C 5  38153552.515   198675528.3923       -373.668          29.000  
C13  39433408.336                         872.922          18.000  
> 2017 12 11 12 35  8.9960000  0 20                     
G14  20697774.563   108767480.162       -2951.571          36.000  
C 9  35161565.255   183095484.056       -1169.446          30.000  
G31  21076669.561   110758569.691       -1187.507          30.000  
C 6  35997670.355   187449287.790       -1634.868          32.000  
G22  22370135.933   117555857.4442      -1851.576          33.000  
G26  20141441.728   105844151.3842      -2069.691          27.000  
G27  20137165.945   105821529.583        2372.091          31.000  
C 1  35831562.465   186584317.0292       -347.862          30.000  
C10  36116574.620   188068455.078        -645.182          28.000  
G16  19340042.808   101632592.722        -670.528          32.000  
G 8  22818998.156                        3292.974          20.000  
G 3  22388941.248                       -1427.050          27.000  
C 7  35827176.588   186561440.088        -593.477          29.000  
G 4  20852195.099   109578975.355       -2939.766          31.000  
G23  22171554.035   116512366.912        2797.570          30.000  
C14  23496178.771                         144.672          26.000  
C 3  35195894.824   183274228.8142       -349.885          32.000  
C 4  37322196.265   194346438.521        -351.857          34.000  
C 5  38153630.447                        -374.805          27.000  
C13  39433241.294                         869.861          17.000  
> 2017 12 11 12 35  9.9960000  0 19                     
G14  20698335.919   108770432.116       -2952.192          36.000  
C 9  35161788.103   183096652.969       -1169.407          29.000  
G31  21076894.713   110759757.288       -1187.926          32.000  
C 6  35997986.457   187450921.737       -1633.107          31.000  
G26  20141808.915                       -2071.602          27.000  
G27  20136707.501   105819157.287        2371.900          31.000  
C 1  35831629.422   186584665.6483       -347.581          31.000  
C10  36116695.960   188069099.822        -644.819          27.000  
G16  19340169.557   101633262.837        -670.401          32.000  
G 8  22818369.102                        3288.573          19.000  
G 3  22389247.848   117656290.9683      -1425.329          29.000  
C 7  35827286.656   186562033.384        -592.631          29.000  
G 4  20852755.234   109581967.9793      -2939.841          30.000  
G23  22171036.409   116509568.840        2798.677          31.000  
C14  23496153.529                         145.212          25.000  
C 3  35195962.391   183274580.2683       -350.360          32.000  
C 4  37322263.684   194346789.6443       -350.627          33.000  
C 5  38153699.201                        -381.201          27.000  
C13  39433073.545                         866.738          17.000  
> 2017 12 11 12 35 10.9960000  0 20                     
G14  20698897.947   108773384.527       -2953.201          36.000  
C 9  35162011.134   183097822.040       -1168.891          29.000  
G31  21077119.576   110760945.072       -1188.927          32.000  
C 6  35998301.529   187452555.986       -1634.229          32.000  
G22  22370851.724                       -1850.683          33.000  
G26  20142199.748   105847973.4203      -2070.469          27.000  
G27  20136255.384   105816785.514        2372.273          31.000  
C 1  35831696.369   186585014.3952       -348.016          31.000  
C10  36116823.260   188069744.506        -644.408          27.000  
G16  19340296.700   101633933.451        -671.113          31.000  
G 8  22817741.042                        3277.837          18.000  
G 3  22389583.704   117657716.5262      -1424.775          29.000  
C 7  35827398.669   186562626.682        -592.959          29.000  
G 4  20853316.433   109584908.3342      -2940.264          29.000  
G23  22170519.978   116506771.087        2797.670          32.000  
C14  23496129.378                         144.892          24.000  
C 3  35196029.714   183274930.7892       -350.806          31.000  
C 4  37322331.408   194347141.3812       -351.984          34.000  
C 5  38153769.081                        -386.377          28.000  
C13  39432906.948                         860.288          17.000  
> 2017 12 11 12 35 11.9960000  0 17                     
G14  20699459.940   108776337.131       -2952.507          39.000  
C 9  35162232.988   183098991.165       -1169.136          30.000  
G31  21077344.614   110762132.762       -1187.925          33.000  
C 6  35998612.475   187454190.111       -1633.785          34.000  
G26  20142598.660   105850044.1592      -2070.106          32.000  
G27  20135800.186   105814413.994        2371.329          32.000  
C 1  35831763.457   186585363.9173       -347.128          33.000  
C10  36116946.484   188070389.055        -644.360          28.000  
G16  19340423.711   101634604.324        -671.041          33.000  
G 8  22817112.590                        3287.764          18.000  
C 7  35827512.627   186563219.857        -593.778          29.000  
G 4  20853875.651   109587848.5002      -2940.423          29.000  
G23  22169988.776   116503973.339        2798.142          33.000  
C14  23496100.777                         146.192          24.000  
C 3  35196097.020   183275281.6173       -350.244          32.000  
C 4  37322398.626   194347492.9122       -351.639          36.000  
C13  39432738.990                         873.893          19.000  
> 2017 12 11 12 35 12.9960000  0 17                     
G14  20700022.029   108779290.179       -2953.730          39.000  
C 9  35162464.177   183100160.563       -1172.369          30.000  
G31  21077570.359   110763320.465       -1188.196          32.000  
C 6  35998929.789   187455824.297       -1634.405          34.000  
G22  22371558.746   117563334.0953      -1851.937          37.000  
G26  20143007.649   105852114.9292      -2070.598          32.000  
G27  20135352.535   105812042.817        2370.569          35.000  
C 1  35831830.204   186585711.4483       -347.643          33.000  
C10  36117071.707   188071033.495        -645.770          30.000  
G16  19340551.141   101635275.514        -671.517          33.000  
G 8  22816483.736                        3281.984          20.000  
C 7  35827626.193   186563812.724        -593.432          30.000  
G 4  20854439.538   109590788.7352      -2941.095          29.000  
G23  22169445.952   116501175.862        2796.301          35.000  
C 3  35196164.517   183275632.8823       -350.992          32.000  
C 4  37322465.949   194347844.3712       -351.269          38.000  
C13  39432573.431                         862.748          20.000  
> 2017 12 11 12 35 13.9960000  0 19                     
G14  20700583.498   108782243.421       -2953.273          39.000  
C 9  35162679.347   183101266.5183      -1168.606          33.000  
G31  21077791.567   110764508.116       -1188.303          32.000  
C 6  35999239.208   187457458.373       -1634.264          38.000  
G26  20143408.472   105854185.6722      -2071.512          32.000  
G27  20134898.298   105809603.9053       2369.442          32.000  
C 1  35831896.986   186586058.6472       -347.291          38.000  
C10  36117197.741   188071695.0743       -643.783          33.000  
G16  19340678.476   101635946.971        -671.177          32.000  
G 8  22815854.255                        3282.091          23.000  
C 5  38153986.022                        -408.719          28.000  
C 7  35827735.440   186564405.302        -592.246          29.000  
G 4  20854999.035   109593728.8522      -2940.750          29.000  
G23  22168912.569   116498378.286        2797.195          35.000  
C14  23496042.869                         136.411          21.000  
C 3  35196232.050   183275984.9062       -349.003          37.000  
C 4  37322533.813   194348195.6352       -351.635          42.000  
G 3  22390465.350                       -1425.910          35.000  
C13  39432405.874                         869.424          18.000  
> 2017 12 11 12 35 14.9960000  0 19                     
G14  20701145.029   108785196.754       -2953.612          40.000  
C 9  35162905.894   183102435.5722      -1170.126          33.000  
G31  21078020.496   110765695.560       -1187.828          33.000  
C 6  35999552.867   187459092.120       -1633.035          37.000  
G26  20143798.476   105856256.2202      -2071.368          33.000  
G27  20134446.459   105807233.0392       2370.004          31.000  
C 1  35831963.462   186586405.5012       -345.999          37.000  
C10  36117319.317   188072327.7162       -642.288          33.000  
G16  19340805.906   101636618.491        -671.525          33.000  
C 5  38154056.974                        -362.646          29.000  
C 7  35827846.982   186564997.483        -591.575          29.000  
G32  22734925.153                       -3820.986          18.000  
G 4  20855563.960   109596668.6692      -2939.809          27.000  
G23  22168382.082   116495580.588        2797.205          35.000  
C14  23496012.226                         141.135          22.000  
C 3  35196299.207   183276334.5893       -348.352          34.000  
C 4  37322601.162   194348546.4622       -350.858          40.000  
G 3  22390739.702   117664115.7453      -1426.671          35.000  
C13  39432238.762                         863.239          17.000  
> 2017 12 11 12 35 15.9960000  0 19                     
G14  20701706.926   108788149.817       -2953.354          41.000  
C 9  35163131.691   183103622.8883      -1167.649          30.000  
G31  21078248.230   110766882.319       -1186.459          33.000  
C 6  35999865.932   187460725.451       -1633.324          38.000  
G26  20144194.203   105858326.1912      -2070.322          36.000  
G27  20133997.648   105804861.7022       2370.249          39.000  
C 1  35832030.035   186586751.7133       -346.270          38.000  
C10  36117443.807   188072970.8002       -644.537          31.000  
G16  19340933.729   101637289.680        -670.784          36.000  
C 5  38154123.660   198678502.4572       -370.978          31.000  
C 7  35827957.721   186565588.887        -591.252          28.000  
G32  22735654.258                       -3822.084          20.000  
G 4  20856127.139                       -2937.384          26.000  
G23  22167850.941   116492782.424        2798.287          37.000  
C14  23495979.778                         144.951          24.000  
C 3  35196366.547   183276684.5933       -349.556          33.000  
C 4  37322668.415   194348896.6412       -350.711          39.000  
G 3  22390985.454   117665541.6242      -1426.421          37.000  
C13  39432074.852                         866.865          19.000  
> 2017 12 11 12 35 16.9960000  0 19                     
G14  20702268.753   108791104.019       -2953.988          41.000  
C 9  35163359.722   183104792.3012      -1169.696          31.000  
G31  21078473.373   110768070.025       -1188.313          33.000  
C 6  36000178.780   187462359.588       -1633.891          36.000  
G26  20144588.709   105860397.1382      -2070.582          35.000  
G27  20133553.052   105802491.6882       2369.983          37.000  
C 1  35832096.520   186587098.6142       -347.029          35.000  
C10  36117567.581   188073614.3652       -642.378          31.000  
G16  19341061.813   101637962.160        -672.382          36.000  
C 5  38154193.540   198678865.9983       -376.041          31.000  
C 7  35828072.343   186566180.994        -591.573          28.000  
G32  22736380.606                       -3822.084          23.000  
G 4  20856660.985                       -2939.631          26.000  
G23  22167316.625   116489985.320        2797.064          37.000  
C14  23495953.786   122349565.2673        142.625          26.000  
C 3  35196433.914   183277036.3312       -349.618          33.000  
C 4  37322735.442   194349247.0501       -350.711          39.000  
G 3  22391266.367   117666968.6932      -1428.022          34.000  
C13  39431908.700                         869.865          20.000  
> 2017 12 11 12 35 17.9960000  0 19                     
G14  20702830.772   108794058.764       -2955.423          41.000  
C 9  35163581.785   183105961.8772      -1169.376          31.000  
G31  21078700.077   110769257.829       -1187.945          35.000  
C 6  36000492.648   187463993.901       -1635.399          36.000  
G26  20144983.023   105862468.3302      -2071.057          35.000  
G27  20133102.688   105800122.1742       2368.367          37.000  
C 1  35832163.197   186587444.6703       -347.464          37.000  
C10  36117690.012   188074258.0752       -643.545          30.000  
G16  19341190.142   101638635.042        -672.553          36.000  
C 5  38154265.321   198679237.9052       -373.140          31.000  
C 7  35828188.422   186566773.038        -592.957          27.000  
G32  22737108.612                       -3822.084          24.000  
G 4  20857198.495   109605317.0353      -2940.115          26.000  
G23  22166784.053   116487188.475        2796.622          37.000  
C14  23495925.996   122349422.7152        142.303          26.000  
C 3  35196501.341   183277387.1763       -350.592          33.000  
C 4  37322802.861   194349598.083        -351.501          39.000  
G 3  22391543.206   117668396.1242      -1427.544          34.000  
C13  39431741.370                         867.073          19.000  
> 2017 12 11 12 35 18.9960000  0 18                     
G14  20703393.629   108797014.323       -2956.215          41.000  
C 9  35163804.406   183107132.0932      -1170.701          30.000  
G31  21078923.300   110770446.155       -1188.080          35.000  
C 6  36000806.866   187465628.639       -1634.925          36.000  
G26  20145375.565   105864539.6141      -2072.590          34.000  
G27  20132651.556   105797753.4122       2367.577          34.000  
C 1  35832230.128   186587791.9902       -346.997          36.000  
C10  36117814.947   188074901.9762       -640.997          30.000  
G16  19341318.741   101639308.763        -674.024          35.000  
C 5  38154335.602   198679610.1892       -373.025          30.000  
C 7  35828298.009   186567365.396        -593.101          27.000  
G 4  20857760.637   109608257.7662      -2940.244          26.000  
G23  22166250.687   116484392.235        2795.878          35.000  
C14  23495897.020   122349281.0452        141.783          27.000  
C 3  35196568.472   183277736.3502       -351.173          33.000  
C 4  37322870.576   194349949.409        -352.204          39.000  
G 3  22391813.362   117669824.3372      -1429.212          34.000  
C13  39431573.970                         863.244          19.000  
> 2017 12 11 12 35 19.9960000  0 17                     
G14  20703956.503   108799970.740       -2956.811          39.000  
C 9  35164031.259   183108302.8242      -1171.982          30.000  
G31  21079151.462   110771635.022       -1188.571          34.000  
C 6  36001121.066   187467263.950       -1634.979          36.000  
G26  20145769.975   105866611.993       -2073.024          32.000  
G27  20132201.349   105795385.4662       2368.390          36.000  
C 1  35832296.596   186588139.8453       -348.733          35.000  
C10  36117938.494                        -644.800          29.000  
G16  19341447.803   101639983.369        -674.730          35.000  
C 5  38154407.348   198679982.9632       -372.782          30.000  
C 7  35828416.941   186567958.086        -593.544          27.000  
G 4  20858317.421   109611198.8552      -2939.141          25.000  
G23  22165717.940   116481596.649        2795.569          34.000  
C14  23495873.942   122349140.4452        140.005          28.000  
C 3  35196635.682   183278086.9212       -351.563          33.000  
C 4  37322938.239   194350301.152        -352.060          38.000  
C13  39431407.067                         864.662          20.000  
> 2017 12 11 12 35 20.9960000  0 20                     
G14  20704518.958   108802927.694       -2957.020          40.000  
C 9  35164253.243   183109473.7292      -1170.799          29.000  
G31  21079381.185   110772824.145       -1189.109          37.000  
C 6  36001435.152   187468899.484       -1635.608          36.000  
G26  20146158.653   105868684.594       -2070.989          31.000  
G27  20131750.837   105793018.0982       2367.722          35.000  
C 1  35832363.395   186588487.6603       -347.388          35.000  
C10  36118061.754   188076193.4143       -644.723          29.000  
G16  19341577.109   101640658.422        -674.867          36.000  
G 8  22811475.629                        3289.588          22.000  
C 5  38154479.200   198680353.7743       -372.058          30.000  
C 7  35828528.160   186568550.748        -592.245          27.000  
C 8  38285578.087                        1329.463          17.000  
G 4  20858869.834                       -2931.583          24.000  
G23  22165185.368   116478801.451        2794.933          36.000  
C14  23495846.310   122349000.1762        140.394          29.000  
C 3  35196703.109   183278437.5893       -351.279          33.000  
C 4  37323005.850   194350653.011        -351.782          38.000  
G 3  22392247.218                       -1426.074          30.000  
C13  39431239.894                         868.709          20.000  
> 2017 12 11 12 35 21.9960000  0 20                     
G14  20705081.702   108805884.728       -2957.197          39.000  
C 9  35164480.925   183110644.5652      -1170.548          29.000  
G31  21079605.115   110774013.053       -1189.639          35.000  
C 6  36001749.125   187470534.815       -1634.968          35.000  
G26  20146539.992                       -2072.595          30.000  
G27  20131299.923   105790650.8452       2366.987          35.000  
C 1  35832430.238   186588835.2412       -347.626          34.000  
C10  36118187.544   188076837.4132       -644.222          29.000  
G16  19341706.756   101641333.662        -675.767          36.000  
G 8  22810856.163                        3285.142          21.000  
C 5  38154550.946   198680726.3932       -373.318          30.000  
C 7  35828643.567   186569143.115        -592.545          28.000  
C 8  38285320.845                        1340.571          17.000  
G 4  20859425.056                       -2937.514          24.000  
G23  22164652.369   116476006.140        2794.455          34.000  
C14  23495819.951   122348860.2632        140.017          29.000  
C 3  35196770.502   183278788.9443       -350.493          32.000  
C 4  37323073.313   194351004.546        -351.832          38.000  
G 3  22392537.729   117673579.6023      -1428.532          30.000  
C13  39431072.354                         875.143          20.000  
> 2017 12 11 12 35 22.9960000  0 21                     
G14  20705644.131   108808842.023       -2957.914          41.000  
C 9  35164702.185   183111815.4012      -1171.188          29.000  
G31  21079833.355   110775201.779       -1188.249          36.000  
C 6  36002063.037   187472170.015       -1634.953          35.000  
G22  22374990.645                       -1860.351          33.000  
G26  20146932.133   105872842.2513      -2072.303          29.000  
G27  20130849.585   105788283.7982       2366.779          36.000  
C 1  35832497.186   186589182.5952       -347.668          35.000  
C10  36118307.916   188077481.1252       -643.234          29.000  
G16  19341836.289   101642009.043        -675.569          38.000  
G 8  22810235.040                        3285.611          22.000  
C 5  38154622.588                        -370.996          29.000  
C 7  35828755.833   186569735.084        -591.859          28.000  
C 8  38285066.107                        1340.571          17.000  
G 4  20859979.903                       -2940.283          26.000  
G23  22164119.500   116473210.816        2794.871          35.000  
C14  23495794.884   122348720.5122        139.740          30.000  
C 3  35196837.860   183279139.0692       -350.245          33.000  
C 4  37323140.662   194351355.866        -351.580          38.000  
G 3  22392806.532   117675009.3242      -1430.608          30.000  
C13  39430906.734                         869.772          20.000  
> 2017 12 11 12 35 23.9960000  0 20                     
G14  20706206.874   108811799.534       -2958.089          40.000  
C 9  35164932.056   183112986.1412      -1171.140          29.000  
G31  21080059.903   110776390.474       -1188.697          38.000  
C 6  36002377.263   187473805.207       -1636.211          35.000  
G26  20147334.527                       -2073.214          27.000  
G27  20130399.282   105785916.9212       2366.368          36.000  
C 1  35832563.933   186589531.6963       -347.165          35.000  
C10  36118432.144   188078124.6202       -643.061          30.000  
G16  19341965.586   101642684.706        -676.026          37.000  
G 8  22809613.010                        3286.496          23.000  
C 5  38154694.152   198681473.2233       -372.643          29.000  
C 7  35828870.036   186570326.756        -591.465          28.000  
C 8  38284810.723                        1340.571          17.000  
G 4  20860535.946   109622855.8373      -2940.455          27.000  
G23  22163586.894   116470415.537        2794.117          35.000  
C14  23495773.664   122348581.0522        138.926          31.000  
C 3  35196905.200   183279490.0103       -350.420          32.000  
C 4  37323208.020   194351706.975        -351.221          38.000  
G 3  22393068.704   117676439.0832      -1430.440          30.000  
C13  39430743.479                         871.708          20.000  
> 2017 12 11 12 35 24.9960000  0 20                     
G14  20706769.591   108814757.579       -2958.081          37.000  
C 9  35165154.076   183114157.2502      -1171.366          29.000  
G31  21080286.599   110777579.414       -1188.420          36.000  
C 6  36002691.664   187475440.581       -1635.958          34.000  
G22  22375685.687                       -1857.812          31.000  
G26  20147743.542                       -2074.794          26.000  
G27  20129948.709   105783550.654        2365.907          32.000  
C 1  35832630.636   186589878.9703       -347.546          35.000  
C10  36118557.131   188078768.2252       -643.798          29.000  
G16  19342095.058   101643360.891        -675.978          35.000  
G 8  22808987.411                        3283.632          22.000  
C 5  38154765.078   198681842.4323       -373.062          29.000  
C 7  35828984.108   186570918.610        -591.712          29.000  
G 4  20861096.926   109625796.9772      -2940.867          27.000  
G23  22163054.758   116467620.564        2794.595          34.000  
C14  23495746.128   122348442.1542        138.569          31.000  
C 3  35196972.358   183279840.0673       -350.187          31.000  
C 4  37323275.194   194352058.222        -351.393          38.000  
G 3  22393397.039   117677869.4782      -1429.897          30.000  
C13  39430574.910                         868.469          20.000  
> 2017 12 11 12 35 25.9960000  0 20                     
G14  20707332.056   108817715.846       -2957.826          43.000  
C 9  35165386.713   183115328.1352      -1169.970          29.000  
G31  21080513.766   110778768.223       -1188.447          39.000  
C 6  36003005.558   187477075.838       -1635.059          33.000  
G22  22376072.026   117587052.1022      -1852.761          38.000  
G26  20148158.962                       -2073.831          26.000  
G27  20129501.277   105781184.522        2366.150          32.000  
C 1  35832697.235   186590225.9632       -346.299          36.000  
C10  36118681.289   188079411.4362       -642.303          29.000  
G16  19342224.294   101644037.254        -675.984          38.000  
G 8  22808366.078                        3292.792          22.000  
C 5  38154836.763   198682214.3602       -370.588          34.000  
C 7  35829095.938   186571510.059        -590.930          29.000  
G 4  20861660.080   109628763.4643      -2940.025          28.000  
G23  22162522.282   116464825.686        2795.030          37.000  
C14  23495723.591   122348303.5192        138.494          31.000  
C 3  35197039.698   183280189.8502       -349.132          31.000  
C 4  37323342.657   194352409.205        -350.531          39.000  
G 3  22393725.173   117679300.0142      -1430.165          30.000  
C13  39430410.311                         872.049          21.000  
> 2017 12 11 12 35 26.9960000  0 16                     
G14  20707894.432   108820673.540       -2958.124          41.000  
C 9  35165609.264   183116498.352       -1171.079          30.000  
G31  21080741.029   110779956.142       -1188.306          39.000  
C 6  36003319.444   187478710.172       -1634.461          32.000  
G26  20148578.762                       -2064.467          24.000  
G27  20129059.524   105778817.835        2366.141          33.000  
C 1  35832763.642   186590572.0052       -346.293          38.000  
C10  36118806.268   188080053.804        -641.981          31.000  
G16  19342353.810   101644713.069        -676.068          38.000  
C 5  38154908.196   198682585.3462       -370.770          35.000  
C 7  35829209.652   186572065.4833       -589.967          30.000  
G 4  20862237.167   109631703.5852      -2942.295          31.000  
G23  22161989.823   116462029.992        2795.334          37.000  
C14  23495699.571   122348164.342         138.608          34.000  
C 3  35197106.698   183280539.6823       -349.310          32.000  
C 4  37323409.910   194352759.216        -350.315          41.000  
> 2017 12 11 12 35 27.9960000  0 19                     
G 3  22394338.295                       -1437.256          33.000  
G14  20708457.315   108823632.490       -2959.916          39.000  
C 9  35165840.672   183117728.3933      -1171.620          30.000  
G31  21080967.742   110781144.986       -1189.302          39.000  
C 6  36003633.391   187480345.500       -1636.125          32.000  
G22  22376774.267   117590741.5823      -1854.446          32.000  
G26  20148986.879                       -2072.436          25.000  
G27  20128604.990   105776452.351        2364.412          31.000  
C 1  35832830.284   186590918.8373       -347.221          37.000  
C10  36118930.452   188080696.719        -643.109          31.000  
G16  19342483.413   101645390.095        -677.420          38.000  
G 8  22807116.145                        3287.391          21.000  
C 5  38154979.655   198682957.1582       -372.445          33.000  
C 7  35829326.481   186572656.5832       -591.217          29.000  
G 4  20862796.124   109634644.5112      -2941.401          31.000  
G23  22161457.836   116459235.290        2794.001          34.000  
C14  23495671.258   122348026.492         136.778          34.000  
C 3  35197173.454   183280887.3153       -350.773          33.000  
C 4  37323477.521   194353109.993        -351.114          41.000  
> 2017 12 11 12 35 28.9960000  0 19                     
G 3  22394594.987   117684390.6203      -1431.595          33.000  
G14  20709020.530   108826592.324       -2959.785          39.000  
C 9  35166059.943                       -1168.580          30.000  
G31  21081194.586   110782334.429       -1189.699          39.000  
C 6  36003947.346   187481981.354       -1636.501          33.000  
G22  22377117.137   117592595.9642      -1853.728          32.000  
G26  20149385.451   105885734.2243      -2074.540          26.000  
G27  20128156.755   105774087.815        2364.508          32.000  
C 1  35832896.866   186591266.1042       -346.996          37.000  
C10  36119051.504   188081340.120        -642.508          31.000  
G16  19342613.303   101646068.022        -677.884          39.000  
G 8  22806490.154                        3286.069          20.000  
C 5  38155051.357   198683329.3552       -371.738          33.000  
C 7  35829442.962   186573248.0762       -590.793          31.000  
G 4  20863352.289   109637586.0522      -2941.466          32.000  
G23  22160926.311   116456441.336        2794.120          35.000  
C14  23495648.241   122347889.551         136.625          35.000  
C 3  35197240.628   183281237.3272       -348.994          34.000  
C 4  37323545.018   194353461.248        -350.759          41.000  
> 2017 12 11 12 35 29.9960000  0 17                     
G14  20709583.439   108829552.890       -2960.998          39.000  
C 9  35166285.312   183120044.4512      -1173.416          30.000  
G31  21081421.543   110783524.229       -1189.725          39.000  
C 6  36004261.442   187483617.618       -1636.513          36.000  
G26  20149781.248   105887808.1082      -2074.349          27.000  
G27  20127706.949   105771723.990        2363.470          34.000  
C 1  35832963.386   186591611.6863       -347.480          37.000  
C10  36119167.182   188081983.847        -644.216          30.000  
G16  19342742.889   101646746.691        -679.215          39.000  
G 8  22805866.178                        3281.276          19.000  
C 5  38155122.860   198683701.9922       -374.148          33.000  
C 7  35829556.083   186573839.7582       -591.500          31.000  
G 4  20863916.411   109640528.0012      -2942.496          33.000  
G23  22160394.874   116453647.887        2793.473          36.000  
C14  23495620.277   122347753.367         135.983          35.000  
C 3  35197307.890   183281586.7193       -349.911          33.000  
C 4  37323612.620   194353812.791        -351.741          41.000  
> 2017 12 11 12 35 30.9960000  0 17                     
G14  20710146.627   108832513.931       -2961.175          40.000  
C 9  35166506.380   183121216.8672      -1172.378          29.000  
G31  21081648.405   110784714.206       -1189.313          39.000  
C 6  36004575.737   187485254.056       -1636.048          36.000  
G 3  22394825.069                       -1431.378          30.000  
G27  20127254.500   105769360.630        2363.138          36.000  
C 1  35833030.185   186591959.2932       -347.131          38.000  
C10  36119294.533   188082627.385        -641.885          30.000  
G16  19342872.247   101647425.789        -678.996          39.000  
G 8  22805243.720                        3281.276          17.000  
C 5  38155194.484   198684074.4732       -372.426          34.000  
C 7  35829671.298   186574431.5332       -592.872          31.000  
G 4  20864481.719   109643470.0102      -2941.611          33.000  
G23  22159863.637   116450854.756        2793.175          36.000  
C14  23495594.180   122347617.657         136.367          34.000  
C 3  35197375.109   183281937.1513       -350.353          34.000  
C 4  37323679.751   194354164.376        -351.646          41.000  
> 2017 12 11 12 35 31.9960000  0 19                     
G14  20710709.851   108835475.324       -2961.527          39.000  
C 9  35166732.587   183122389.3862      -1172.470          29.000  
G31  21081875.284   110785904.231       -1189.790          39.000  
C 6  36004889.510   187486890.501       -1636.224          35.000  
G 3  22395099.395                       -1433.954          30.000  
G26  20150535.891                       -2071.680          31.000  
G27  20126802.583   105766997.594        2362.650          35.000  
C 1  35833096.906   186592306.8412       -347.362          37.000  
C10  36119415.027   188083270.974        -643.537          30.000  
G22  22378138.664                       -1863.930          27.000  
G16  19343001.562   101648105.248        -679.684          39.000  
G 8  22804621.131                        3281.276          16.000  
C 5  38155266.161   198684446.9352       -372.754          34.000  
C 7  35829785.187   186575022.8792       -590.539          30.000  
G 4  20865041.417   109646412.0942      -2942.764          34.000  
G23  22159332.679   116448061.740        2793.272          37.000  
C14  23495568.624   122347482.396         135.330          33.000  
C 3  35197442.493   183282287.4712       -350.444          32.000  
C 4  37323747.127   194354515.891        -351.689          40.000  
> 2017 12 11 12 35 32.9960000  0 19                     
G14  20711273.161   108838437.066       -2961.816          40.000  
C 9  35166956.229   183123562.0032      -1173.431          29.000  
G31  21082102.163   110787094.329       -1190.385          40.000  
C 6  36005203.684   187488527.004       -1636.292          35.000  
G 3  22395374.122   117688474.1482      -1434.291          31.000  
G26  20150904.710   105893718.0603      -2074.642          32.000  
G27  20126351.495   105764634.946        2362.096          35.000  
C 1  35833163.182   186592654.2912       -347.541          37.000  
C10  36119541.210   188083914.305        -642.758          29.000  
G22  22378520.327   117599917.1723      -1855.285          27.000  
G16  19343131.069   101648785.062        -679.993          38.000  
G 8  22803999.441                        3285.454          17.000  
C 5  38155337.960   198684819.314        -372.247          35.000  
C 7  35829896.449   186575614.3112       -591.625          30.000  
G 4  20865601.089   109649354.1502      -2942.427          35.000  
G23  22158801.442   116445268.944        2792.391          37.000  
C14  23495543.199   122347347.536         134.420          34.000  
C 3  35197509.868   183282638.7373       -349.850          32.000  
C 4  37323814.868   194354867.328        -351.632          41.000  
> 2017 12 11 12 35 33.9960000  0 18                     
G14  20711836.376   108841399.059       -2961.935          40.000  
C 9  35167180.430   183124734.5042      -1172.530          29.000  
G31  21082329.443   110788284.282       -1189.994          40.000  
C 6  36005518.110   187490163.466       -1636.416          36.000  
G 3  22395670.715   117689907.7692      -1433.558          32.000  
G26  20151297.183   105895792.3732      -2074.607          31.000  
G27  20125900.930   105762272.498        2362.034          35.000  
C 1  35833229.746   186593001.5252       -346.837          38.000  
C10  36119668.012   188084557.459        -643.276          30.000  
G22  22378912.232   117601772.6852      -1855.426          27.000  
G16  19343260.453   101649465.088        -679.910          38.000  
C 5  38155409.663   198685199.5283       -372.665          34.000  
C 7  35830012.144   186576205.2852       -589.653          30.000  
G 4  20866160.666   109652296.0802      -2941.632          35.000  
G23  22158270.475   116442476.084        2792.688          37.000  
C14  23495517.556   122347212.912         134.601          34.000  
C 3  35197577.034   183282988.8003       -350.341          33.000  
C 4  37323882.183   194355218.524        -351.067          41.000  
> 2017 12 11 12 35 34.9960000  0 19                     
G14  20712399.642   108844361.547       -2963.051          41.000  
C 9  35167408.155   183125907.3012      -1172.758          29.000  
G31  21082556.575   110789474.409       -1189.805          40.000  
C 6  36005832.328   187491800.070       -1637.151          37.000  
G 3  22395959.053   117691341.8482      -1434.301          33.000  
G26  20151679.570   105897789.9803      -2074.972          30.000  
G27  20125451.291   105759910.555        2361.434          35.000  
C 1  35833296.109   186593348.8552       -347.605          38.000  
C10  36119795.477   188085200.549        -642.740          30.000  
G22  22379314.730   117603628.3912      -1856.575          29.000  
G16  19343389.611   101650145.606        -680.447          38.000  
G 8  22802757.692                        3289.902          17.000  
C 5  38155480.834   198685571.7392       -372.054          34.000  
C 7  35830125.125   186576796.3602       -591.118          30.000  
G 4  20866720.565   109655238.1792      -2942.371          35.000  
G23  22157739.221   116439683.566        2792.354          37.000  
C14  23495491.913   122347078.809         134.639          33.000  
C 3  35197644.287   183283338.8942       -350.656          33.000  
C 4  37323949.881   194355569.809        -351.750          41.000  
> 2017 12 11 12 35 35.9960000  0 18                     
G14  20712963.119   108847324.440       -2962.712          41.000  
C 9  35167634.493   183127080.2952      -1172.803          29.000  
G31  21082783.646   110790664.662       -1189.613          41.000  
C 6  36006146.746   187493436.774       -1636.645          36.000  
G 3  22396246.162   117692776.2262      -1434.311          34.000  
G26  20152058.222   105899864.7922      -2074.393          29.000  
G27  20125001.040   105757549.015        2361.418          34.000  
C 1  35833362.952   186593696.1642       -346.984          38.000  
C10  36119916.651   188085843.629        -642.161          31.000  
G16  19343519.223   101650826.550        -680.934          38.000  
G 8  22802133.820                        3289.902          16.000  
C 5  38155552.327   198685941.9913       -372.015          34.000  
C 7  35830238.212   186577387.2872       -590.357          30.000  
G 4  20867280.219   109658180.3332      -2941.561          35.000  
G23  22157208.115   116436891.271        2792.620          38.000  
C14  23495466.584   122346945.255         133.622          33.000  
C 3  35197711.453   183283688.0143       -350.741          33.000  
C 4  37324017.527   194355921.063        -350.772          41.000  
