     3.02           OBSERVATION DATA    M: Mixed            RINEX VERSION / TYPE
RTKCONV 2.4.2                           20171212 022054 UTC PGM / RUN BY / DATE 
log: G:\1_Research_Project\14_Vehicle Perception(PolyU)\13  COMMENT             
format: u-blox                                              COMMENT             
                                                            MARKER NAME         
                                                            MARKER NUMBER       
                                                            MARKER TYPE         
                                                            OBSERVER / AGENCY   
                                                            REC # / TYPE / VERS 
                                                            ANT # / TYPE        
        0.0000        0.0000        0.0000                  APPROX POSITION XYZ 
        0.0000        0.0000        0.0000                  ANTENNA: DELTA H/E/N
G    4 C1C L1C D1C S1C                                      SYS / # / OBS TYPES 
C    4 C1I L1I D1I S1I                                      SYS / # / OBS TYPES 
  2017    12    11    12     3    0.0030000     GPS         TIME OF FIRST OBS   
  2017    12    11    12     7   24.0030000     GPS         TIME OF LAST OBS    
G                                                           SYS / PHASE SHIFT   
C                                                           SYS / PHASE SHIFT   
  0                                                         GLONASS SLOT / FRQ #
 C1C    0.000 C1P    0.000 C2C    0.000 C2P    0.000        GLONASS COD/PHS/BIS 
                                                            END OF HEADER       
> 2017 12 11 12  3  0.0030000  0 14                     
G 4  21921696.421   115199291.8333      -2604.796          33.000  
G14  21878516.712                1      -2009.799          23.000  
C 9  36887099.315                1       -833.271          26.000  
G31  22770269.012   119658587.2621      -1030.769          36.000  
C 6  37534384.988                1      -1386.692          20.000  
G32  23515308.610                1      -3298.694          24.000  
G26  21561444.681                1      -1569.156          30.000  
G27  23229387.294   122071254.0373       2976.232          32.000  
C10  37959761.072                1       -713.569          25.000  
C 7  37678266.069   196200586.8933       -728.735          31.000  
G16  21356495.917                1        272.274          23.000  
C14  25816037.368   134430842.6623       1047.737          27.000  
G23  25355763.618   133245436.4183       3061.398          37.000  
C 8  40857485.143   212755615.0193       1188.730          33.000  
> 2017 12 11 12  3  1.0030000  0 16                     
G 4  21922194.027   115201906.4063      -2606.367          42.000  
G14  21878903.958                       -2015.833          23.000  
C 9  36887260.416                        -825.190          26.000  
G31  22770471.966   119659636.8403      -1042.150          35.000  
C 6  37534649.533   195452737.9203      -1378.219          29.000  
G32  23515931.814   123577054.8933      -3290.043          30.000  
G26  21561728.225                       -1573.049          29.000  
G27  23228809.784                        2973.316          28.000  
C10  37959900.660                        -714.696          30.000  
G22  23879913.281                1      -1294.391          29.000  
C 7  37678407.472                        -729.184          35.000  
G16  21356448.374                         264.594          30.000  
G 3  24112660.865                1       -566.119          28.000  
C14  25815834.937   134429794.8593       1048.757          32.000  
G23  25355177.409   133242373.2092       3064.732          37.000  
C 8  40857258.591                        1178.952          26.000  
> 2017 12 11 12  3  2.0030000  0 17                     
G 4  21922692.025   115204523.6763      -2606.952          33.000  
G14  21879285.010   114976417.9783      -2017.609          31.000  
C 9  36887421.394                        -838.485          26.000  
G31  22770666.907   119660661.8163      -1034.271          33.000  
C 6  37534912.805                       -1385.674          23.000  
G32  23516564.594   123580380.4182      -3285.443          31.000  
G26  21562026.349   113309212.9803      -1572.089          30.000  
G27  23228243.520   122065242.6132       2973.852          33.000  
C10  37960037.247                        -720.200          23.000  
G22  23880160.467   125491090.1733      -1297.719          28.000  
C 7  37678550.787                        -726.125          26.000  
G16  21356402.009                         256.564          31.000  
G 3  24112776.158   126713493.2763       -570.954          27.000  
C14  25815634.116                        1045.564          26.000  
G23  25354590.959   133239309.6302       3062.661          31.000  
C 8  40857026.006                        1194.166          25.000  
C13  41805344.412                1        657.457          11.000  
> 2017 12 11 12  3  3.0030000  0 15                     
G 4  21923187.616   115207130.6842      -2608.600          33.000  
G14  21879664.496   114978435.6112      -2018.884          31.000  
C 9  36887581.901                        -841.818          26.000  
G31  22770866.477   119661697.2602      -1035.345          34.000  
C 6  37535176.883                       -1385.607          22.000  
G32  23517188.204                       -3279.449          25.000  
G26  21562332.757   113310786.2832      -1575.024          38.000  
C10  37960177.006                        -719.622          22.000  
G22  23880406.520                       -1302.060          27.000  
C 7  37678693.416   196202812.4742       -731.459          32.000  
G16  21356361.778                         255.330          25.000  
G 3  24112882.081   126714063.4142       -569.327          27.000  
G23  25354008.104                        3063.574          25.000  
C 8  40856800.104                        1187.515          26.000  
C13  41805227.273                         610.582          11.000  
> 2017 12 11 12  3  4.0030000  0 13                     
G 4  21923685.296   115209743.2893      -2607.032          36.000  
G14  21880050.673   114980441.5933      -2016.028          30.000  
C 9  36887736.793   192084094.1793       -838.814          27.000  
G31  22771066.408                       -1044.208          25.000  
C 6  37535446.070                       -1384.552          22.000  
G32  23517815.055                       -3290.349          24.000  
G26  21562621.672                       -1548.010          27.000  
C10  37960310.714                        -718.634          28.000  
G22  23880654.954                       -1304.742          26.000  
C 7  37678829.781   196203522.6232       -729.862          31.000  
G16  21356300.008   112228113.4083        258.751          32.000  
C 8  40856570.459                        1184.955          25.000  
C13  41805117.145                         578.478          13.000  
> 2017 12 11 12  3  5.0030000  0 15                     
G 4  21924180.320                       -2604.774          27.000  
G14  21880429.430                       -2019.454          21.000  
C 9  36887899.002                        -844.453          25.000  
G31  22771254.539                       -1032.244          25.000  
C 6  37535719.341                       -1379.580          21.000  
G32  23518441.465                       -3291.539          24.000  
G26  21562924.224   113313931.0793      -1573.201          32.000  
C10  37960451.167                        -714.145          24.000  
C 7  37678964.972                        -731.370          22.000  
G16  21356252.592   112227854.5252        259.020          27.000  
G 3  24113098.176                        -570.021          24.000  
C14  25815030.761                        1045.397          24.000  
G23  25352846.409                        3064.766          25.000  
C 8  40856343.349                        1185.136          22.000  
C13  41805007.383                         578.478          10.000  
> 2017 12 11 12  3  6.0030000  0 16                     
G 4  21924672.664                       -2606.527          24.000  
G14  21880817.959                       -2019.873          30.000  
C 9  36888062.026                        -838.367          25.000  
G31  22771449.061                       -1035.033          26.000  
C 6  37535987.136                       -1387.270          21.000  
G32  23519063.596                       -3287.170          24.000  
G26  21563224.799   113315505.1232      -1574.260          27.000  
C10  37960588.783                        -720.094          22.000  
G22  23881145.955                       -1297.847          31.000  
C 7  37679107.671                        -736.260          22.000  
G16  21356199.613   112227586.4303        253.606          32.000  
G 3  24113208.152                        -570.021          22.000  
G23  25352268.453                        3057.969          25.000  
C 8  40856117.124                        1189.684          21.000  
G29  25565097.325                1      -3034.690          16.000  
C13  41804899.593                         578.478          11.000  
> 2017 12 11 12  3  7.0030000  0 15                     
G 4  21925167.265                       -2607.410          31.000  
G14  21881198.605   114986493.8622      -2018.877          29.000  
C 9  36888219.384                        -837.399          24.000  
G31  22771649.599                       -1038.922          31.000  
C 6  37536252.829                       -1393.295          20.000  
G32  23519683.122                       -3284.907          23.000  
G26  21563528.970                       -1573.708          26.000  
C10  37960725.816                        -721.752          18.000  
G22  23881391.606   125497559.7982      -1301.155          26.000  
C 7  37679252.713   196205725.2013       -731.367          31.000  
G16  21356157.907   112227366.3522        255.878          31.000  
G 3  24113314.825                        -570.021          22.000  
G23  25351680.071   133223977.1153       3062.482          35.000  
C 8  40855887.379                        1196.008          20.000  
G29  25565669.159                       -3034.690          15.000  
> 2017 12 11 12  3  8.0030000  0 19                     
G 4  21925671.903   115220183.3362      -2608.730          42.000  
G14  21881593.041   114988514.1102      -2019.525          32.000  
C 9  36888387.460   192087481.6783       -840.762          26.000  
G31  22771836.844                       -1036.234          25.000  
C 6  37536518.783                       -1393.196          23.000  
G32  23520311.766                       -3287.255          23.000  
G26  21563834.833   113318716.5393      -1575.950          37.000  
C 1  37799977.067                1       -354.352          29.000  
C10  37960867.359                        -714.094          22.000  
G22  23881640.909   125498860.0742      -1299.620          36.000  
C 4  39288627.448                1       -370.461          31.000  
C 7  37679392.834   196206456.2982       -730.914          30.000  
G16  21356111.899   112227111.7152        254.606          25.000  
G 3  24113424.809   126716902.0823       -573.499          31.000  
C14  25814435.364   134422507.4662       1041.518          32.000  
G23  25351101.561   133220914.5582       3063.531          35.000  
C 8  40855659.174                        1188.801          23.000  
G29  25566245.859                       -3034.690          19.000  
C13  41804677.914                         578.478          10.000  
> 2017 12 11 12  3  9.0030000  0 18                     
G 4  21926167.537   115222792.3062      -2609.217          41.000  
G14  21881972.374   114990534.9302      -2021.246          33.000  
C 9  36888547.151   192088322.2942       -841.089          29.000  
G31  22772028.460   119667817.1543      -1036.384          31.000  
C 6  37536783.647                       -1386.694          24.000  
G32  23520936.144                       -3293.412          23.000  
G26  21564139.003   113320292.3742      -1576.231          38.000  
C 1  37800050.872   196834752.1393       -354.526          30.000  
C10  37961009.011                        -715.829          21.000  
G22  23881884.815   125500160.2892      -1300.527          36.000  
C 4  39288696.054                        -359.082          30.000  
C 7  37679533.967   196207189.6893       -730.860          29.000  
G16  21356060.443                         259.399          24.000  
G 3  24113531.207   126717475.9212       -574.262          31.000  
C14  25814234.063   134421466.2612       1042.144          35.000  
G23  25350518.087   133217851.8642       3063.680          37.000  
C 8  40855429.935                        1187.372          24.000  
C13  41804564.523                         605.211          13.000  
> 2017 12 11 12  3 10.0030000  0 18                     
G 4  21926663.765   115225401.5072      -2609.793          39.000  
G14  21882356.667   114992556.2012      -2022.095          35.000  
C 9  36888709.748   192089162.9682       -842.100          30.000  
G31  22772235.403   119668852.5222      -1036.313          34.000  
C 6  37537047.904                       -1386.693          25.000  
G32  23521562.210                       -3272.533          21.000  
G26  21564439.561   113321868.5212      -1576.236          39.000  
C 1  37800119.002   196835105.7742       -353.463          31.000  
C10  37961147.086                        -720.530          22.000  
G22  23882132.743   125501460.7552      -1300.855          36.000  
C 4  39288763.390                        -364.746          30.000  
C 7  37679672.050   196207920.4492       -731.381          31.000  
G16  21356010.583                         253.784          26.000  
G 3  24113638.160   126718050.1612       -573.247          31.000  
C14  25814036.426   134420425.6152       1040.059          36.000  
G23  25349931.411   133214789.0622       3063.260          37.000  
C 8  40855203.719                        1189.441          25.000  
C13  41804457.461                         558.336          13.000  
> 2017 12 11 12  3 11.0030000  0 17                     
G 4  21927160.983   115228011.2992      -2612.389          32.000  
G14  21882742.522   114994577.8502      -2020.752          31.000  
C 9  36888871.280                        -840.264          23.000  
G31  22772434.540   119669888.0782      -1038.643          30.000  
C 6  37537315.425                       -1381.962          30.000  
G32  23522187.892                       -3295.323          18.000  
G26  21564730.557   113323444.7772      -1575.275          30.000  
C10  37961282.652                        -724.256          22.000  
G22  23882381.012   125502761.3892      -1300.697          34.000  
C 4  39288836.057                        -385.254          28.000  
C 7  37679815.552   196208651.6512       -733.930          30.000  
G16  21355966.831   112226363.0673        253.538          27.000  
G 3  24113754.099   126718624.8622       -574.347          30.000  
C14  25813838.397   134419398.7623       1045.544          28.000  
G23  25349346.650   133211725.7632       3061.344          34.000  
C 8  40854975.457                        1191.946          25.000  
C13  41804348.380                         605.211          12.000  
> 2017 12 11 12  3 12.0030000  0 18                     
G 4  21927652.952   115230620.5302      -2611.490          31.000  
G14  21883125.650   114996600.4012      -2026.002          29.000  
C 9  36889030.055                        -840.628          24.000  
G31  22772631.810   119670987.7063      -1036.867          36.000  
C 6  37537584.856   195468022.7173      -1389.204          29.000  
G32  23522815.916                       -3289.879          21.000  
G26  21565026.408                       -1583.461          30.000  
G27  23222590.679                        2969.677          25.000  
C10  37961419.523                        -716.448          23.000  
G22  23882628.866   125504062.6992      -1301.317          34.000  
C 4  39288919.879                        -464.941          27.000  
C 7  37679956.013   196209382.2872       -732.029          31.000  
G16  21355913.268                         248.511          25.000  
G 3  24113860.921                        -574.832          30.000  
C14  25813634.268   134418358.6812       1041.792          29.000  
G23  25348769.610   133208663.0342       3061.897          30.000  
C 8  40854748.713   212741366.0462       1187.865          23.000  
C13  41804231.328                         605.211          16.000  
> 2017 12 11 12  3 13.0030000  0 16                     
G 4  21928151.056   115233229.3462      -2609.064          35.000  
G14  21883510.567   114998623.2663      -2020.312          30.000  
C 9  36889192.914   192091676.0293       -846.047          29.000  
G31  22772830.507   119672031.3692      -1032.279          37.000  
C 6  37537850.335                       -1386.604          21.000  
G32  23523440.782                       -3285.424          28.000  
G26  21565325.526   113326550.0163      -1574.404          36.000  
G27  23222022.901                        2974.119          25.000  
C10  37961555.665                        -712.159          24.000  
G22  23882873.174   125505345.4673      -1297.095          23.000  
C 7  37680092.487   196210112.0622       -728.762          27.000  
G16  21355868.578   112225845.9612        256.470          34.000  
G 3  24113966.656                        -571.528          26.000  
C14  25813432.644                        1043.503          29.000  
G23  25348181.856                        3065.900          28.000  
C 8  40854522.842                        1192.741          22.000  
> 2017 12 11 12  3 14.0030000  0 13                     
G 4  21928649.377   115235830.1273      -2609.188          31.000  
G14  21883894.245   115000639.4992      -2022.253          32.000  
C 9  36889350.808                        -838.817          23.000  
G31  22773027.603                       -1039.630          28.000  
C 6  37538114.955                       -1389.397          20.000  
G32  23524067.908                       -3288.136          33.000  
G26  21565632.964   113328165.7863      -1576.450          32.000  
C10  37961692.292                        -711.390          22.000  
G22  23883119.680   125506644.9122      -1302.556          24.000  
C 7  37680233.755                        -729.588          25.000  
G16  21355811.899   112225591.0772        252.635          30.000  
G23  25347589.670   133202482.1803       3062.438          33.000  
C 8  40854293.219                        1183.952          22.000  
> 2017 12 11 12  3 15.0030000  0 16                     
G 4  21929143.641   115238440.9742      -2607.773          32.000  
G14  21884276.671                       -2023.618          24.000  
C 9  36889515.747   192093357.0853       -839.604          23.000  
G31  22773225.768   119674108.4782      -1035.129          38.000  
C 6  37538385.294                       -1387.471          21.000  
G32  23524696.583                       -3291.298          19.000  
G26  21565924.736   113329743.9532      -1577.220          38.000  
G27  23220888.427                        2974.931          30.000  
C10  37961829.860                        -717.067          22.000  
G22  23883372.472   125507946.5022      -1302.383          24.000  
C 7  37680372.528   196211556.4813       -729.108          31.000  
G16  21355765.604   112225340.1402        252.733          34.000  
G 3  24114182.157                        -576.537          31.000  
C14  25813032.611                        1036.475          28.000  
G23  25347009.402   133199419.6192       3063.210          30.000  
C 8  40854062.593                        1186.691          23.000  
> 2017 12 11 12  3 16.0030000  0 17                     
G 4  21929641.836   115241050.8512      -2611.228          34.000  
G14  21884670.051                       -2025.119          22.000  
C 9  36889676.145                        -834.325          23.000  
G31  22773418.139   119675143.1022      -1035.976          33.000  
C 6  37538653.263                       -1386.415          22.000  
G32  23525319.058   123626385.6293      -3291.506          24.000  
G26  21566227.419   113331321.2622      -1578.162          42.000  
G27  23220326.940                        2969.194          28.000  
C10  37961969.737                        -709.500          22.000  
G22  23883618.106   125509248.4262      -1302.753          25.000  
C 7  37680512.597   196212286.0822       -730.482          33.000  
G16  21355720.840   112225088.2372        250.316          35.000  
G 3  24114296.177   126721481.2583       -577.814          33.000  
C14  25812836.881   134414183.2193       1038.169          28.000  
G23  25346432.947   133196356.5732       3062.834          35.000  
C 8  40853838.065   212736623.8543       1188.569          26.000  
G29  25570856.128                       -3038.802          22.000  
> 2017 12 11 12  3 17.0030000  0 14                     
G 4  21930138.753   115243661.8562      -2611.385          35.000  
C 9  36889838.724                        -840.441          25.000  
G31  22773617.242   119676178.6182      -1035.596          39.000  
C 6  37538913.808                       -1392.431          24.000  
G32  23525951.306   123629676.8332      -3291.448          29.000  
G26  21566527.536   113332899.7412      -1579.187          40.000  
G27  23219761.418                        2969.979          27.000  
C10  37962107.493                        -722.830          24.000  
C 7  37680655.894   196213016.3342       -730.027          28.000  
G16  21355674.636   112224837.5912        249.893          32.000  
C14  25812633.389   134413145.6242       1037.273          31.000  
G23  25345850.433   133193294.0872       3062.507          29.000  
C 8  40853610.383   212735434.7232       1188.120          26.000  
G29  25571434.000                       -3041.607          22.000  
> 2017 12 11 12  3 18.0030000  0 13                     
G 4  21930636.006   115246273.5072      -2611.817          36.000  
C 9  36889998.398   192095870.8862       -843.322          33.000  
G31  22773815.768   119677214.4802      -1035.764          42.000  
C 6  37539177.006                       -1381.689          24.000  
G32  23526579.296   123632968.8712      -3291.960          30.000  
G26  21566828.256   113334478.8632      -1579.415          41.000  
G27  23219202.754                        2971.905          27.000  
C10  37962243.971                        -717.297          25.000  
C 7  37680793.471   196213746.9552       -730.060          30.000  
G16  21355627.917   112224587.8492        249.133          35.000  
C14  25812435.360   134412108.8302       1036.170          34.000  
G23  25345263.879   133190231.9822       3062.128          32.000  
C 8  40853381.703   212734245.7202       1188.911          27.000  
> 2017 12 11 12  3 19.0030000  0 14                     
G 4  21931133.394   115248885.1342      -2611.716          36.000  
C 9  36890160.297   192096713.2422       -842.083          33.000  
G31  22774011.905   119678250.2192      -1035.701          41.000  
C 6  37539443.898                       -1386.320          25.000  
G32  23527202.683   123636261.0832      -3292.656          30.000  
G26  21567130.036   113336058.1792      -1579.340          40.000  
G27  23218637.210                        2968.808          25.000  
C10  37962382.936                        -718.726          26.000  
G22  23884373.626   125513229.6183      -1303.958          27.000  
C 7  37680933.705                        -729.942          28.000  
G16  21355582.512   112224338.5692        248.817          35.000  
C14  25812234.006   134411072.3592       1036.695          33.000  
G23  25344681.731   133187169.8572       3062.362          33.000  
C 8  40853152.075   212733056.5042       1189.168          27.000  
> 2017 12 11 12  3 20.0030000  0 15                     
G 4  21931631.637   115251496.7642      -2611.615          31.000  
G14  21886216.869                       -2026.027          24.000  
C 9  36890322.868   192097555.5262       -842.061          30.000  
G31  22774208.752   119679285.8112      -1035.717          36.000  
C 6  37539710.952                       -1383.937          25.000  
G32  23527835.620   123639553.4062      -3291.314          30.000  
G26  21567429.106   113337637.5962      -1579.333          38.000  
G27  23218072.508                        2968.961          26.000  
C10  37962520.780                        -720.198          26.000  
G22  23884621.681                       -1304.912          27.000  
C 7  37681076.208                        -729.830          27.000  
G16  21355531.618   112224089.6002        248.858          34.000  
C14  25812033.966   134410036.1062       1036.201          32.000  
G23  25344100.425                        3065.571          26.000  
C 8  40852924.084   212731867.0632       1188.978          27.000  
> 2017 12 11 12  3 21.0030000  0 15                     
G 4  21932127.829   115254108.5092      -2610.953          29.000  
G14  21886602.659                       -2034.340          22.000  
C 9  36890480.465                        -842.524          24.000  
G31  22774405.481   119680321.3432      -1035.878          36.000  
C 6  37539978.813                       -1384.281          24.000  
G32  23528454.863   123642846.0122      -3292.665          29.000  
G26  21567730.205   113339217.3052      -1579.670          37.000  
G27  23217509.694                        2969.165          25.000  
C10  37962658.798                        -717.262          25.000  
G22  23884869.483                       -1304.219          26.000  
C 7  37681217.193                        -729.891          27.000  
G16  21355487.727   112223841.0902        248.401          33.000  
C14  25811837.825   134409000.2022       1036.031          32.000  
G23  25343518.124                        3062.318          25.000  
C 8  40852693.505   212730677.3312       1190.231          26.000  
> 2017 12 11 12  3 22.0030000  0 16                     
G 4  21932621.108                       -2611.652          23.000  
G14  21886987.545                       -2025.297          20.000  
C 9  36890640.889                        -847.062          21.000  
G31  22774603.074   119681356.8612      -1033.938          31.000  
C 6  37540245.212                       -1390.674          25.000  
G32  23529079.790   123646138.9782      -3293.174          28.000  
G26  21568031.335   113340797.3162      -1580.080          36.000  
G27  23216944.286                        2970.551          24.000  
C10  37962795.507                        -721.700          22.000  
G22  23885118.070                       -1306.510          25.000  
C 7  37681363.434   196216716.1243       -729.227          27.000  
G16  21355438.539   112223593.0502        247.560          35.000  
G 3  24115015.087                        -577.516          20.000  
C14  25811639.569   134407964.7152       1036.168          31.000  
G23  25342934.288                        3065.704          24.000  
C 8  40852464.314                        1191.000          25.000  
> 2017 12 11 12  3 23.0030000  0 16                     
G 4  21933127.561   115259313.7193      -2611.808          32.000  
G14  21887370.451                       -2028.623          19.000  
C 9  36890805.000                        -839.676          20.000  
G31  22774797.143   119682392.1252      -1034.823          26.000  
C 6  37540514.067                       -1388.870          26.000  
G32  23529710.436   123649431.9032      -3292.054          27.000  
G26  21568332.173   113342377.2982      -1579.643          36.000  
G27  23216381.119                        2970.441          24.000  
C10  37962932.422                        -714.068          22.000  
G22  23885367.320                       -1303.339          25.000  
C 7  37681501.810   196217445.6162       -728.330          28.000  
G16  21355391.175   112223345.2032        247.891          34.000  
G 3  24115133.443                        -577.516          21.000  
C14  25811444.318   134406929.4702       1034.858          29.000  
G23  25342361.650                        3070.123          23.000  
C 8  40852237.317                        1190.417          25.000  
> 2017 12 11 12  3 24.0030000  0 16                     
G 4  21933621.612   115261924.8532      -2610.434          32.000  
G14  21887756.402                       -2033.937          19.000  
C 9  36890966.196                        -835.252          21.000  
G31  22774995.996   119683426.3482      -1034.175          34.000  
C 6  37540779.795                       -1387.939          25.000  
G32  23530337.039   123652724.0272      -3291.991          28.000  
G26  21568632.748   113343956.4242      -1578.059          36.000  
G27  23215813.071                        2976.367          23.000  
C10  37963071.487                        -702.272          21.000  
G22  23885615.052                       -1304.097          26.000  
C 7  37681642.603   196218173.9812       -728.451          28.000  
G16  21355345.145   112223096.6862        248.561          33.000  
G 3  24115226.326                        -577.516          20.000  
C14  25811240.347   134405893.3912       1036.148          29.000  
G23  25341784.236                        3061.471          24.000  
C 8  40852009.583                        1192.162          24.000  
> 2017 12 11 12  3 25.0030000  0 16                     
G 4  21934115.278   115264536.4512      -2613.045          32.000  
G14  21888140.093                       -2021.925          21.000  
C 9  36891127.824                        -840.232          22.000  
G31  22775191.517   119684460.3491      -1035.714          27.000  
C 6  37541047.032                       -1388.535          25.000  
G32  23530964.095   123656016.819       -3293.171          28.000  
G26  21568933.263   113345535.6931      -1580.011          36.000  
G27  23215245.581                        2968.420          24.000  
C 4  39289800.723                        -373.859          28.000  
C10  37963209.448                        -712.563          22.000  
C 7  37681780.730   196218902.4242       -729.117          28.000  
G16  21355298.422   112222848.4861        246.870          33.000  
G 3  24115316.291                        -577.516          20.000  
C14  25811039.299   134404857.9922       1034.594          30.000  
G23  25341204.347                        3062.696          25.000  
C 8  40851777.535                        1190.739          25.000  
> 2017 12 11 12  3 26.0030000  0 15                     
G 4  21934613.028   115267149.4062      -2610.643          32.000  
G14  21888524.595                       -2027.429          22.000  
C 9  36891292.428                        -842.753          25.000  
G31  22775390.821                       -1035.522          26.000  
C 6  37541315.024                       -1389.932          26.000  
G32  23531591.626   123659311.114       -3295.792          28.000  
G26  21569233.616   113347116.935       -1580.868          32.000  
G27  23214677.275                        2968.830          24.000  
C 4  39289868.072                        -351.953          30.000  
C10  37963348.509                        -720.177          21.000  
C 7  37681918.487   196219631.8582       -729.539          28.000  
G16  21355251.843   112222602.558         245.110          31.000  
C14  25810844.663   134403824.2052       1033.868          32.000  
G23  25340621.453   133165865.1613       3062.473          32.000  
C 8  40851548.339                        1191.468          24.000  
> 2017 12 11 12  3 27.0030000  0 15                     
G 4  21935105.971   115269759.2113      -2610.575          27.000  
G14  21888909.721                       -2030.800          24.000  
C 9  36891454.850                        -847.931          25.000  
G31  22775586.747   119686515.2793      -1034.691          32.000  
C 6  37541582.208   195488838.8412      -1389.285          26.000  
G32  23532216.501   123662605.916       -3293.889          28.000  
G26  21569537.354                       -1572.958          26.000  
G27  23214114.471                        2965.469          24.000  
C 4  39289936.075                        -357.422          29.000  
C10  37963485.685                        -712.442          20.000  
C 7  37682059.061                        -741.776          26.000  
G16  21355203.489   112222357.600         241.221          24.000  
C14  25810649.138   134402791.4842       1031.368          25.000  
G23  25340035.283   133162803.4562       3059.431          31.000  
C 8  40851320.199                        1187.511          22.000  
> 2017 12 11 12  3 28.0030000  0 16                     
G 4  21935605.016   115272382.1152      -2615.469          24.000  
G14  21889295.650   115029024.0423      -2030.747          32.000  
C 9  36891618.616   192104307.6423       -843.353          32.000  
G31  22775783.333   119687548.9053      -1035.779          33.000  
C 6  37541848.765   195490229.0132      -1390.343          26.000  
G32  23532831.600   123665901.326       -3294.769          27.000  
G26  21569831.199                       -1580.092          25.000  
G27  23213548.194   121988018.6402       2968.688          25.000  
C 4  39290004.790                        -368.604          29.000  
C10  37963625.134                        -716.887          19.000  
G22  23886606.617                       -1306.807          29.000  
C 7  37682199.191                        -736.395          23.000  
G16  21355152.591   112222084.1063        244.807          26.000  
G 3  24115634.971                        -583.913          23.000  
G23  25339440.628   133159741.3522       3061.547          35.000  
C 8  40851092.360   212722325.9413       1190.170          31.000  
> 2017 12 11 12  3 29.0030000  0 17                     
G 4  21936101.388                       -2611.871          25.000  
G14  21889683.534   115031055.5052      -2031.056          32.000  
C 9  36891781.688   192105151.9772       -844.619          26.000  
G31  22775979.691   119688580.2733      -1037.431          33.000  
C 6  37542118.755                       -1391.089          25.000  
G32  23533456.592                       -3296.010          27.000  
G26  21570138.776   113351843.8873      -1582.859          34.000  
G27  23212981.852                        2970.456          24.000  
C 4  39290076.353                        -344.287          28.000  
C10  37963765.469                        -718.954          23.000  
G22  23886848.761                       -1305.880          28.000  
C 7  37682340.411                        -729.816          30.000  
G16  21355112.469   112221873.3343        243.897          28.000  
G 3  24115739.044   126729063.4553       -582.294          29.000  
C 1  37801409.856                        -354.672          29.000  
G23  25338860.744   133156680.0282       3059.746          31.000  
C 8  40850857.406   212721136.0852       1190.302          23.000  
> 2017 12 11 12  3 30.0030000  0 16                     
G 4  21936601.952   115277621.1313      -2614.898          43.000  
G14  21890070.178   115033087.0772      -2031.852          35.000  
C 9  36891943.875   192105996.6502       -844.454          38.000  
G31  22776180.068   119689633.1752      -1035.403          44.000  
C 6  37542385.608                       -1392.685          22.000  
G32  23534091.549                       -3296.308          26.000  
G26  21570441.712                       -1585.361          29.000  
C 4  39290147.807                        -368.604          28.000  
C10  37963904.713                        -718.110          30.000  
G22  23887095.088   125527531.7703      -1309.341          33.000  
C 7  37682473.639   196222496.6853       -730.349          32.000  
G16  21355057.191                         245.821          32.000  
G 3  24115837.598   126729581.9323       -586.155          29.000  
C 1  37801478.933                        -352.437          35.000  
G23  25338274.866   133153618.5422       3061.008          37.000  
C 8  40850629.140                        1190.410          23.000  
> 2017 12 11 12  3 31.0030000  0 17                     
G 4  21937095.143   115280235.6832      -2614.541          38.000  
G14  21890459.637   115035118.8422      -2031.855          36.000  
C 9  36892107.916   192106840.5222       -843.095          37.000  
G31  22776382.024   119690669.0852      -1036.124          45.000  
C 6  37542651.265                       -1387.514          21.000  
G32  23534721.916                       -3294.342          32.000  
G26  21570728.685   113354944.0342      -1582.442          42.000  
G27  23211859.301                        2965.088          34.000  
C 4  39290212.884   204594417.0282       -358.532          32.000  
C10  37964044.550   197688711.0023       -718.246          29.000  
G22  23887347.021   125528839.5492      -1308.052          33.000  
C 7  37682616.591                        -724.960          27.000  
G16  21355010.315   112221336.1632        242.998          35.000  
G 3  24115956.303   126730166.1822       -583.507          34.000  
C 1  37801546.674   196842542.2083       -352.717          36.000  
C14  25809859.808   134398681.7103       1032.290          36.000  
G23  25337686.650   133150556.4072       3063.174          33.000  
> 2017 12 11 12  3 32.0030000  0 18                     
G 4  21937591.946   115282823.0773      -2614.045          38.000  
G14  21890845.880   115037150.8752      -2031.680          35.000  
C 9  36892270.565   192107684.3252       -844.041          35.000  
G31  22776574.862   119691704.6722      -1035.960          42.000  
C 6  37542921.286                       -1394.653          20.000  
G32  23535337.198                       -3295.293          26.000  
G26  21571029.518   113356524.8603      -1583.755          34.000  
G27  23211291.209   121976157.8862       2967.718          36.000  
C 4  39290282.497   204594776.7542       -358.934          31.000  
C10  37964183.864   197689429.2702       -717.437          28.000  
G22  23887597.445   125530147.4162      -1307.690          34.000  
C 7  37682756.128   196223968.4623       -727.791          32.000  
G16  21354968.622   112221092.7752        243.261          38.000  
G 3  24116069.420   126730750.6842       -583.757          34.000  
C 1  37801612.793   196842895.0452       -352.217          33.000  
C14  25809662.887   134397650.6352       1029.240          28.000  
G23  25337118.095   133147494.0602       3062.461          40.000  
C 8  40850179.387   212717572.4253       1190.102          31.000  
> 2017 12 11 12  3 33.0030000  0 17                     
G 4  21938091.882   115285437.9182      -2614.349          42.000  
G14  21891234.178   115039183.9112      -2032.076          32.000  
C 9  36892430.130   192108533.6413       -844.609          35.000  
G31  22776769.877   119692740.6492      -1035.625          44.000  
C 6  37543183.113                       -1389.055          21.000  
G32  23535977.067                       -3296.581          24.000  
G26  21571335.495   113358108.5392      -1583.637          37.000  
G27  23210732.340   121973190.3332       2967.216          35.000  
C 4  39290351.495   204595136.9712       -360.104          33.000  
C10  37964317.594   197690132.2503       -719.715          28.000  
G22  23887844.937   125531456.0792      -1309.066          30.000  
C 7  37682892.667   196224697.5132       -728.850          31.000  
G16  21354925.760   112220850.3012        241.882          38.000  
G 3  24116173.135   126731336.2082       -585.637          36.000  
C 1  37801674.589                        -357.080          30.000  
G23  25336527.768   133144432.0772       3061.504          34.000  
C 8  40849946.121   212716357.9332       1192.858          29.000  
> 2017 12 11 12  3 34.0030000  0 17                     
G 4  21938589.985   115288052.7532      -2615.556          45.000  
G14  21891620.264   115041216.8982      -2033.029          32.000  
C 9  36892593.481   192109377.8512       -844.062          36.000  
G31  22776968.473   119693776.3872      -1036.153          41.000  
C 6  37543450.922                       -1392.338          22.000  
G32  23536608.752                       -3297.851          34.000  
G26  21571631.529   113359691.9612      -1583.724          37.000  
G27  23210169.282   121970222.5502       2967.491          35.000  
C 4  39290421.065   204595496.4972       -359.786          33.000  
C10  37964454.473   197690850.7982       -718.604          34.000  
G22  23888092.071   125532764.9482      -1308.757          33.000  
C 7  37683036.627   196225426.3212       -728.793          37.000  
G16  21354883.448   112220608.1262        242.150          38.000  
G 3  24116286.553   126731922.0562       -586.262          36.000  
C 1  37801742.937   196843564.1113       -352.188          31.000  
G23  25335954.083   133141370.0842       3061.951          38.000  
C 8  40849721.873   212715166.1112       1192.323          28.000  
> 2017 12 11 12  3 35.0030000  0 17                     
G 4  21939092.377   115290667.5562      -2615.738          40.000  
G14  21892003.012   115043250.3492      -2033.382          32.000  
C 9  36892755.995   192110222.0652       -844.385          37.000  
G31  22777166.585   119694811.8622      -1035.213          42.000  
C 6  37543722.875                       -1381.035          21.000  
G32  23537225.892   123688956.6233      -3296.185          28.000  
G26  21571947.740   113361349.5953      -1586.354          31.000  
G27  23209601.605   121967254.7982       2967.825          35.000  
C 4  39290490.355   204595855.9332       -358.906          34.000  
C10  37964591.423   197691569.1702       -717.909          33.000  
G22  23888341.060   125534073.9532      -1309.066          34.000  
C 7  37683176.647   196226154.8432       -728.243          31.000  
G16  21354833.976   112220366.2782        241.472          39.000  
G 3  24116399.753   126732508.2162       -586.329          32.000  
C 1  37801813.815   196843916.8172       -351.066          31.000  
G23  25335367.690   133138307.8442       3062.634          39.000  
C 8  40849493.240   212713974.4712       1191.031          29.000  
> 2017 12 11 12  3 36.0030000  0 16                     
G 4  21939586.990   115293282.7752      -2615.220          37.000  
G14  21892394.163   115045284.3232      -2033.811          36.000  
C 9  36892917.746   192111066.4602       -844.259          37.000  
G31  22777358.211   119695847.4092      -1034.700          39.000  
C 6  37543989.147                       -1386.838          20.000  
G32  23537858.872                       -3292.083          25.000  
G26  21572242.317   113362933.5952      -1584.725          37.000  
G27  23209030.420   121964287.3672       2967.757          39.000  
C 4  39290559.545   204596215.4302       -359.552          35.000  
G22  23888588.334   125535383.3612      -1309.784          34.000  
C 7  37683315.957   196226883.1922       -728.265          34.000  
G16  21354787.864   112220124.9682        241.036          39.000  
G 3  24116510.335   126733094.8512       -586.377          31.000  
C 1  37801882.316   196844269.5352       -352.615          31.000  
G23  25334785.102   133135245.6632       3062.158          38.000  
C 8  40849275.666   212712782.5402       1191.823          29.000  
> 2017 12 11 12  3 37.0030000  0 18                     
G 4  21940084.361   115295897.4322      -2615.373          39.000  
G14  21892782.073   115047318.099       -2033.687          37.000  
C 9  36893079.012   192111910.3442       -844.179          36.000  
G31  22777554.238   119696881.8981      -1035.246          35.000  
C 6  37544256.040                       -1393.972          17.000  
G32  23538489.043                       -3300.658          22.000  
G26  21572543.237   113364517.2412      -1583.718          39.000  
G27  23208466.276   121961319.3782       2967.771          39.000  
C 4  39290628.962   204596573.7641       -359.267          35.000  
G22  23888839.660   125536692.3502      -1309.282          34.000  
C 7  37683455.096   196227610.7922       -727.335          35.000  
G16  21354742.485   112219883.4542        241.060          39.000  
G 3  24116621.048   126733681.2162       -586.442          32.000  
C 1  37801950.333   196844621.4752       -351.450          31.000  
C14  25808671.252   134392491.7673       1030.569          26.000  
G23  25334206.021   133132182.731        3062.159          34.000  
C 5  40113953.544                1       -377.832          28.000  
C 8  40849042.832                        1194.509          27.000  
> 2017 12 11 12  3 38.0030000  0 18                     
G 4  21940580.789   115298512.8402      -2616.369          41.000  
G14  21893169.442   115049352.937       -2035.958          37.000  
C 9  36893240.928   192112754.8382       -845.004          36.000  
G31  22777747.621   119697917.407       -1036.865          31.000  
G32  23539116.191                       -3296.270          19.000  
G26  21572844.965   113366101.7112      -1585.335          40.000  
G27  23207902.730   121958352.0482       2966.830          39.000  
C 4  39290698.327   204596945.5253       -359.852          35.000  
C10  37965001.939                        -720.007          18.000  
G22  23889087.214   125538002.2272      -1311.290          33.000  
C 7  37683594.781   196228338.8992       -729.133          35.000  
G16  21354696.015   112219642.9022        240.135          38.000  
G 3  24116729.972   126734268.5722       -587.661          32.000  
C 1  37802018.463   196844974.0212       -354.643          31.000  
C14  25808473.410   134391462.5862       1028.744          31.000  
G23  25333630.674   133129120.434        3061.198          31.000  
C 5  40114027.682                        -371.924          28.000  
C 8  40848820.887                        1191.511          25.000  
> 2017 12 11 12  3 39.0030000  0 19                     
G 4  21941079.520   115301129.3992      -2616.747          39.000  
G14  21893556.784   115051389.144       -2036.512          37.000  
C 9  36893403.075   192113600.4302       -846.021          36.000  
G31  22777947.980   119698953.889       -1036.320          38.000  
G32  23539748.478                       -3299.610          18.000  
G26  21573150.405   113367687.3802      -1585.932          39.000  
G27  23207338.508   121955385.8492       2965.684          39.000  
C 4  39290767.975   204597305.7122       -360.852          36.000  
C10  37965137.187                        -718.054          20.000  
G22  23889336.363   125539313.3132      -1311.432          34.000  
C 7  37683736.271   196229067.2591       -729.041          36.000  
G16  21354650.190   112219403.8072        238.868          38.000  
G 3  24116842.033   126734857.3692       -589.107          33.000  
C 1  37802086.514   196845327.3742       -353.217          32.000  
C14  25808274.417   134390434.7802       1026.517          30.000  
G23  25333049.224   133126059.044        3061.106          35.000  
C 5  40114094.163                        -264.551          28.000  
C 8  40848588.368   212709287.1333       1191.221          27.000  
G29  25584152.400                       -3046.016          22.000  
> 2017 12 11 12  3 40.0030000  0 18                     
G 4  21941577.074   115303746.4742      -2617.008          39.000  
G14  21893944.510   115053426.083       -2037.199          37.000  
C 9  36893565.262   192114446.3342       -846.034          37.000  
G31  22778145.290   119699990.616       -1036.716          37.000  
G32  23540370.705                       -3298.042          18.000  
G26  21573450.967   113369273.6002      -1586.126          41.000  
G27  23206774.635   121952420.0532       2965.934          40.000  
C 4  39290837.383   204597666.0912       -360.057          36.000  
C10  37965279.162                        -712.998          22.000  
G22  23889585.771   125540624.9612      -1311.475          34.000  
C 7  37683877.714   196229796.236        -728.998          36.000  
G16  21354605.178   112219165.4222        238.306          39.000  
G 3  24116954.421   126735446.7482       -589.399          34.000  
C 1  37802154.527   196845680.9562       -353.629          33.000  
C14  25808076.151   134389407.6012       1027.117          31.000  
G23  25332463.935   133122997.861        3061.488          34.000  
C 8  40848364.957   212708095.7412       1191.370          27.000  
G 8  26098322.463                        3227.000          22.000  
> 2017 12 11 12  3 41.0030000  0 19                     
G 4  21942075.003   115306363.7302      -2617.995          38.000  
G14  21894332.084   115055463.589       -2038.302          37.000  
C 9  36893727.732   192115292.4622       -846.134          37.000  
G31  22778344.846   119701027.395       -1037.044          39.000  
G32  23540993.067                       -3304.344          20.000  
G26  21573752.703   113370860.1892      -1586.872          42.000  
G27  23206210.482   121949454.5032       2965.353          40.000  
C 4  39290906.722   204598026.5152       -360.861          36.000  
C10  37965417.835                        -719.910          25.000  
G22  23889835.470   125541937.0442      -1312.348          34.000  
C 7  37684016.832   196230525.231        -729.103          35.000  
G16  21354559.855   112218927.5872        237.574          39.000  
G 3  24117066.700   126736036.8082       -591.086          34.000  
C 1  37802222.609   196846034.5422       -353.729          33.000  
C14  25807880.548   134388380.8852       1026.852          31.000  
G23  25331882.092   133119936.855        3060.894          37.000  
C 8  40848136.608   212706904.2732       1190.999          27.000  
G29  25585320.234                       -3049.677          24.000  
G 8  26097739.373                        3227.000          23.000  
> 2017 12 11 12  3 42.0030000  0 21                     
G 4  21942572.893   115308981.3582      -2617.776          36.000  
G14  21894719.941   115057501.597       -2038.262          37.000  
C 9  36893890.207   192116138.8222       -846.464          37.000  
G31  22778542.592   119702064.290       -1036.808          40.000  
C 6  37545580.581                       -1385.348          17.000  
G32  23541613.797                       -3299.783          21.000  
G26  21574054.801   113372447.1092      -1587.063          42.000  
G27  23205646.269   121946489.1832       2965.477          40.000  
C 4  39290975.999   204598386.8962       -360.271          36.000  
C10  37965558.265   197696581.2323       -719.057          27.000  
G22  23890085.192   125543249.5402      -1312.612          34.000  
C 7  37684156.905   196231254.169        -728.793          34.000  
G16  21354514.751   112218690.3512        236.833          40.000  
G 3  24117179.031   126736627.3572       -590.717          33.000  
C 1  37802290.730   196846388.1972       -354.581          33.000  
C14  25807683.299   134387354.6612       1025.868          31.000  
G23  25331298.012   133116875.880        3061.298          37.000  
C 5  40114326.250                        -399.391          28.000  
C 8  40847905.885   212705712.7522       1191.432          28.000  
G29  25585903.114                       -3055.615          26.000  
G 8  26097143.313                        3227.000          23.000  
> 2017 12 11 12  3 43.0030000  0 19                     
G 4  21943071.354   115311598.891       -2617.686          35.000  
G14  21895107.964   115059539.864       -2038.781          37.000  
C 9  36894052.738   192116985.0622       -846.542          37.000  
G31  22778739.539   119703100.923       -1036.695          40.000  
G32  23542243.523                       -3294.212          22.000  
G26  21574357.353   113374034.070       -1586.928          40.000  
G27  23205081.911   121943523.7532       2965.333          40.000  
C 4  39291045.185   204598747.0052       -360.363          36.000  
C10  37965696.501   197697300.0262       -718.981          27.000  
G22  23890334.799   125544562.1172      -1312.340          34.000  
C 7  37684296.498   196231982.808        -728.660          34.000  
G16  21354469.555   112218452.8201        236.660          39.000  
G 3  24117291.127   126737218.1372       -591.149          33.000  
C 1  37802358.629   196846741.4572       -352.953          33.000  
C14  25807483.983   134386328.5952       1026.114          31.000  
G23  25330714.092   133113814.666        3061.206          36.000  
C 5  40114402.844                        -435.107          28.000  
C 8  40847673.824   212704520.7942       1192.491          29.000  
G29  25586486.986                       -3051.942          26.000  
> 2017 12 11 12  3 44.0030000  0 19                     
G 4  21943569.749   115314215.667       -2617.072          34.000  
G14  21895495.730   115061577.592       -2037.686          37.000  
C 9  36894215.051   192117830.3942       -844.822          37.000  
G31  22778937.726   119704136.532       -1035.037          40.000  
G32  23542876.159                       -3304.982          23.000  
G26  21574659.312   113375620.318       -1585.995          40.000  
G27  23204517.405   121940557.4452       2966.677          39.000  
C 4  39291114.048   204599106.0412       -358.485          36.000  
C10  37965831.588   197698017.7282       -717.213          26.000  
G22  23890584.442   125545873.9632      -1311.518          33.000  
C 7  37684436.160   196232710.257        -726.924          34.000  
G16  21354424.219   112218215.226         237.753          39.000  
G 3  24117403.031   126737808.2822       -589.955          32.000  
C 1  37802426.113   196847093.7412       -351.952          32.000  
C14  25807293.950   134385319.9683       1025.293          31.000  
G23  25330132.917   133110752.474        3062.789          36.000  
C 5  40114486.627                        -559.424          27.000  
C 8  40847438.677   212703327.7272       1193.086          30.000  
G29  25587057.403   134460893.6983      -3052.589          27.000  
> 2017 12 11 12  3 45.0030000  0 18                     
G 4  21944068.040   115316832.298       -2616.555          34.000  
G14  21895883.627   115063615.494       -2038.661          37.000  
C 9  36894377.434   192118675.1321       -846.572          37.000  
G31  22779133.308   119705171.908       -1036.211          39.000  
G32  23543508.694                       -3299.407          23.000  
G26  21574961.205   113377206.583       -1587.597          39.000  
G27  23203952.703   121937591.0312       2965.886          39.000  
C 4  39291182.928   204599464.3071       -359.834          36.000  
C10  37965969.471   197698735.0612       -717.821          26.000  
G22  23890833.945   125547185.8632      -1312.970          33.000  
C 7  37684575.522   196233437.282        -727.433          34.000  
G16  21354379.066   112217977.835         236.627          39.000  
G 3  24117514.900   126738398.6492       -591.242          32.000  
C 1  37802493.816   196847473.6643       -352.760          33.000  
C14  25807093.451   134384293.2882       1025.364          36.000  
G23  25329549.508   133107689.992        3061.511          36.000  
C 8  40847205.037   212702134.1782       1192.871          31.000  
G29  25587634.974   134463946.0632      -3053.072          27.000  
> 2017 12 11 12  3 46.0030000  0 18                     
G 4  21944565.546   115319450.268       -2618.515          42.000  
G14  21896272.055   115065655.084       -2039.415          34.000  
C 9  36894540.079   192119521.545        -846.537          36.000  
G31  22779331.734   119706208.562       -1036.678          44.000  
G32  23544131.501   123725246.0263      -3301.174          32.000  
G26  21575263.286   113378794.393       -1588.309          39.000  
G27  23203388.603   121934626.0522       2964.474          37.000  
C 4  39291252.092   204599824.239        -360.140          36.000  
C10  37966110.325   197699453.5892       -719.343          32.000  
G22  23891084.369   125548499.3112      -1313.996          33.000  
C 7  37684714.273   196234165.483        -729.117          32.000  
G16  21354333.962   112217742.125         235.408          38.000  
G 3  24117627.838   126738990.6932       -593.674          34.000  
C 1  37802561.745   196847827.7933       -352.908          33.000  
C14  25806907.545   134383268.3112       1024.708          27.000  
G23  25328965.533   133104628.746        3060.964          41.000  
C 8  40846976.849   212700941.6942       1192.673          31.000  
G29  25588220.351   134466999.9812      -3054.957          29.000  
> 2017 12 11 12  3 47.0030000  0 18                     
G 4  21945063.218   115322069.275       -2619.472          42.000  
G14  21896660.458   115067695.831       -2041.605          36.000  
C 9  36894702.427   192120368.896        -848.086          35.000  
G31  22779529.301   119707245.683       -1037.487          38.000  
G32  23544758.191   123728548.0672      -3302.982          34.000  
G26  21575565.532   113380383.056       -1588.971          42.000  
G27  23202824.760   121931661.8222       2963.832          39.000  
C 4  39291321.409   204600184.713        -360.990          36.000  
C10  37966250.777   197700172.4802       -718.405          31.000  
G22  23891334.426   125549813.6582      -1314.662          33.000  
C 7  37684850.817   196234894.214        -728.911          30.000  
G16  21354289.028   112217507.566         234.616          39.000  
G 3  24117740.479   126739583.7452       -592.306          33.000  
C 1  37802629.744   196848181.4052       -353.488          33.000  
C14  25806699.975   134382244.2532       1023.757          27.000  
G23  25328382.761   133101568.091        3060.363          35.000  
C 8  40846750.724   212699749.7472       1191.237          31.000  
G29  25588819.164   134470054.8762      -3055.916          31.000  
> 2017 12 11 12  3 48.0030000  0 19                     
G 4  21945560.828   115324688.629       -2619.275          42.000  
G14  21897049.039   115069737.185       -2041.523          36.000  
C 9  36894865.238   192121216.490        -847.871          36.000  
G31  22779726.707   119708283.064       -1037.251          36.000  
G32  23545385.478   123731850.5512      -3303.344          34.000  
G26  21575868.228   113381972.212       -1589.530          42.000  
G27  23202261.428   121928697.9162       2963.688          39.000  
C 4  39291390.769   204600545.317        -360.805          36.000  
C10  37966388.433   197700891.6542       -719.080          30.000  
G22  23891584.750   125551128.5832      -1315.362          33.000  
C 7  37684995.881   196235623.033        -728.666          30.000  
G16  21354244.704   112217273.652         233.525          39.000  
G 3  24117853.386   126740177.5332       -593.766          34.000  
C 1  37802697.795   196848536.2443       -353.916          33.000  
C14  25806505.819                        1022.926          25.000  
G23  25327800.556   133098507.667        3060.472          36.000  
C 5  40114758.222                        -388.086          28.000  
C 8  40846521.389   212698557.7922       1192.085          31.000  
G29  25589414.439   134473110.1742      -3055.074          31.000  
> 2017 12 11 12  3 49.0030000  0 20                     
G 4  21946058.857   115327308.236       -2619.947          41.000  
G14  21897438.031   115071779.052       -2042.215          36.000  
C 9  36895028.079   192122064.211        -848.210          35.000  
G31  22779924.121   119709320.362       -1037.229          38.000  
C 6  37547456.724                       -1390.016          16.000  
G32  23546012.172   123735153.4292      -3303.437          33.000  
G26  21576170.732   113383561.650       -1589.526          43.000  
G27  23201697.463   121925734.1892       2963.668          38.000  
C 4  39291460.304   204600912.4273       -360.344          34.000  
C10  37966525.457   197701610.7122       -718.775          30.000  
G22  23891835.619   125552443.2401      -1314.491          33.000  
C 7  37685132.463   196236351.531        -726.949          29.000  
G16  21354200.354   112217040.234         233.024          41.000  
G 3  24117966.634   126740771.695        -594.105          36.000  
C 1  37802765.816   196848890.0193       -353.953          32.000  
C14  25806304.444                        1025.736          24.000  
G23  25327218.421   133095447.250        3059.766          32.000  
C 5  40114831.151                        -371.338          26.000  
C 8  40846296.456   212697365.4172       1193.567          23.000  
G29  25590007.310   134476165.8912      -3054.883          30.000  
> 2017 12 11 12  3 50.0030000  0 19                     
G 4  21946557.026   115329927.903       -2620.001          43.000  
G14  21897827.145   115073821.310       -2042.596          36.000  
C 9  36895190.732   192122911.891        -848.165          33.000  
G31  22780120.611   119710357.765       -1037.516          37.000  
C 6  37547725.518                       -1393.841          19.000  
G32  23546641.056   123738456.4372      -3303.217          33.000  
G26  21576472.861   113385151.284       -1589.981          41.000  
G27  23201133.071   121922770.5132       2963.299          37.000  
C 4  39291529.777   204601274.8452       -360.763          33.000  
C10  37966669.338   197702329.6482       -718.705          30.000  
G22  23892086.404   125553758.730       -1316.162          32.000  
C 7  37685270.926                        -725.552          26.000  
G16  21354155.917   112216807.192         232.566          41.000  
G 3  24118079.781   126741366.296        -595.058          35.000  
C 1  37802833.611   196849242.6402       -353.600          32.000  
C14  25806110.812   134379158.8573       1023.848          26.000  
G23  25326650.351   133092386.656        3060.348          28.000  
C 8  40846068.997                        1193.735          21.000  
G29  25590602.820                       -3056.530          28.000  
> 2017 12 11 12  3 51.0030000  0 19                     
G 4  21947055.745   115332547.754       -2619.784          43.000  
G14  21898216.193   115075864.019       -2043.105          36.000  
C 9  36895353.565   192123759.796        -848.077          33.000  
G31  22780316.978   119711395.090       -1037.104          37.000  
C 6  37547994.147                       -1393.449          20.000  
G32  23547269.029   123741759.7022      -3304.128          29.000  
G26  21576775.172   113386741.160       -1589.795          41.000  
G27  23200568.521   121919806.9872       2962.965          37.000  
C 4  39291599.203   204601636.1982       -360.407          33.000  
C10  37966802.597   197703047.9391       -717.970          31.000  
G22  23892336.915   125555074.437       -1315.813          32.000  
C 7  37685412.217                        -727.695          26.000  
G16  21354111.777   112216574.613         232.081          41.000  
G 3  24118193.090   126741961.323        -594.939          35.000  
C 1  37802901.518   196849596.2213       -353.188          31.000  
C14  25805917.128   134378150.5763       1021.747          27.000  
G23  25326061.925   133089326.122        3061.080          36.000  
C 8  40845845.542                        1190.344          21.000  
G29  25591184.602                       -3057.457          27.000  
> 2017 12 11 12  3 52.0030000  0 17                     
G 4  21947554.498   115335167.812       -2620.350          38.000  
G14  21898604.770   115077907.043       -2043.473          36.000  
C 9  36895516.410   192124607.614        -847.692          34.000  
G31  22780514.340   119712432.100       -1037.018          34.000  
C 6  37548264.503                       -1385.676          20.000  
G32  23547902.454   123745063.3092      -3304.570          33.000  
G26  21577077.279   113388331.207       -1590.406          42.000  
G27  23200004.037   121916843.5782       2962.770          36.000  
C 4  39291668.576   204601997.4833       -361.110          35.000  
C10  37966945.523   197703766.592        -719.616          31.000  
G22  23892588.177   125556390.322       -1315.327          35.000  
C 7  37685547.931   196238505.5273       -728.369          28.000  
G16  21354067.205   112216342.358         231.981          41.000  
G 3  24118306.813   126742556.589        -595.127          37.000  
C 1  37802969.626   196849951.6293       -353.297          33.000  
C14  25805728.626   134377128.5642       1022.739          29.000  
C 8  40845618.096                        1187.736          21.000  
> 2017 12 11 12  3 53.0030000  0 17                     
G 4  21948052.689   115337787.831       -2620.168          39.000  
G14  21898994.115   115079950.388       -2042.989          35.000  
C 9  36895679.186   192125455.281        -847.133          35.000  
G31  22780712.212   119713469.243       -1038.041          35.000  
C 6  37548529.236                       -1395.851          19.000  
G32  23548534.004   123748366.9832      -3304.433          35.000  
G26  21577379.923   113389921.337       -1589.751          38.000  
G27  23199439.405   121913880.0382       2964.342          31.000  
C 4  39291737.413   204602357.4972       -359.153          34.000  
C10  37967085.342   197704484.909        -718.175          31.000  
G22  23892839.141   125557706.424       -1315.756          34.000  
C 7  37685692.685   196239233.2832       -727.094          32.000  
G16  21354022.362   112216110.373         232.481          41.000  
G 3  24118420.588   126743152.160        -595.662          37.000  
C 1  37803037.761   196850305.8062       -352.323          32.000  
C14  25805517.474   134376106.6472       1022.348          30.000  
C 8  40845381.624                        1194.484          21.000  
> 2017 12 11 12  3 54.0030000  0 18                     
G 4  21948550.949   115340407.483       -2619.326          35.000  
G14  21899382.487   115081993.625       -2042.835          33.000  
C 9  36895842.158   192126302.743        -846.867          35.000  
G31  22780909.566   119714505.664       -1036.325          37.000  
C 6  37548795.806                       -1395.851          16.000  
G32  23549163.782   123751670.3482      -3302.771          38.000  
G26  21577682.846   113391511.313       -1589.563          37.000  
G27  23198878.712   121910929.4693       2964.580          32.000  
C 4  39291806.328   204602714.8683       -358.361          33.000  
C10  37967228.535                        -717.245          22.000  
G22  23893090.664   125559022.299       -1315.806          31.000  
C 7  37685833.046   196239960.5422       -726.427          26.000  
G16  21353977.554   112215878.414         232.355          41.000  
G 3  24118533.535   126743747.758        -595.414          34.000  
C 1  37803105.721   196850660.3943       -352.148          30.000  
C14  25805320.287   134375084.9702       1022.453          34.000  
G23  25324295.933   133080072.6983       3062.424          29.000  
C 8  40845147.769                        1194.899          25.000  
> 2017 12 11 12  3 55.0030000  0 18                     
G 4  21949048.477   115343026.394       -2618.560          35.000  
G14  21899771.574   115084036.430       -2043.409          36.000  
C 9  36896005.086   192127149.286        -847.081          35.000  
G31  22781107.407   119715541.044       -1036.470          38.000  
C 6  37549061.359                       -1395.851          15.000  
G32  23549792.784   123754973.015       -3303.514          36.000  
G26  21577985.611   113393100.490       -1590.549          35.000  
G27  23198316.632   121907964.7682       2964.085          33.000  
C 4  39291875.082   204603073.1912       -358.199          33.000  
C10  37967364.415                        -717.751          24.000  
G22  23893352.906   125560337.421       -1314.005          30.000  
C 7  37685971.509   196240686.4882       -726.501          26.000  
G16  21353932.563   112215645.947         231.602          42.000  
G 3  24118646.734   126744342.720        -594.582          34.000  
C 1  37803173.419   196851012.8733       -351.522          30.000  
C14  25805121.276   134374062.4572       1022.700          34.000  
G23  25323705.566   133077010.5992       3062.041          29.000  
C 8  40844913.273   212690150.4313       1194.952          27.000  
> 2017 12 11 12  3 56.0030000  0 18                     
G 4  21949547.147   115345646.816       -2621.158          39.000  
G14  21900161.447   115086081.041       -2045.802          36.000  
C 9  36896167.975   192127997.435        -848.323          34.000  
G31  22781305.568   119716577.954       -1037.573          41.000  
C 6  37549324.434                       -1385.433          19.000  
G32  23550421.751   123758277.250       -3305.662          37.000  
G26  21578288.530   113394691.325       -1591.755          42.000  
G27  23197745.879   121905001.4232       2962.082          34.000  
C 4  39291944.059   204603432.8592       -360.615          33.000  
C10  37967501.456   197706711.5333       -718.888          26.000  
G22  23893601.170   125561654.432       -1317.924          34.000  
C 7  37686110.177   196241412.2792       -720.872          24.000  
G16  21353888.205   112215415.301         230.201          42.000  
G 3  24118760.567   126744939.667        -597.672          37.000  
C 1  37803241.326   196851366.2992       -353.995          30.000  
C14  25804927.984   134373041.8612       1018.993          35.000  
G23  25323119.396   133073889.6043       3060.392          34.000  
C 8  40844680.173   212688956.7102       1193.564          25.000  
> 2017 12 11 12  3 57.0030000  0 19                     
G 4  21950045.804   115348268.465       -2621.515          39.000  
G14  21900551.207   115088127.061       -2045.646          34.000  
C 9  36896331.148   192128846.526        -849.332          35.000  
G31  22781503.732   119717615.908       -1038.009          40.000  
C 6  37549590.820                       -1401.832          20.000  
G32  23551053.134   123761582.913       -3305.527          29.000  
G26  21578591.195   113396283.443       -1592.187          39.000  
G27  23197177.787   121902039.3362       2962.783          31.000  
C 4  39292013.375   204603792.4503       -361.307          33.000  
C 3  37166428.480                1       -371.281          28.000  
C10  37967638.078   197707430.3872       -718.615          25.000  
G22  23893850.722   125562972.635       -1318.416          34.000  
C 7  37686256.192   196242193.6493       -728.742          31.000  
G16  21353844.073   112215186.106         228.997          41.000  
G 3  24118873.954   126745537.903        -598.429          37.000  
C 1  37803309.561   196851721.1283       -353.919          30.000  
C14  25804730.731   134372022.5432       1018.881          31.000  
G23  25322529.203   133070788.6123       3059.440          30.000  
C 8  40844451.946   212687764.0252       1193.191          26.000  
> 2017 12 11 12  3 58.0030000  0 19                     
G 4  21950544.440   115350890.064       -2621.681          42.000  
G14  21900940.900   115090173.346       -2045.559          37.000  
C 9  36896494.416   192129695.476        -848.622          36.000  
G31  22781701.190   119718653.550       -1037.565          37.000  
C 6  37549858.685                       -1389.409          22.000  
G32  23551680.732   123764888.511       -3305.848          34.000  
G26  21578894.235   113397875.562       -1591.825          36.000  
G27  23196610.280   121899077.0052       2962.379          29.000  
C 4  39292082.648   204604153.6203       -359.865          33.000  
C 3  37166496.230                        -367.627          28.000  
C10  37967777.274   197708149.0392       -718.630          32.000  
G22  23894098.214   125564290.884       -1318.676          33.000  
C 7  37686393.277   196242921.6092       -727.880          34.000  
G16  21353800.286   112214957.108         228.956          41.000  
G 3  24118987.607   126746136.350        -599.235          36.000  
C 1  37803377.630   196852075.5543       -352.750          32.000  
C14  25804534.905   134371003.4722       1017.676          26.000  
G23  25321957.743                        3060.179          23.000  
C 8  40844226.058   212686570.8092       1193.266          28.000  
> 2017 12 11 12  3 59.0030000  0 19                     
G 4  21951043.913   115353511.576       -2621.393          43.000  
G14  21901330.110   115092219.902       -2046.358          36.000  
C 9  36896657.955   192130544.434        -849.624          36.000  
G31  22781897.004   119719691.014       -1037.241          36.000  
C 6  37550132.863                       -1393.957          23.000  
G32  23552310.327   123768194.090       -3305.087          31.000  
G26  21579197.424   113399467.759       -1592.256          38.000  
G27  23196047.907   121896114.7642       2962.350          34.000  
C 4  39292151.904   204604514.5342       -359.501          32.000  
C 3  37166564.718                        -328.125          28.000  
C10  37967907.174   197708867.2712       -717.917          33.000  
G22  23894349.972   125565609.170       -1318.245          33.000  
C 7  37686530.605   196243649.1782       -727.270          35.000  
G16  21353757.010   112214728.379         228.785          41.000  
G 3  24119101.208   126746735.040        -598.763          37.000  
C 1  37803445.463   196852428.7342       -352.642          31.000  
C14  25804339.118   134369984.3092       1020.522          28.000  
G23  25321428.299   133065003.4642       3060.927          31.000  
C 8  40843996.190   212685377.1692       1194.082          30.000  
> 2017 12 11 12  4  0.0030000  0 19                     
G 4  21951543.426   115356133.324       -2621.591          46.000  
G14  21901719.438   115094266.798       -2047.769          35.000  
C 9  36896820.958   192131393.302        -848.990          35.000  
G31  22782093.135   119720728.250       -1038.206          34.000  
C 6  37550406.517                       -1393.979          24.000  
G32  23552930.438   123771500.055       -3306.057          29.000  
G26  21579500.548   113401060.096       -1591.485          39.000  
G27  23195484.514   121893152.5712       2962.043          35.000  
C 4  39292221.029   204604874.4533       -359.812          32.000  
C 3  37166623.752                        -291.260          27.000  
C10  37968046.640   197709585.4012       -718.140          33.000  
G22  23894595.471   125566927.756       -1318.299          33.000  
C 7  37686672.353   196244376.4432       -726.140          34.000  
G16  21353713.768   112214500.040         227.669          41.000  
G 3  24119215.027   126747334.281        -599.775          37.000  
C 1  37803513.493   196852781.7912       -353.637          31.000  
C14  25804143.483   134368965.5482       1017.880          31.000  
G23  25320837.906   133061942.8092       3060.052          35.000  
C 8  40843766.702   212684183.2372       1193.872          29.000  
> 2017 12 11 12  4  1.0030000  0 18                     
G 4  21952042.533   115358754.919       -2621.964          40.000  
G14  21902109.760   115096313.889       -2047.655          31.000  
C 9  36896984.179   192132242.474        -848.953          37.000  
G31  22782290.737   119721765.270       -1037.350          45.000  
C 6  37550675.565                       -1392.187          23.000  
G32  23553574.578   123774869.0273      -3306.494          26.000  
G26  21579803.064   113402652.650       -1592.739          42.000  
G27  23194926.565   121890190.697        2962.132          34.000  
C 4  39292290.027   204605232.9763       -359.757          32.000  
C10  37968190.308                        -693.079          21.000  
G22  23894847.653   125568246.527       -1319.492          33.000  
C 7  37686808.513   196245103.7022       -727.499          30.000  
G16  21353670.387   112214272.145         227.640          43.000  
G 3  24119329.465   126747933.811        -599.990          39.000  
C 1  37803581.466   196853134.6402       -352.258          31.000  
C14  25803948.368   134367947.3162       1018.336          35.000  
G23  25320237.710   133058882.0172       3062.025          27.000  
C 8  40843536.730   212682989.1432       1194.268          30.000  
> 2017 12 11 12  4  2.0030000  0 18                     
G 4  21952541.626   115361377.074       -2622.396          45.000  
G14  21902500.156   115098361.704       -2048.257          33.000  
C 9  36897146.967   192133091.401        -848.628          33.000  
G31  22782488.514   119722802.770       -1037.803          42.000  
C 6  37550944.019                       -1398.270          23.000  
G32  23554205.621   123778175.3812      -3307.424          27.000  
G26  21580106.096   113404245.535       -1592.889          41.000  
G27  23194364.467   121887228.505        2963.677          29.000  
C 4  39292359.278   204605593.6312       -359.513          32.000  
C10  37968326.502                        -718.666          29.000  
G22  23895099.058   125569565.612       -1318.688          33.000  
C 7  37686950.523   196245830.6382       -726.550          31.000  
G16  21353626.875   112214044.545         227.705          42.000  
G 3  24119444.292   126748533.558        -600.165          37.000  
C 1  37803649.570   196853487.4902       -352.697          31.000  
C14  25803755.984   134366929.2482       1016.950          33.000  
G23  25319657.695   133055698.6933       3060.741          28.000  
C 8  40843307.731   212681794.8462       1193.641          30.000  
> 2017 12 11 12  4  3.0030000  0 18                     
G 4  21953041.156   115363999.420       -2622.207          47.000  
G14  21902889.444   115100410.171       -2048.871          34.000  
C 9  36897310.018   192133940.634        -848.916          33.000  
G31  22782686.709   119723840.181       -1037.230          43.000  
C 6  37551214.480                       -1394.590          25.000  
G32  23554817.879   123781482.2912      -3307.066          31.000  
G26  21580409.372   113405838.794       -1592.901          37.000  
G27  23193801.942   121884266.815        2962.008          36.000  
C 4  39292427.875   204605951.3553       -358.711          32.000  
C10  37968459.927   197711702.6123       -717.246          32.000  
G22  23895347.715   125570885.063       -1319.202          31.000  
C 7  37687091.316   196246557.6422       -726.433          33.000  
G16  21353583.847   112213817.592         227.052          38.000  
G 3  24119557.780   126749133.860        -600.635          34.000  
C 1  37803717.220   196853844.4443       -353.202          30.000  
C14  25803554.503   134365911.717        1017.570          32.000  
G23  25319069.902   133052638.1982       3060.591          35.000  
C 8  40843078.169   212680600.475        1194.062          28.000  
> 2017 12 11 12  4  4.0030000  0 18                     
G 4  21953540.512   115366621.837       -2622.888          47.000  
G14  21903278.676   115102458.884       -2049.676          34.000  
C 9  36897473.265   192134789.981        -850.239          34.000  
G31  22782884.612   119724877.390       -1037.278          43.000  
C 6  37551482.729                       -1394.491          25.000  
G32  23555443.858   123784789.3402      -3306.904          33.000  
G26  21580713.211   113407432.215       -1593.377          38.000  
G27  23193240.630   121881305.194        2961.728          36.000  
C 4  39292496.794   204606309.9183       -359.960          32.000  
C10  37968601.143   197712420.3602       -717.576          32.000  
G22  23895596.804   125572204.845       -1320.614          32.000  
C 7  37687228.296   196247284.4692       -727.476          34.000  
G16  21353540.610   112213591.038         226.221          37.000  
G 3  24119671.843   126749734.599        -600.658          35.000  
C 1  37803784.573   196854194.6882       -353.466          30.000  
C14  25803362.499   134364894.550        1017.649          32.000  
G23  25318483.457   133049577.6532       3060.000          38.000  
C 8  40842846.347   212679405.878        1194.930          27.000  
> 2017 12 11 12  4  5.0030000  0 19                     
G 4  21954039.867   115369244.299       -2622.044          47.000  
G14  21903668.020   115104507.837       -2049.007          33.000  
C 9  36897636.647   192135639.228        -848.554          35.000  
G31  22783082.397   119725914.409       -1036.575          43.000  
C 6  37551749.586                       -1394.175          25.000  
G32  23556071.289   123788096.4892      -3307.093          32.000  
G26  21581016.945   113409025.694       -1592.785          37.000  
G27  23192676.228   121878343.572        2962.041          36.000  
C 4  39292565.701   204606669.2352       -359.309          31.000  
C10  37968738.332   197713137.8042       -716.108          33.000  
G22  23895847.328   125573524.690       -1319.865          31.000  
C 7  37687369.695   196248010.9822       -725.934          34.000  
G16  21353497.582   112213364.779         226.931          38.000  
G 3  24119786.295   126750335.650        -600.668          35.000  
C 1  37803852.258   196854547.2163       -353.381          29.000  
C14  25803167.453   134363877.553        1017.199          31.000  
G23  25317896.907   133046516.8742       3061.162          37.000  
C 8  40842618.260   212678211.002        1195.500          27.000  
G29  25599334.438   134525409.8403      -3059.733          32.000  
> 2017 12 11 12  4  6.0030000  0 18                     
G 4  21954538.782   115371866.171       -2622.477          47.000  
G14  21904057.741   115106556.463       -2049.430          33.000  
C 9  36897799.793   192136487.854        -848.810          35.000  
G31  22783280.069   119726950.632       -1036.550          42.000  
C 6  37552017.404                       -1394.750          25.000  
G32  23556700.422   123791403.0792      -3306.897          31.000  
G26  21581320.243   113410618.635       -1593.447          37.000  
G27  23192112.652   121875381.244        2962.073          36.000  
C 4  39292634.285   204607025.6113       -358.355          31.000  
C10  37968876.664   197713854.4112       -716.673          32.000  
G22  23896096.988   125574844.104       -1320.479          30.000  
C 7  37687507.687   196248736.5812       -725.637          35.000  
G16  21353454.711   112213138.198         226.189          38.000  
G 3  24119900.633   126750936.332        -601.291          36.000  
C 1  37803919.852   196854898.8092       -351.328          28.000  
C14  25802976.395   134362860.190        1016.891          31.000  
G23  25317312.330   133043455.3232       3060.927          37.000  
C 8  40842394.011   212677015.174        1195.504          26.000  
> 2017 12 11 12  4  7.0030000  0 18                     
G 4  21955038.063   115374489.203       -2623.730          46.000  
G14  21904447.622   115108606.505       -2050.735          34.000  
C 9  36897962.795   192137337.681        -851.041          35.000  
G31  22783477.958   119727987.782       -1037.966          42.000  
C 6  37552286.281                       -1395.656          26.000  
G32  23557325.109   123794710.8442      -3308.331          31.000  
G26  21581623.462   113412212.926       -1595.639          35.000  
G27  23191548.827   121872420.067        2959.794          39.000  
C 4  39292703.318                        -360.303          30.000  
C10  37969010.197   197714572.0242       -717.467          32.000  
G22  23896354.592   125576164.863       -1321.729          35.000  
C 7  37687645.958   196249463.1032       -727.403          35.000  
G16  21353411.513   112212913.195         224.120          39.000  
G 3  24120015.242   126751538.635        -603.333          37.000  
C 1  37803987.681   196855251.4422       -353.231          29.000  
C14  25802779.373   134361844.285        1015.131          33.000  
G23  25316728.589   133040394.7782       3060.034          38.000  
C 8  40842163.778   212675820.199        1194.104          25.000  
> 2017 12 11 12  4  8.0030000  0 17                     
G 4  21955537.615   115377113.075       -2624.099          45.000  
G14  21904837.949   115110657.765       -2051.392          35.000  
C 9  36898125.855   192138188.150        -850.475          30.000  
G31  22783675.896   119729025.592       -1038.167          42.000  
C 6  37552557.396   195545988.9553      -1395.100          26.000  
G32  23557957.383   123798019.5722      -3307.987          30.000  
G26  21581927.122   113413808.070       -1594.764          35.000  
G27  23190985.189   121869459.689        2960.107          39.000  
C 4  39292772.992   204607748.3133       -359.862          30.000  
C10  37969147.731   197715290.1862       -718.988          32.000  
G22  23896604.475   125577486.517       -1321.494          36.000  
C 7  37687789.085   196250190.1122       -727.155          34.000  
G16  21353368.616   112212689.197         223.785          40.000  
G 3  24120130.269   126752141.996        -603.552          38.000  
C 1  37804055.479   196855605.5933       -352.875          31.000  
C14  25802585.842   134360829.434        1014.730          32.000  
G23  25316144.988   133037334.8492       3059.847          37.000  
> 2017 12 11 12  4  9.0030000  0 17                     
G 4  21956037.023   115379737.113       -2624.582          46.000  
G14  21905228.275   115112709.444       -2053.064          34.000  
C 9  36898288.286   192139038.600        -850.438          32.000  
G31  22783874.379   119730063.521       -1038.866          42.000  
C 6  37552824.943                       -1395.345          26.000  
G32  23558599.115                       -3309.386          29.000  
G26  21582231.214   113415403.462       -1595.799          38.000  
G27  23190421.743   121866499.490        2960.242          37.000  
C 4  39292842.474   204608108.1642       -358.770          29.000  
C10  37969284.297   197716008.0932       -718.757          33.000  
G22  23896853.634   125578808.374       -1322.827          35.000  
C 7  37687928.612   196250916.3811       -727.233          31.000  
G16  21353326.046   112212465.593         222.927          40.000  
G 3  24120245.440   126752745.531        -603.784          38.000  
C14  25802390.500   134359814.838        1014.160          33.000  
G23  25315564.782   133034274.8382       3059.205          34.000  
C 8  40841708.628   212673462.8503       1194.309          25.000  
> 2017 12 11 12  4 10.0030000  0 17                     
G 4  21956536.570   115382361.358       -2623.837          42.000  
G14  21905618.894   115114761.543       -2052.601          37.000  
C 9  36898447.541   192139889.532        -850.696          32.000  
G31  22784072.976   119731101.239       -1037.602          41.000  
C 6  37553094.854                       -1393.846          25.000  
G32  23559251.622   123804702.6863      -3310.154          28.000  
G26  21582535.263   113416999.133       -1594.790          35.000  
G27  23189858.511   121863539.358        2960.292          40.000  
C 4  39292911.966                        -359.277          28.000  
C10  37969422.136   197716725.9612       -717.372          32.000  
G22  23897106.566   125580130.724       -1321.998          35.000  
C 7  37688068.759   196251643.254        -726.166          36.000  
G16  21353283.987   112212242.591         222.734          39.000  
G 3  24120360.206   126753349.742        -604.472          38.000  
C14  25802193.692   134358800.643        1014.189          33.000  
G23  25314981.164   133031123.5273       3057.882          34.000  
C 8  40841477.958   212672268.0052       1194.330          22.000  
> 2017 12 11 12  4 11.0030000  0 16                     
G 4  21957036.100   115384985.650       -2624.441          43.000  
G14  21906008.836   115116813.896       -2052.219          39.000  
C 9  36898613.920   192140740.141        -850.813          34.000  
G31  22784271.437   119732138.859       -1037.557          37.000  
C 6  37553364.591   195550192.0173      -1395.462          26.000  
G32  23559877.396   123808012.0912      -3309.912          28.000  
G26  21582839.503   113418594.889       -1595.731          37.000  
G27  23189295.921   121860579.130        2960.264          39.000  
C 4  39292980.846                        -360.693          27.000  
C10  37969559.447   197717443.6102       -718.376          26.000  
G22  23897356.270   125581453.060       -1322.646          36.000  
C 7  37688208.413   196252369.679        -726.291          35.000  
G16  21353241.775   112212019.756         222.761          40.000  
G 3  24120475.081   126753954.061        -604.444          39.000  
C14  25801999.244   134357786.685        1014.258          34.000  
G23  25314392.712   133028063.3562       3059.945          34.000  
> 2017 12 11 12  4 12.0030000  0 18                     
G 4  21957535.608   115387610.037       -2624.448          39.000  
G14  21906398.897   115118866.709       -2052.541          39.000  
C 9  36898777.284   192141590.813        -851.162          34.000  
G31  22784469.820   119733176.455       -1036.826          40.000  
C 6  37553634.829                       -1398.739          27.000  
G32  23560505.368   123811321.8472      -3309.886          28.000  
G26  21583143.712   113420191.011       -1595.924          31.000  
G27  23188732.776   121857619.142        2959.904          39.000  
C 4  39293049.866                        -358.496          28.000  
C10  37969696.842   197718161.1152       -717.878          26.000  
G22  23897607.479   125582775.662       -1322.965          36.000  
C 7  37688347.915   196253095.922        -726.351          36.000  
G16  21353199.462   112211797.347         222.212          40.000  
G 3  24120590.156   126754558.793        -605.129          39.000  
C 1  37804326.738                        -371.922          32.000  
C14  25801806.236   134356773.008        1013.807          37.000  
G23  25313809.028   133025003.1142       3059.222          36.000  
C 8  40841032.934                        1195.625          18.000  
> 2017 12 11 12  4 13.0030000  0 19                     
G 4  21958035.103   115390234.543       -2625.243          41.000  
G14  21906789.502   115120919.861       -2053.690          38.000  
C 9  36898941.238   192142441.463        -851.206          35.000  
G31  22784666.933   119734213.859       -1038.015          40.000  
C 6  37553902.455                       -1396.850          14.000  
G32  23561123.769   123814631.7742      -3311.833          27.000  
G26  21583447.412   113421787.190       -1596.355          35.000  
G27  23188169.352   121854659.115        2959.335          39.000  
C 4  39293109.306                        -288.770          27.000  
C10  37969833.822   197718878.4592       -717.592          27.000  
G22  23897859.726   125584098.488       -1322.868          36.000  
C 7  37688487.420   196253821.964        -727.123          36.000  
G16  21353157.612   112211575.302         221.378          40.000  
G 3  24120705.323   126755163.917        -605.422          38.000  
C 1  37804389.127   196857343.2893       -354.070          32.000  
C14  25801612.067   134355759.700        1011.752          34.000  
G23  25313231.033   133021942.8162       3059.384          37.000  
C 5  40116587.105                        -384.473          27.000  
C 8  40840791.567                        1192.146          20.000  
> 2017 12 11 12  4 14.0030000  0 19                     
G 4  21958534.668   115392859.430       -2625.323          43.000  
G14  21907180.378   115122973.602       -2053.565          37.000  
C 9  36899105.109   192143292.473        -851.067          35.000  
G31  22784864.086   119735251.549       -1037.992          40.000  
C 6  37554169.543                       -1396.306          24.000  
G32  23561749.381   123817827.7013      -3309.136          26.000  
G26  21583751.678   113423383.515       -1596.677          39.000  
G27  23187605.858   121851699.520        2959.429          39.000  
C 4  39293174.421                        -378.467          27.000  
C10  37969972.638   197719595.7182       -717.029          27.000  
G22  23898110.791   125585421.761       -1323.434          36.000  
C 7  37688627.341   196254548.035        -726.274          36.000  
G16  21353115.152   112211353.886         221.153          40.000  
G 3  24120820.464   126755769.576        -605.853          38.000  
C 1  37804463.579   196857695.8532       -353.015          31.000  
C14  25801417.122   134354746.958        1011.563          32.000  
G23  25312652.048   133018882.6812       3058.443          33.000  
C 5  40116664.252                        -386.719          27.000  
C 8  40840562.620                        1200.072          20.000  
> 2017 12 11 12  4 15.0030000  0 19                     
G 4  21959034.534   115395484.522       -2625.369          43.000  
G14  21907571.037   115125028.026       -2054.595          36.000  
C 9  36899269.263   192144143.669        -851.218          35.000  
G31  22785061.003   119736289.165       -1036.480          40.000  
C 6  37554435.642   195555769.9452      -1396.207          25.000  
G32  23562383.862   123821138.2162      -3310.251          31.000  
G26  21584055.329   113424980.493       -1597.072          36.000  
G27  23187042.168   121848740.024        2959.608          36.000  
C 4  39293243.607   204610198.5113       -357.137          29.000  
C10  37970111.489                        -714.312          25.000  
G22  23898362.637   125586745.434       -1323.148          36.000  
C 7  37688766.912   196255274.063        -725.233          36.000  
G16  21353073.053   112211133.076         220.173          39.000  
G 3  24120935.540   126756375.811        -606.433          40.000  
C 1  37804529.305   196858072.9903       -354.386          31.000  
C14  25801222.120   134353734.630        1011.880          33.000  
G23  25312063.300                        3058.728          28.000  
C 5  40116740.977                        -366.553          27.000  
C 8  40840339.096                        1189.157          21.000  
> 2017 12 11 12  4 16.0030000  0 18                     
G 4  21959534.199   115398109.302       -2623.571          36.000  
G14  21907961.869   115127082.094       -2054.800          40.000  
C 9  36899432.701   192144994.303        -850.918          37.000  
G31  22785257.920   119737326.276       -1036.730          39.000  
C 6  37554707.224   195557165.0942      -1396.284          25.000  
G32  23563018.103   123824448.3382      -3311.914          34.000  
G26  21584355.953   113426555.4423      -1597.135          38.000  
G27  23186478.522   121845780.007        2959.048          38.000  
C 4  39293312.989   204610560.1723       -360.130          30.000  
C10  37970248.823                        -717.285          25.000  
G22  23898614.531   125588068.877       -1324.068          37.000  
C 7  37688905.885   196255999.353        -725.388          35.000  
G16  21353031.936   112210912.101         220.576          39.000  
G 3  24121051.497   126756981.899        -606.434          38.000  
C 1  37804595.537   196858417.4882       -352.742          34.000  
C14  25801031.974   134352721.989        1012.687          34.000  
G23  25311482.482   133012738.0283       3060.305          36.000  
C 5  40116814.233                        -387.256          27.000  
> 2017 12 11 12  4 17.0030000  0 19                     
G 4  21960034.021   115400734.330       -2624.653          41.000  
G14  21908352.693   115129136.949       -2055.335          38.000  
C 9  36899595.529   192145845.192        -850.718          36.000  
G31  22785455.042   119738363.543       -1037.726          38.000  
C 6  37554976.716   195558560.9542      -1396.250          26.000  
G32  23563652.375   123827759.3842      -3309.837          29.000  
G26  21584670.925                       -1597.586          21.000  
G27  23185915.229   121842820.530        2959.861          39.000  
C 4  39293382.471   204610921.8282       -365.221          29.000  
C10  37970387.700                        -715.918          25.000  
G22  23898866.861   125589392.691       -1323.700          36.000  
C 7  37689045.430   196256724.765        -725.378          35.000  
G16  21352990.352   112210691.606         220.750          39.000  
G 3  24121166.986   126757588.508        -606.630          39.000  
C 1  37804661.595   196858769.5342       -351.541          31.000  
C14  25800835.633   134351710.134        1012.542          33.000  
G23  25310896.203   133009677.4262       3061.042          35.000  
C 5  40116885.875                        -371.484          27.000  
C 8  40839873.380                        1197.130          27.000  
> 2017 12 11 12  4 18.0030000  0 19                     
G 4  21960533.372   115403359.668       -2625.663          44.000  
G14  21908743.377   115131192.231       -2055.549          36.000  
C 9  36899758.593   192146695.960        -851.431          32.000  
G31  22785652.238   119739400.752       -1037.332          44.000  
C 6  37555241.030                       -1396.863          24.000  
G32  23564282.908   123831071.0792      -3311.145          30.000  
G26  21584967.661   113429770.0822      -1598.486          32.000  
G27  23185351.151   121839861.271        2959.253          38.000  
C 4  39293451.147                        -366.406          28.000  
C10  37970520.597   197722433.4193       -716.849          32.000  
G22  23899118.768   125590716.763       -1324.009          33.000  
C 7  37689185.290   196257449.848        -725.373          31.000  
G16  21352948.293   112210471.616         219.817          37.000  
G 3  24121281.591   126758195.580        -608.193          36.000  
C 1  37804728.098   196859121.5112       -351.197          30.000  
C14  25800640.448   134350698.636        1011.285          33.000  
G23  25310316.629   133006616.9342       3060.285          36.000  
C 5  40116957.839                        -345.361          27.000  
C 8  40839643.971                        1198.448          24.000  
> 2017 12 11 12  4 19.0030000  0 17                     
G 4  21961032.086   115405985.592       -2626.353          39.000  
C 9  36899922.176   192147547.880        -851.929          35.000  
G31  22785850.429   119740438.176       -1036.875          39.000  
C 6  37555511.190                       -1396.636          23.000  
G32  23564894.468   123834382.8642      -3312.071          37.000  
G26  21585267.037   113431368.0282      -1600.061          34.000  
G27  23184788.909   121836902.863        2957.933          36.000  
C 4  39293520.760   204611641.7852       -358.764          33.000  
C10  37970660.277   197723150.9532       -718.599          32.000  
G22  23899371.063   125592042.331       -1327.001          33.000  
C 7  37689316.227   196258175.518        -726.259          31.000  
G16  21352906.403   112210252.862         217.695          37.000  
G 3  24121397.744   126758804.105        -610.893          35.000  
C 1  37804796.053                        -347.314          30.000  
C14  25800444.984                         998.828          30.000  
G23  25309734.978   133003557.4542       3059.059          36.000  
C 8  40839413.205                        1196.093          23.000  
> 2017 12 11 12  4 20.0030000  0 18                     
G 4  21961530.975   115408611.932       -2626.762          44.000  
G14  21909522.124   115135314.8941      -2057.011          35.000  
C 9  36900085.737   192148399.871        -852.200          35.000  
G31  22786047.176   119741475.671       -1037.906          39.000  
C 6  37555778.087                       -1393.905          20.000  
G32  23565526.681   123837695.2642      -3312.368          36.000  
G26  21585566.841   113432966.6252      -1599.219          41.000  
G27  23184224.931   121833944.364        2958.125          28.000  
C 4  39293584.488                        -299.121          27.000  
C10  37970803.744   197723868.4182       -718.233          33.000  
G22  23899624.070   125593368.081       -1325.923          37.000  
C 7  37689455.052   196258901.246        -725.800          34.000  
G16  21352865.086   112210034.797         218.206          37.000  
G 3  24121514.582   126759413.196        -608.674          37.000  
C 1  37804863.935   196859815.6533       -353.104          32.000  
C14  25800241.170                        1010.860          25.000  
G23  25309150.911   133000498.0552       3059.626          36.000  
C 8  40839180.659                        1196.593          24.000  
> 2017 12 11 12  4 21.0030000  0 18                     
G 4  21962030.200   115411238.521       -2626.621          44.000  
G14  21909911.416   115137372.326       -2057.780          35.000  
C 9  36900249.328   192149251.941        -851.685          36.000  
G31  22786243.923   119742513.658       -1037.924          40.000  
C 6  37556043.383                       -1395.413          19.000  
G32  23566157.567   123841008.0202      -3312.994          33.000  
G26  21585872.848   113434565.3952      -1598.999          41.000  
G27  23183660.081   121830986.107        2958.118          34.000  
C 4  39293641.790                        -309.326          27.000  
C10  37970938.394   197724585.4862       -716.149          34.000  
G22  23899876.914   125594693.798       -1326.131          36.000  
C 7  37689593.777   196259626.738        -724.888          33.000  
G16  21352823.585   112209816.953         217.370          36.000  
G 3  24121631.708   126760022.276        -609.985          39.000  
C 1  37804931.895   196860168.2332       -352.321          32.000  
C14  25800050.360   134347601.2293       1010.862          31.000  
G23  25308571.917   132997438.1342       3061.089          36.000  
C 8  40838948.100   212659087.9883       1196.642          27.000  
> 2017 12 11 12  4 22.0030000  0 18                     
G 4  21962529.415   115413865.179       -2626.689          43.000  
G14  21910303.911   115139430.006       -2057.704          35.000  
C 9  36900413.094   192150104.087        -852.126          36.000  
G31  22786440.831   119743551.458       -1037.688          42.000  
C 6  37556310.005                       -1401.276          20.000  
G32  23566791.796   123844320.8752      -3313.102          34.000  
G26  21586179.252   113436164.3602      -1599.066          42.000  
G27  23183096.199   121828027.811        2958.091          34.000  
C 4  39293708.965                        -348.877          27.000  
C10  37971074.436   197725302.4572       -716.754          34.000  
G22  23900129.332   125596019.758       -1326.373          35.000  
C 7  37689738.632   196260352.149        -725.493          33.000  
G16  21352782.097   112209599.486         217.648          36.000  
G 3  24121748.655   126760631.718        -609.586          41.000  
C 1  37804999.623   196860522.1223       -352.131          32.000  
C14  25799859.463   134346591.9072       1009.725          32.000  
G23  25307987.679   132994378.2742       3060.326          37.000  
C 8  40838714.677   212657891.2922       1196.677          29.000  
> 2017 12 11 12  4 23.0030000  0 18                     
G 4  21963029.098   115416492.092       -2626.867          43.000  
G14  21910698.434   115141488.225       -2058.752          35.000  
C 9  36900577.170   192150956.363        -852.484          36.000  
G31  22786637.687   119744589.294       -1038.134          41.000  
C 6  37556574.707                       -1390.039          20.000  
G32  23567421.002   123847634.1002      -3312.752          33.000  
G26  21586481.315   113437763.6532      -1599.304          42.000  
G27  23182530.899   121825069.807        2957.829          32.000  
C 4  39293778.674                        -375.000          27.000  
C10  37971212.000   197726019.3862       -716.448          33.000  
G22  23900381.911   125597346.089       -1326.407          35.000  
C 7  37689877.348   196261077.369        -724.426          32.000  
G16  21352741.154   112209382.576         216.798          36.000  
G 3  24121865.972   126761241.670        -609.964          39.000  
C 1  37805067.631   196860874.4252       -352.413          32.000  
C14  25799667.053   134345582.8962       1009.296          32.000  
G23  25307405.108   132991318.4082       3060.205          37.000  
C 8  40838484.888   212656694.4952       1196.203          29.000  
> 2017 12 11 12  4 24.0030000  0 19                     
G 4  21963528.724   115419119.237       -2627.019          42.000  
G14  21911091.596   115143546.876       -2058.939          35.000  
C 9  36900740.726   192151808.795        -852.843          35.000  
G31  22786834.564   119745627.147       -1037.636          35.000  
C 6  37556841.255                       -1396.287          20.000  
G32  23568049.616   123850947.4802      -3313.410          34.000  
G26  21586783.727   113439363.3212      -1600.006          39.000  
G27  23181970.603   121822111.887        2958.007          33.000  
C 4  39293846.891                        -343.018          27.000  
C10  37971350.054   197726736.3102       -716.957          34.000  
G22  23900634.459   125598672.801       -1326.934          36.000  
C 7  37690007.592   196261802.584        -724.507          32.000  
G16  21352699.985   112209166.221         215.981          35.000  
G 3  24121982.898   126761852.167        -610.582          38.000  
C 1  37805135.338   196861226.7212       -351.829          32.000  
C14  25799476.043   134344574.3512       1008.615          32.000  
G23  25306822.454   132988258.5622       3059.882          37.000  
C 8  40838248.019   212655497.3632       1197.623          27.000  
C 3  37168282.504                        -371.387          28.000  
> 2017 12 11 12  4 25.0030000  0 19                     
G 4  21964028.123   115421746.615       -2627.499          43.000  
G14  21911485.770   115145606.074       -2059.704          36.000  
C 9  36900904.400   192152661.343        -852.078          34.000  
G31  22787029.941   119746665.238       -1038.290          29.000  
C 6  37557108.387                       -1396.287          18.000  
G32  23568680.385   123854260.7821      -3314.294          34.000  
G26  21587091.192   113440962.6961      -1599.884          41.000  
G27  23181416.013   121819154.178        2958.113          34.000  
C 4  39293920.291                        -417.822          27.000  
C10  37971487.334   197727453.1632       -717.165          33.000  
G22  23900887.064   125599999.817       -1326.862          35.000  
C 7  37690147.756   196262527.733        -725.264          30.000  
G16  21352658.471   112208950.287         215.531          36.000  
G 3  24122099.661   126762463.085        -611.102          38.000  
C 1  37805203.115   196861578.9742       -352.102          31.000  
C14  25799283.707   134343566.2852       1007.059          27.000  
G23  25306239.508   132985198.2731       3059.396          37.000  
C 8  40838019.966                        1194.636          24.000  
C 3  37168367.862                        -443.994          27.000  
> 2017 12 11 12  4 26.0030000  0 18                     
G 4  21964528.730   115424374.409       -2627.491          39.000  
G14  21911877.842   115147665.847       -2059.728          35.000  
C 9  36901068.415   192153514.279        -852.677          34.000  
G31  22787227.831   119747703.417       -1037.934          34.000  
C 6  37557374.922                       -1399.486          19.000  
G32  23569310.198   123857574.875       -3313.802          33.000  
G26  21587393.848   113442563.153       -1600.036          36.000  
G27  23180850.438   121816196.768        2957.104          37.000  
C 4  39293997.731                        -397.607          27.000  
C10  37971625.130   197728170.0552       -715.599          34.000  
G22  23901139.691   125601327.348       -1327.484          34.000  
C 7  37690284.173                        -733.176          21.000  
G16  21352617.554   112208734.994         215.997          37.000  
G 3  24122215.470   126763074.664        -611.545          34.000  
C 1  37805270.062                        -345.557          29.000  
C14  25799092.570   134342558.5592       1007.543          28.000  
G23  25305656.941   132982138.567        3059.384          37.000  
C 8  40837792.856                        1196.766          21.000  
> 2017 12 11 12  4 27.0030000  0 18                     
G 4  21965029.805   115427001.281       -2626.361          38.000  
G14  21912268.496   115149725.071       -2058.460          35.000  
C 9  36901232.124   192154366.163        -851.864          34.000  
G31  22787427.937   119748740.377       -1036.437          34.000  
C 6  37557642.870                       -1393.633          20.000  
G32  23569941.089   123860888.340       -3312.751          34.000  
G26  21587699.218   113444162.762       -1598.999          35.000  
G27  23180286.709   121813238.473        2958.719          37.000  
C 4  39294063.767                        -348.779          28.000  
C10  37971762.843   197728885.3541       -715.584          33.000  
G22  23901391.681   125602654.035       -1325.926          34.000  
C 7  37690432.361                        -713.613          20.000  
G16  21352577.349   112208519.069         216.285          38.000  
G 3  24122331.213   126763685.508        -610.781          34.000  
C 1  37805337.826                        -346.875          29.000  
C14  25798902.873   134341550.3572       1008.266          30.000  
G23  25305074.361   132979077.771        3061.473          39.000  
C 8  40837555.917                        1196.766          17.000  
> 2017 12 11 12  4 28.0030000  0 18                     
G 4  21965531.228   115429627.998       -2627.743          36.000  
G14  21912659.974   115151784.428       -2060.915          32.000  
C 9  36901395.855   192155217.858        -852.723          35.000  
G31  22787623.170   119749777.027       -1038.139          35.000  
C 6  37557908.506                       -1387.808          22.000  
G32  23570571.556   123864201.747       -3314.817          33.000  
G26  21588005.422   113445762.341       -1600.323          36.000  
G27  23179722.792   121810279.978        2957.186          36.000  
C 4  39294133.250                        -362.939          28.000  
C10  37971900.063   197729600.742        -716.469          33.000  
G22  23901644.390   125603980.765       -1327.832          34.000  
C 7  37690581.460                        -719.224          20.000  
G16  21352536.603   112208303.249         214.896          39.000  
G 3  24122446.327   126764296.534        -611.424          31.000  
C 1  37805407.779                        -415.869          27.000  
C14  25798710.157   134340542.1702       1006.867          30.000  
G23  25304491.890   132976016.677        3060.427          39.000  
C 8  40837326.132                        1191.760          17.000  
> 2017 12 11 12  4 29.0030000  0 16                     
G 4  21966032.712   115432256.392       -2629.278          29.000  
C 9  36901559.678   192156070.975        -854.010          36.000  
G31  22787818.726   119750815.073       -1039.119          31.000  
C 6  37558176.899                       -1403.090          23.000  
G32  23571202.334   123867516.809       -3316.163          32.000  
G26  21588311.324   113447363.476       -1602.472          37.000  
G27  23179159.377   121807323.005        2955.473          35.000  
C 4  39294202.509   204615191.9343       -360.608          28.000  
C10  37972037.758   197730317.383        -717.913          32.000  
G22  23901897.314   125605309.164       -1329.667          36.000  
C 7  37690729.904                        -724.510          23.000  
G16  21352495.909   112208089.247         212.615          39.000  
G 3  24122555.535   126764909.494        -614.116          32.000  
C14  25798514.095   134339535.7012       1005.449          33.000  
G23  25303909.323   132972956.923        3058.839          38.000  
C 8  40837100.309                        1198.760          17.000  
> 2017 12 11 12  4 30.0030000  0 16                     
G 4  21966527.967   115434885.552       -2629.460          27.000  
C 9  36901723.457   192156924.865        -853.774          38.000  
G31  22788014.395   119751853.750       -1039.236          32.000  
C 6  37558444.162                       -1393.315          22.000  
G32  23571833.421   123870832.869       -3316.637          33.000  
G26  21588617.087   113448965.485       -1602.179          35.000  
G27  23178596.307   121804366.826        2957.034          33.000  
C 4  39294272.057   204615551.3672       -358.250          29.000  
C10  37972175.549   197731034.518        -716.792          33.000  
G22  23902149.941   125606638.477       -1330.097          33.000  
C 7  37690873.101                        -726.340          25.000  
G16  21352455.455   112207876.370         212.559          39.000  
G 3  24122660.869   126765523.290        -614.115          26.000  
C14  25798316.424   134338530.2922       1004.750          33.000  
G23  25303327.049   132969897.850        3059.034          38.000  
C 8  40836869.290                        1198.760          15.000  
> 2017 12 11 12  4 31.0030000  0 16                     
G 4  21967029.831   115437514.707       -2629.989          27.000  
C 9  36901887.288   192157778.805        -853.968          38.000  
G31  22788213.642   119752892.299       -1038.979          33.000  
C 6  37558712.917                       -1399.722          21.000  
G32  23572464.342   123874149.191       -3316.969          34.000  
G26  21588923.264   113450567.610       -1601.837          35.000  
G27  23178034.458   121801410.862        2955.022          34.000  
C 4  39294341.732   204615910.7882       -359.791          30.000  
C10  37972313.397   197731751.487        -716.975          34.000  
G22  23902402.607   125607967.896       -1329.547          33.000  
C 7  37691017.440   196266987.3053       -725.458          27.000  
G16  21352414.839   112207663.881         212.105          39.000  
G 3  24122778.920   126766137.485        -614.824          28.000  
C14  25798129.135   134337525.2472       1004.333          33.000  
G23  25302745.019   132966838.747        3059.520          37.000  
C 8  40836638.149                        1190.462          15.000  
> 2017 12 11 12  4 32.0030000  0 16                     
G 4  21967535.185   115440143.869       -2629.800          27.000  
C 9  36902051.312   192158632.758        -853.354          37.000  
G31  22788411.654   119753930.714       -1038.049          37.000  
C 6  37558984.988                       -1395.564          19.000  
G32  23573095.901   123877465.731       -3316.576          37.000  
G26  21589228.350   113452169.861       -1602.222          33.000  
G27  23177472.024   121798454.932        2955.834          37.000  
C 4  39294411.297                        -375.439          29.000  
C10  37972451.092   197732468.310        -716.395          34.000  
G22  23902655.347   125609297.614       -1329.805          34.000  
C 7  37691163.189                        -724.432          26.000  
G16  21352374.403   112207451.786         211.772          39.000  
G 3  24122910.521   126766752.058        -614.628          36.000  
C14  25797937.121   134336596.5813       1004.084          32.000  
G23  25302163.058   132963779.631        3059.103          37.000  
C 8  40836406.257                        1201.285          20.000  
> 2017 12 11 12  4 33.0030000  0 17                     
G 4  21968048.452   115442773.345       -2629.206          28.000  
G14  21914620.650   115162107.9271      -2063.224          33.000  
C 9  36902215.409   192159486.662        -853.306          37.000  
G31  22788610.739   119754968.993       -1037.905          39.000  
C 6  37559259.794                       -1394.986          19.000  
G32  23573727.236   123880782.262       -3316.392          38.000  
G26  21589532.717   113453772.340       -1602.411          33.000  
G27  23176909.822   121795498.868        2956.319          37.000  
C 4  39294480.042                        -322.314          28.000  
C10  37972588.993   197733184.939        -716.804          34.000  
G22  23902908.663   125610627.419       -1329.747          34.000  
C 7  37691303.864   196268477.8883       -725.060          27.000  
G16  21352334.067   112207239.973         211.791          39.000  
G 3  24123033.388   126767366.836        -614.288          34.000  
C14  25797747.054   134335591.9072       1004.974          31.000  
G23  25301580.941   132960720.258        3059.078          37.000  
C 8  40836173.380                        1194.735          21.000  
> 2017 12 11 12  4 34.0030000  0 18                     
G 4  21968532.844   115445402.667       -2629.060          34.000  
G14  21915011.329   115164171.675       -2064.018          33.000  
C 9  36902379.790   192160340.649        -854.172          37.000  
G31  22788808.664   119756007.171       -1038.127          37.000  
C 6  37559530.756                       -1394.328          21.000  
G32  23574358.690   123884099.121       -3317.246          38.000  
G26  21589836.809   113455375.007       -1602.460          36.000  
G27  23176347.698   121792543.018        2955.682          37.000  
C 4  39294549.463                        -433.057          28.000  
C10  37972726.845   197733901.417        -717.647          34.000  
G22  23903161.957   125611957.526       -1329.858          35.000  
C 7  37691448.648   196269202.3012       -724.553          26.000  
G16  21352293.770   112207028.616         210.676          39.000  
G 3  24123149.767   126767982.154        -615.952          34.000  
C14  25797545.783   134334587.7682       1003.674          31.000  
G23  25300998.954   132957660.834        3059.192          37.000  
C 8  40835942.134                        1200.430          23.000  
G 8  26065183.649                        3236.597          23.000  
> 2017 12 11 12  4 35.0030000  0 17                     
G 4  21969026.720   115448032.490       -2629.811          39.000  
G14  21915407.960   115166236.048       -2064.946          36.000  
C 9  36902543.831   192161194.854        -853.775          37.000  
G31  22789010.471   119757045.347       -1038.354          31.000  
C 6  37559800.650                       -1393.591          21.000  
G32  23574990.034   123887416.414       -3317.092          38.000  
G26  21590140.434   113456978.098       -1602.942          40.000  
G27  23175785.382   121789587.450        2955.618          37.000  
C 4  39294628.945                        -355.957          27.000  
C10  37972864.763   197734617.902        -716.228          33.000  
G22  23903415.400   125613288.149       -1330.314          36.000  
C 7  37691585.231                        -719.633          23.000  
G16  21352253.573   112206817.778         210.599          37.000  
G 3  24123271.094   126768598.015        -615.556          35.000  
C14  25797350.419   134333584.1632       1003.902          33.000  
G23  25300416.819   132954601.580        3059.696          37.000  
C 8  40835712.908                        1206.028          23.000  
> 2017 12 11 12  4 36.0030000  0 17                     
G 4  21969521.395   115450662.103       -2629.225          40.000  
G14  21915798.836   115168300.447       -2064.847          35.000  
C 9  36902708.304   192162048.810        -853.829          36.000  
G31  22789209.461   119758083.311       -1038.052          37.000  
C 6  37560068.965                       -1397.488          22.000  
G32  23575621.300   123890733.549       -3316.899          36.000  
G26  21590444.774   113458581.101       -1602.985          39.000  
G27  23175223.136   121786631.600        2955.717          35.000  
C 4  39294695.762                        -385.107          28.000  
C10  37973002.292   197735333.963        -715.639          33.000  
G22  23903668.825   125614618.685       -1330.510          36.000  
C 7  37691701.964                        -722.921          24.000  
G16  21352213.124   112206607.008         210.909          35.000  
G 3  24123387.278   126769214.004        -616.281          35.000  
C14  25797157.088   134332580.5052       1004.384          32.000  
G23  25299834.562   132951541.918        3059.675          38.000  
C 8  40835486.583                        1209.088          24.000  
> 2017 12 11 12  4 37.0030000  0 18                     
G 4  21970023.848   115453291.787       -2629.592          38.000  
G14  21916191.510   115170365.153       -2064.508          34.000  
C 9  36902872.340   192162902.736        -853.838          35.000  
G31  22789409.628   119759121.142       -1037.330          37.000  
C 6  37560336.394                       -1397.968          22.000  
G32  23576252.619   123894050.863       -3317.070          37.000  
G26  21590749.377   113460184.229       -1603.009          37.000  
G27  23174660.768   121783675.785        2955.854          34.000  
C 4  39294764.633                        -323.096          27.000  
C10  37973139.918   197736049.822        -716.080          32.000  
G22  23903922.176   125615949.353       -1330.710          36.000  
C 7  37691828.435   196271209.9493       -723.935          27.000  
G16  21352172.382   112206396.618         209.884          35.000  
G 3  24123505.237   126769830.213        -616.668          35.000  
C14  25796961.362   134331577.0192       1003.724          30.000  
G23  25299251.991   132948482.056        3059.850          38.000  
G29  25617989.711                       -3071.765          25.000  
C 8  40835254.661                        1195.511          24.000  
> 2017 12 11 12  4 38.0030000  0 18                     
G 4  21970525.131   115455920.895       -2628.740          36.000  
G14  21916583.686   115172429.617       -2064.861          33.000  
C 9  36903036.376   192163755.998        -852.922          35.000  
G31  22789601.157   119760158.196       -1036.652          37.000  
C 6  37560608.722                       -1398.672          21.000  
G32  23576883.732   123897367.647       -3316.973          36.000  
G26  21591053.669   113461786.841       -1601.990          34.000  
G27  23174098.338   121780719.325        2957.362          34.000  
C 4  39294833.797                        -352.051          29.000  
C10  37973274.887   197736764.765        -714.256          32.000  
G22  23904175.413   125617279.511       -1329.434          35.000  
C 7  37691957.719   196271932.6802       -721.706          29.000  
G16  21352131.675   112206185.856         211.516          34.000  
G 3  24123622.834   126770446.063        -615.185          35.000  
C14  25796765.631   134330573.2112       1004.438          25.000  
G23  25298669.616   132945421.461        3061.138          37.000  
G29  25618564.735                       -3071.765          24.000  
C 8  40835023.249                        1199.551          25.000  
> 2017 12 11 12  4 39.0030000  0 17                     
G 4  21971027.048   115458549.761       -2630.158          36.000  
G14  21916976.700   115174494.152       -2065.121          32.000  
C 9  36903200.352   192164608.926        -854.026          36.000  
G31  22789796.879   119761194.865       -1037.402          42.000  
C 6  37560874.929                       -1399.385          19.000  
G32  23577515.116   123900684.389       -3317.506          36.000  
G26  21591358.852   113463389.262       -1604.126          34.000  
G27  23173536.027   121777762.797        2955.585          32.000  
C 4  39294901.875                        -363.916          29.000  
C10  37973409.925   197737479.239        -715.257          31.000  
G22  23904428.908   125618609.656       -1331.349          36.000  
C 7  37692100.632   196272655.0642       -723.229          34.000  
G16  21352091.596   112205975.085         209.794          34.000  
G 3  24123738.494   126771061.889        -616.727          35.000  
C14  25796575.738                        1010.990          24.000  
G23  25298087.115   132942360.421        3060.018          37.000  
C 8  40834795.441                        1199.768          26.000  
> 2017 12 11 12  4 40.0030000  0 18                     
G 4  21971529.915   115461180.179       -2631.017          40.000  
G14  21917370.136   115176560.484       -2067.095          32.000  
C 9  36903364.515   192165463.363        -855.136          36.000  
G31  22789994.799   119762232.878       -1038.584          43.000  
C 6  37561138.366                       -1393.113          19.000  
G32  23578146.809   123904002.673       -3319.114          38.000  
G26  21591665.238   113464993.262       -1604.913          34.000  
C 4  39294970.851                        -358.962          29.000  
C 1  37806217.618                        -338.281          28.000  
C10  37973542.167   197738194.896        -716.508          29.000  
G22  23904682.853   125619941.337       -1332.514          35.000  
C 7  37692234.309   196273378.5392       -723.792          34.000  
G16  21352051.962   112205766.193         208.582          34.000  
G 3  24123855.341   126771679.537        -618.127          35.000  
C14  25796390.905                        1007.306          24.000  
G23  25297505.080   132939300.634        3059.288          38.000  
G29  25619752.824   134632709.5223      -3073.014          34.000  
C 8  40834569.168   212636286.0983       1198.863          28.000  
> 2017 12 11 12  4 41.0030000  0 19                     
G 4  21972030.771   115463811.384       -2631.946          41.000  
G14  21917763.438   115178627.827       -2069.155          32.000  
C 9  36903528.643   192166318.511        -855.858          36.000  
G31  22790189.971   119763271.451       -1039.062          43.000  
C 6  37561402.829                       -1393.103          20.000  
G32  23578778.752   123907321.821       -3319.963          38.000  
G26  21591971.996   113466598.171       -1606.226          31.000  
G27  23172411.099   121771842.0701       2953.856          33.000  
C 4  39295039.906   204619552.5853       -359.079          29.000  
C 1  37806282.720                        -368.896          29.000  
C10  37973680.875   197738911.059        -716.096          29.000  
G22  23904936.718   125621273.991       -1333.586          35.000  
C 7  37692376.930   196274102.4842       -724.320          33.000  
G16  21352012.258   112205558.381         207.183          33.000  
G 3  24123972.345   126772298.232        -619.096          35.000  
C14  25796198.591                        1006.522          22.000  
G23  25296922.959   132936241.560        3057.990          38.000  
G29  25620350.621   134635783.0982      -3073.031          32.000  
C 8  40834343.345   212635087.2072       1198.574          28.000  
> 2017 12 11 12  4 42.0030000  0 19                     
G 4  21972531.684   115466443.046       -2631.569          39.000  
G14  21918157.041   115180695.822       -2067.512          32.000  
C 9  36903692.941   192167174.017        -855.265          36.000  
G31  22790388.266   119764310.215       -1038.531          43.000  
C 6  37561668.286                       -1404.670          22.000  
G32  23579410.589   123910641.479       -3319.385          38.000  
G26  21592277.671   113468203.697       -1605.249          33.000  
G27  23171852.360   121768887.967        2953.486          34.000  
C 4  39295108.983   204619912.5092       -358.547          29.000  
C 1  37806349.502                        -362.305          29.000  
C10  37973821.087   197739627.561        -716.641          28.000  
G22  23905190.951   125622607.153       -1333.437          35.000  
C 7  37692514.494   196274826.5322       -723.697          32.000  
G16  21351974.265   112205351.361         207.270          32.000  
G 3  24124090.448   126772917.712        -620.002          35.000  
C14  25796007.947                        1005.014          21.000  
G23  25296340.941   132933182.708        3059.225          38.000  
G29  25620932.298   134638857.3822      -3073.733          32.000  
C 8  40834114.769   212633888.3832       1199.340          29.000  
> 2017 12 11 12  4 43.0030000  0 19                     
G 4  21973032.514   115469074.927       -2632.034          41.000  
G14  21918550.652   115182764.367       -2068.538          32.000  
C 9  36903857.601   192168029.653        -855.598          36.000  
G31  22790585.990   119765349.024       -1038.839          43.000  
C 6  37561934.759                       -1400.644          22.000  
G32  23580042.562   123913961.485       -3320.144          38.000  
G26  21592583.268   113469809.497       -1606.018          36.000  
G27  23171288.387   121765934.049        2954.725          35.000  
C 4  39295177.937   204620271.4482       -358.114          28.000  
C 1  37806419.015                        -366.553          29.000  
C10  37973955.676   197740343.871        -716.588          29.000  
G22  23905444.847   125623940.677       -1334.259          35.000  
C 7  37692654.838   196275550.5102       -724.038          32.000  
G16  21351932.485   112205144.802         206.446          32.000  
G 3  24124208.053   126773537.568        -619.709          36.000  
C14  25795819.707                         997.795          19.000  
G23  25295758.628   132930123.916        3058.710          38.000  
G29  25621518.154   134641931.9962      -3074.407          31.000  
C 8  40833885.534   212632689.4992       1199.398          28.000  
> 2017 12 11 12  4 44.0030000  0 19                     
G 4  21973533.566   115471706.929       -2632.217          41.000  
G14  21918944.273   115184833.344       -2070.032          32.000  
C 9  36904021.864   192168885.363        -856.311          36.000  
G31  22790783.954   119766387.753       -1038.901          43.000  
C 6  37562201.189                       -1400.453          23.000  
G32  23580674.600   123917281.724       -3320.815          38.000  
G26  21592889.118   113471415.480       -1606.189          36.000  
G27  23170726.394   121762980.267        2953.080          34.000  
C 4  39295246.783   204620630.0802       -354.470          28.000  
C 1  37806486.382                        -352.539          28.000  
C10  37974090.968   197741060.028        -715.852          29.000  
G22  23905699.036   125625274.411       -1334.191          36.000  
C 7  37692793.899   196276274.3092       -724.503          32.000  
G16  21351893.200   112204938.630         206.061          33.000  
G 3  24124325.742   126774157.835        -620.502          35.000  
C14  25795629.941                         997.795          17.000  
G23  25295176.471   132927065.018        3058.745          39.000  
G29  25622104.782   134645006.8112      -3075.513          31.000  
C 8  40833655.479   212631490.4132       1198.503          28.000  
> 2017 12 11 12  4 45.0030000  0 19                     
G 4  21974034.968   115474339.279       -2632.591          41.000  
G14  21919338.054   115186902.855       -2069.379          32.000  
C 9  36904186.424   192169741.279        -856.389          36.000  
G31  22790981.932   119767426.620       -1038.950          43.000  
C 6  37562472.401                       -1396.219          24.000  
G32  23581306.647   123920602.369       -3320.406          37.000  
G26  21593195.439   113473021.818       -1606.506          36.000  
G27  23170163.650   121760026.751        2953.239          34.000  
C 4  39295316.366                        -363.818          28.000  
C 1  37806555.781                        -358.398          28.000  
C10  37974229.719   197741776.290        -715.931          29.000  
G22  23905953.373   125626608.617       -1334.521          35.000  
C 7  37692933.487   196276997.6291       -724.065          33.000  
G16  21351855.878   112204733.026         204.692          34.000  
G 3  24124443.535   126774778.643        -621.277          35.000  
C14  25795438.015                        1004.452          19.000  
G23  25294594.367   132924006.297        3058.308          39.000  
G29  25622683.501   134648082.1092      -3075.559          30.000  
C 8  40833425.817   212630291.2832       1199.170          27.000  
> 2017 12 11 12  4 46.0030000  0 19                     
G 4  21974535.558   115476971.720       -2632.377          40.000  
G14  21919731.173   115188972.675       -2069.813          30.000  
C 9  36904350.832   192170597.219        -856.715          36.000  
G31  22791180.022   119768465.345       -1038.687          44.000  
C 6  37562743.132                       -1399.852          25.000  
G32  23581938.580   123923923.157       -3320.909          37.000  
G26  21593501.647   113474628.349       -1607.550          32.000  
G27  23169601.526   121757073.275        2952.808          34.000  
C 4  39295383.876                        -357.080          29.000  
C 1  37806622.393                        -347.461          27.000  
C10  37974372.283   197742492.256        -715.517          30.000  
G22  23906207.566   125627942.928       -1333.587          34.000  
C 7  37693071.902   196277721.102        -723.618          32.000  
G16  21351815.769   112204527.689         204.824          34.000  
G 3  24124561.233   126775399.848        -621.893          35.000  
C14  25795237.568                         993.099          23.000  
G23  25294012.057   132920947.381        3059.078          37.000  
G29  25623258.761   134651132.6673      -3076.729          30.000  
C 8  40833196.159   212629091.7422       1200.196          27.000  
> 2017 12 11 12  4 47.0030000  0 19                     
G 4  21975035.978   115479604.137       -2632.201          40.000  
G14  21920130.556   115191042.844       -2070.792          30.000  
C 9  36904515.165   192171453.065        -855.229          36.000  
G31  22791377.973   119769503.944       -1038.531          44.000  
C 6  37563010.622                       -1400.093          25.000  
G32  23582570.248   123927244.058       -3320.146          36.000  
G26  21593802.820   113476234.839       -1606.294          30.000  
G27  23169040.284   121754119.729        2952.782          34.000  
C 4  39295452.224                        -348.633          29.000  
C 1  37806687.177                        -327.832          27.000  
C10  37974509.232   197743208.040        -714.635          31.000  
G22  23906461.614   125629277.490       -1335.033          33.000  
C 7  37693212.848   196278444.358        -722.189          31.000  
G16  21351776.026   112204322.713         204.775          35.000  
G 3  24124679.100   126776021.270        -621.964          35.000  
C14  25795041.005                         993.350          24.000  
G23  25293429.643   132917888.310        3059.385          36.000  
G29  25623842.662   134654201.6893      -3074.066          29.000  
C 8  40832963.997   212627892.0372       1200.275          28.000  
> 2017 12 11 12  4 48.0030000  0 19                     
G 4  21975536.895   115482235.795       -2631.299          41.000  
G14  21920520.621   115193112.521       -2069.503          29.000  
C 9  36904679.306   192172308.152        -854.986          37.000  
G31  22791575.488   119770541.578       -1037.134          44.000  
C 6  37563278.465                       -1397.129          25.000  
G32  23583201.841   123930564.339       -3319.998          36.000  
G26  21594107.331   113477840.839       -1605.865          31.000  
G27  23168479.019   121751165.420        2954.406          34.000  
C 4  39295520.965   204622057.7273       -357.601          29.000  
C 1  37806754.404                        -370.410          28.000  
C10  37974646.587   197743922.856        -714.677          31.000  
G22  23906715.594   125630611.358       -1334.339          33.000  
C 7  37693348.776   196279166.602        -721.530          31.000  
G16  21351738.657   112204117.338         206.036          34.000  
G 3  24124797.365   126776642.167        -620.580          36.000  
C14  25794846.007                         993.656          22.000  
G23  25292847.604   132914828.401        3060.260          38.000  
G29  25624432.070   134657299.1683      -3075.849          33.000  
C 8  40832733.846   212626691.2162       1200.811          28.000  
> 2017 12 11 12  4 49.0030000  0 20                     
G 4  21976037.943   115484867.544       -2632.966          41.000  
G14  21920911.095   115195182.497       -2071.391          29.000  
C 9  36904843.700   192173163.196        -856.044          37.000  
G31  22791772.963   119771579.061       -1038.307          44.000  
C 6  37563546.889                       -1401.079          25.000  
G32  23583833.543   123933884.743       -3321.558          36.000  
G26  21594415.083   113479446.939       -1607.196          32.000  
G27  23167917.175   121748211.100        2953.481          34.000  
C 4  39295589.715   204622415.0162       -357.803          29.000  
C 1  37806821.709                        -359.717          28.000  
C10  37974785.958   197744637.452        -716.272          31.000  
G22  23906969.076   125631945.401       -1335.492          33.000  
C 7  37693486.869   196279888.592        -722.107          31.000  
G16  21351697.531   112203912.301         203.837          34.000  
G 3  24124915.180   126777263.453        -622.947          35.000  
C 3  37169978.382                        -357.828          29.000  
C14  25794651.690                         990.141          22.000  
G23  25292265.290   132911768.330        3058.800          38.000  
G29  25625014.959   134660361.5512      -3077.957          30.000  
C 8  40832502.665   212625490.0732       1200.091          28.000  
> 2017 12 11 12  4 50.0030000  0 19                     
G 4  21976539.611   115487500.628       -2633.344          42.000  
G14  21921305.736   115197254.189       -2072.574          30.000  
C 9  36905008.016   192174019.473        -856.518          36.000  
G31  22791970.757   119772617.740       -1039.181          44.000  
C 6  37563818.039                       -1399.268          25.000  
G32  23584465.743   123937206.629       -3322.232          36.000  
G26  21594730.155   113481054.372       -1608.264          33.000  
G27  23167355.334   121745258.187        2952.366          34.000  
C 4  39295658.464   204622773.3802       -358.859          29.000  
C 1  37806889.403   196870362.4973       -350.568          28.000  
C10  37974920.041   197745353.046        -716.517          30.000  
G22  23907223.081   125633280.927       -1337.789          32.000  
C 7  37693627.395   196280611.642        -723.508          31.000  
G16  21351659.315   112203708.756         202.637          33.000  
G 3  24125033.191   126777886.244        -623.606          34.000  
C 3  37170049.513                        -365.039          29.000  
G23  25291683.151   132908709.343        3058.674          38.000  
G29  25625605.156   134663438.0872      -3078.000          31.000  
C 8  40832272.658   212624289.8922       1199.686          29.000  
> 2017 12 11 12  4 51.0030000  0 20                     
G 4  21977041.051   115490134.464       -2633.949          42.000  
G14  21921703.405   115199326.746       -2072.851          29.000  
C 9  36905172.754   192174876.440        -857.022          37.000  
G31  22792168.311   119773656.916       -1039.341          44.000  
C 6  37564085.586                       -1401.569          25.000  
G32  23585098.008   123940529.308       -3323.245          37.000  
G26  21595044.386   113482662.645       -1608.874          31.000  
G27  23166793.638   121742305.907        2952.140          34.000  
C 4  39295727.419   204623132.6683       -358.302          29.000  
C 1  37806957.066                        -354.883          28.000  
C10  37975059.032   197746069.134        -716.396          31.000  
G22  23907476.938   125634617.187       -1336.034          31.000  
C 7  37693763.075   196281334.993        -722.809          30.000  
G16  21351620.676   112203506.322         201.845          34.000  
G 3  24125151.665   126778510.085        -624.749          34.000  
C 3  37170117.469   193554524.0333       -355.739          30.000  
C14  25794268.571   134317493.4303        995.529          27.000  
G23  25291101.230   132905650.952        3057.910          38.000  
G29  25626192.024   134666515.5882      -3078.170          32.000  
C 8  40832043.005   212623090.175        1199.411          30.000  
> 2017 12 11 12  4 52.0030000  0 21                     
G 4  21977542.200   115492768.518       -2634.448          42.000  
G14  21922098.526   115201399.836       -2072.995          30.000  
C 9  36905337.663   192175733.586        -857.779          38.000  
G31  22792366.131   119774696.129       -1039.482          43.000  
C 6  37564352.404                       -1401.693          25.000  
G32  23585730.491   123943852.295       -3323.466          38.000  
G26  21595355.427   113484271.210       -1608.820          31.000  
G27  23166231.793   121739353.812        2950.996          33.000  
C 4  39295796.155   204623490.4632       -359.357          29.000  
C 1  37807024.411                        -352.441          29.000  
C10  37975200.038   197746785.212        -717.120          32.000  
G22  23907731.183   125635953.950       -1337.155          32.000  
C 7  37693903.837   196282058.439        -725.161          30.000  
G16  21351581.823   112203304.410         200.777          34.000  
G 3  24125269.921   126779134.419        -625.985          34.000  
C 3  37170188.513   193554879.9902       -355.468          29.000  
C14  25794078.830   134316497.3982        995.470          32.000  
G23  25290519.671   132902592.528        3059.070          38.000  
G29  25626775.141   134669593.3592      -3077.266          32.000  
C 8  40831813.595   212621890.253        1199.800          30.000  
C 5  40119452.736                        -380.566          28.000  
> 2017 12 11 12  4 53.0030000  0 21                     
G 4  21978043.928   115495402.948       -2634.860          42.000  
G14  21922496.408                       -2075.747          30.000  
C 9  36905502.323   192176590.951        -856.785          38.000  
G31  22792563.510   119775735.506       -1039.295          43.000  
C 6  37564621.072                       -1400.391          26.000  
G32  23586362.987   123947175.753       -3323.489          37.000  
G26  21595664.470   113485880.271       -1609.192          32.000  
G27  23165670.136   121736402.020        2952.335          33.000  
C 4  39295865.184                        -357.046          30.000  
C 1  37807092.214   196871419.0063       -352.412          30.000  
C10  37975333.205   197747501.296        -715.672          32.000  
G22  23907985.276   125637291.169       -1337.551          32.000  
C 7  37694045.036   196282781.742        -723.758          29.000  
G16  21351543.184   112203103.050         200.780          34.000  
G 3  24125387.884   126779759.311        -625.313          33.000  
C 3  37170254.523   193555235.9882       -354.813          29.000  
C14  25793884.836   134315502.0562        994.545          31.000  
G23  25289938.003   132899534.442        3058.275          38.000  
G29  25627351.709   134672671.7672      -3078.725          32.000  
C 8  40831583.305   212620690.352        1200.046          31.000  
C 5  40119531.166                        -402.783          28.000  
> 2017 12 11 12  4 54.0030000  0 21                     
G 4  21978545.182   115498037.544       -2634.165          40.000  
G14  21922885.335   115205539.8293      -2074.585          30.000  
C 9  36905666.931   192177448.468        -857.289          38.000  
G31  22792761.243   119776774.841       -1038.910          42.000  
C 6  37564890.294                       -1401.532          26.000  
G32  23586995.492   123950499.495       -3323.947          37.000  
G26  21595968.650   113487489.485       -1609.418          36.000  
G27  23165108.527   121733450.478        2951.640          33.000  
C 4  39295934.444   204624209.2522       -358.340          30.000  
C 1  37807160.135   196871771.0912       -351.850          30.000  
C10  37975472.855   197748217.390        -716.612          32.000  
G22  23908243.247   125638628.542       -1336.745          31.000  
C 7  37694183.097   196283504.913        -722.565          29.000  
G16  21351505.059   112202902.129         200.694          35.000  
G 3  24125506.620   126780384.654        -626.056          33.000  
C 3  37170322.635                        -358.301          30.000  
C14  25793691.863   134314506.8072        995.061          30.000  
G23  25289356.326   132896476.142        3059.110          34.000  
G29  25627942.068   134675750.4802      -3079.665          32.000  
C 8  40831349.996   212619490.297        1201.219          32.000  
C 5  40119607.720                        -393.506          28.000  
> 2017 12 11 12  4 55.0030000  0 21                     
G 4  21979046.601   115500672.218       -2634.453          40.000  
G14  21923277.986   115207614.3122      -2074.896          29.000  
C 9  36905831.557   192178305.922        -857.205          38.000  
G31  22792958.841   119777814.040       -1039.219          42.000  
C 6  37565157.500                       -1400.517          26.000  
G32  23587627.997   123953823.342       -3323.742          37.000  
G26  21596272.567   113489098.963       -1609.155          36.000  
G27  23164547.145   121730498.840        2951.424          34.000  
C 4  39296003.416   204624569.7943       -357.801          30.000  
C 1  37807227.479                        -359.326          30.000  
C10  37975611.170   197748933.115        -714.929          32.000  
G22  23908493.505   125639966.196       -1337.765          32.000  
C 7  37694326.098   196284227.928        -722.165          28.000  
G16  21351466.887   112202701.581         200.480          36.000  
G 3  24125625.377   126781010.269        -625.806          34.000  
C 3  37170390.486   193555945.8103       -355.072          30.000  
C14  25793502.401   134313511.8452        995.266          30.000  
G23  25288774.701   132893417.810        3058.752          35.000  
G29  25628521.838   134678829.2612      -3078.519          32.000  
C 8  40831119.496   212618290.051        1199.787          31.000  
C 5  40119696.367                        -531.689          27.000  
> 2017 12 11 12  4 56.0030000  0 20                     
G 4  21979548.447   115503306.991       -2635.031          42.000  
G14  21923669.067   115209689.2192      -2074.241          27.000  
C 9  36905996.086   192179163.432        -857.812          38.000  
G31  22793156.124   119778853.114       -1039.354          42.000  
C 6  37565427.451                       -1391.818          25.000  
G32  23588260.720   123957147.471       -3324.271          37.000  
G26  21596576.489   113490708.690       -1609.344          37.000  
G27  23163985.313   121727547.350        2951.039          28.000  
C 4  39296072.492   204624928.2432       -357.453          31.000  
C 1  37807295.308   196872475.8573       -351.558          30.000  
C10  37975748.123   197749648.807        -715.733          33.000  
G22  23908733.205   125641304.114       -1338.259          26.000  
C 7  37694466.053   196284950.761        -722.815          29.000  
G16  21351429.186   112202501.445         199.378          37.000  
G 3  24125744.344   126781636.234        -626.295          34.000  
C 3  37170458.786   193556301.5562       -356.368          30.000  
C14  25793319.187   134312517.2322        994.251          35.000  
G23  25288192.715   132890359.393        3057.938          38.000  
G29  25629118.539   134681908.3292      -3079.326          32.000  
C 8  40830889.035   212617089.404        1200.154          32.000  
> 2017 12 11 12  4 57.0030000  0 20                     
G 4  21980050.263   115505941.931       -2634.908          42.000  
G14  21924065.022                       -2074.854          26.000  
C 9  36906160.633   192180021.057        -857.614          38.000  
G31  22793353.464   119779892.198       -1038.778          42.000  
C 6  37565696.368                       -1410.023          21.000  
G32  23588893.212   123960471.814       -3323.782          34.000  
G26  21596874.730   113492318.647       -1609.399          39.000  
G27  23163420.192   121724596.013        2951.576          28.000  
C 4  39296141.617   204625289.6873       -357.687          31.000  
C 1  37807363.574   196872827.5892       -352.228          31.000  
C10  37975885.644   197750364.337        -715.343          32.000  
G22  23908964.547                       -1337.379          25.000  
C 7  37694602.238   196285673.450        -721.960          31.000  
G16  21351391.288   112202301.757         199.410          37.000  
G 3  24125863.268   126782262.647        -626.141          36.000  
C 3  37170527.156   193556657.0792       -355.584          30.000  
C14  25793128.103   134311522.5501        993.765          35.000  
G23  25287610.471   132887300.913        3059.244          38.000  
G29  25629705.067   134684987.5022      -3077.990          31.000  
C 8  40830656.397   212615888.659        1201.108          31.000  
> 2017 12 11 12  4 58.0030000  0 20                     
G 4  21980551.939   115508576.064       -2633.968          43.000  
G14  21924467.354                       -2073.832          26.000  
C 9  36906324.983   192180877.796        -856.676          39.000  
G31  22793550.896   119780930.295       -1037.665          43.000  
C 6  37565965.851                       -1400.202          20.000  
G32  23589525.821   123963795.485       -3323.099          34.000  
G26  21597179.149   113493927.807       -1608.307          41.000  
G27  23162855.085   121721643.846        2952.127          28.000  
C 4  39296210.436   204625648.0273       -355.107          30.000  
C 1  37807431.084                        -349.512          30.000  
C10  37976023.305   197751078.781        -714.363          32.000  
G22  23909203.231                       -1336.796          23.000  
C 7  37694740.065   196286395.070        -722.000          31.000  
G16  21351353.731   112202101.493         200.653          37.000  
G 3  24125982.911   126782888.513        -625.768          37.000  
C 3  37170595.400   193557011.6132       -354.673          31.000  
C14  25792936.980   134310527.744         994.964          35.000  
G23  25287028.733   132884241.490        3059.515          38.000  
G29  25630290.535   134688066.2422      -3077.605          31.000  
C 8  40830425.295   212614686.862        1202.076          31.000  
> 2017 12 11 12  4 59.0030000  0 20                     
G 4  21981053.999   115511210.177       -2634.834          43.000  
G14  21924870.463                       -2075.952          26.000  
C 9  36906489.133   192181734.407        -857.379          38.000  
G31  22793748.411   119781968.072       -1038.316          42.000  
C 6  37566234.140                       -1413.839          19.000  
G32  23590158.139   123967119.114       -3324.686          34.000  
G26  21597484.733   113495536.982       -1610.107          39.000  
G27  23162294.435                        2950.364          28.000  
C 4  39296279.434                        -356.152          30.000  
C 1  37807499.306                        -361.230          30.000  
C10  37976161.039   197751792.954        -714.442          32.000  
G22  23909460.007                       -1342.838          23.000  
C 7  37694879.069   196287116.128        -721.843          31.000  
G16  21351315.864   112201901.527         198.801          37.000  
G 3  24126102.218   126783514.586        -626.717          36.000  
C 3  37170663.377   193557365.7372       -354.037          30.000  
C14  25792745.411   134309533.139         993.994          31.000  
G23  25286446.127   132881181.792        3059.296          37.000  
G29  25630874.694   134691145.0402      -3080.452          31.000  
C 8  40830194.124   212613484.426        1202.494          31.000  
> 2017 12 11 12  5  0.0030000  0 20                     
G 4  21981556.081   115513845.873       -2636.277          43.000  
G14  21925270.915                       -2092.197          24.000  
C 9  36906653.571   192182592.570        -858.360          38.000  
G31  22793945.930   119783007.282       -1039.736          41.000  
C 6  37566504.068                       -1395.325          18.000  
G32  23590790.984   123970444.501       -3326.865          34.000  
G26  21597790.985   113497147.889       -1611.633          40.000  
G27  23161733.524   121715730.7473       2950.421          27.000  
C 4  39296348.450   204626366.9702       -359.696          31.000  
C 1  37807567.113   196873891.8123       -351.279          30.000  
C10  37976297.692   197752508.473        -716.058          33.000  
G22  23909726.062                       -1336.374          25.000  
C 7  37695018.431   196287838.647        -723.081          32.000  
G16  21351278.285   112201703.450         196.605          37.000  
G 3  24126221.250   126784142.589        -628.938          34.000  
C 3  37170731.939   193557721.3572       -355.997          30.000  
C14  25792553.101   134308540.300         992.699          31.000  
G23  25285863.517   132878123.556        3058.323          37.000  
G29  25631466.946   134694225.4892      -3081.738          30.000  
C 8  40829964.549   212612283.437        1199.780          31.000  
> 2017 12 11 12  5  1.0030000  0 20                     
G 4  21982057.989   115516482.343       -2636.542          44.000  
G14  21925666.707                       -2073.871          22.000  
C 9  36906818.362   192183451.394        -859.055          38.000  
G31  22794143.627   119784047.167       -1039.987          42.000  
C 6  37566770.612                       -1392.349          19.000  
G32  23591423.995   123973770.742       -3327.274          34.000  
G26  21598097.297   113498759.587       -1611.945          37.000  
G27  23161174.668   121712780.7202       2949.498          27.000  
C 4  39296417.426   204626725.8862       -359.276          31.000  
C 1  37807635.156   196874244.0882       -352.313          29.000  
C10  37976436.521   197753224.396        -715.646          33.000  
G22  23909984.796                       -1340.488          25.000  
C 7  37695157.500   196288561.532        -722.096          31.000  
G16  21351240.815   112201506.242         196.686          36.000  
G 3  24126340.479   126784771.485        -628.525          34.000  
C 3  37170800.523   193558077.3642       -355.986          30.000  
C14  25792361.044   134307548.524         992.927          31.000  
G23  25285281.212   132875065.879        3057.512          37.000  
G29  25632064.442   134697306.652       -3080.794          29.000  
C 8  40829734.027   212611082.814        1199.963          31.000  
> 2017 12 11 12  5  2.0030000  0 20                     
G 4  21982559.495   115519118.824       -2636.526          44.000  
G14  21926060.319                       -2072.137          21.000  
C 9  36906983.114   192184310.130        -858.600          38.000  
G31  22794341.679   119785086.846       -1039.729          44.000  
C 6  37567037.190                       -1405.593          20.000  
G32  23592057.137   123977097.088       -3326.690          35.000  
G26  21598403.657   113500371.354       -1611.853          37.000  
G27  23160611.440   121709830.7152       2950.275          27.000  
C 4  39296486.359   204627084.4903       -356.504          31.000  
C 1  37807702.069   196874594.5713       -351.854          28.000  
C10  37976576.341   197753940.072        -715.676          34.000  
G22  23910235.721                       -1340.255          24.000  
C 7  37695299.833   196289284.192        -722.478          31.000  
G16  21351203.275   112201309.440         196.078          36.000  
G 3  24126460.087   126785400.767        -629.780          35.000  
C 3  37170868.640   193558433.2722       -356.913          30.000  
C14  25792170.544   134306556.896         991.457          33.000  
G23  25284699.330   132872008.015        3057.506          37.000  
G29  25632667.246   134700388.202       -3081.482          29.000  
C 8  40829504.229   212609881.818        1201.557          30.000  
> 2017 12 11 12  5  3.0030000  0 20                     
G 4  21983061.054   115521755.346       -2636.668          43.000  
G14  21926455.174                       -2073.883          21.000  
C 9  36907148.045   192185168.888        -858.280          38.000  
G31  22794539.952   119786126.322       -1039.316          43.000  
C 6  37567306.425                       -1398.469          21.000  
G32  23592690.100   123980423.530       -3326.643          34.000  
G26  21598709.991   113501983.279       -1611.804          40.000  
G27  23160043.998   121706880.6522       2950.265          28.000  
C 4  39296555.266   204627444.0282       -358.179          31.000  
C 1  37807768.807                        -347.168          29.000  
C10  37976707.763   197754655.537        -714.509          32.000  
G22  23910482.921                       -1344.846          22.000  
C 7  37695436.193   196290006.611        -722.638          31.000  
G16  21351166.036   112201112.978         196.089          37.000  
G 3  24126580.166   126786030.316        -630.909          35.000  
C 3  37170936.866   193558790.9483       -356.632          29.000  
C14  25791979.996                         990.399          17.000  
G23  25284117.313   132868950.013        3057.483          39.000  
G29  25633242.248   134703469.804       -3082.556          28.000  
C 8  40829273.127   212608680.557        1201.753          30.000  
> 2017 12 11 12  5  4.0030000  0 20                     
G 4  21983563.140   115524391.983       -2636.885          43.000  
G14  21926852.149                       -2079.920          22.000  
C 9  36907312.744   192186027.699        -858.602          38.000  
G31  22794737.175   119787165.743       -1039.415          42.000  
C 6  37567576.576                       -1406.155          20.000  
G32  23593323.011   123983750.097       -3325.507          33.000  
G26  21599016.334   113503595.426       -1612.256          41.000  
G27  23159483.816   121703930.6132       2950.549          28.000  
C 4  39296624.600                        -373.730          29.000  
C 1  37807836.858   196875296.1583       -351.828          29.000  
C10  37976847.762   197755370.926        -716.069          31.000  
G22  23910739.103                       -1338.008          23.000  
C 7  37695576.454   196290728.763        -722.020          32.000  
G16  21351128.706   112200916.856         195.892          37.000  
G 3  24126700.468   126786660.148        -630.705          39.000  
C 3  37171005.301   193559146.4012       -356.051          29.000  
C14  25791790.666                         988.308          18.000  
G23  25283535.706   132865891.907        3058.425          39.000  
G29  25633820.221   134706551.718       -3082.152          28.000  
C 8  40829041.188   212607479.130        1201.427          30.000  
> 2017 12 11 12  5  5.0030000  0 18                     
G 4  21984065.117   115527028.751       -2637.004          44.000  
C 9  36907477.714   192186886.493        -859.225          37.000  
G31  22794935.387   119788205.095       -1039.526          43.000  
C 6  37567848.123                       -1408.707          21.000  
G32  23593952.261                       -3328.283          29.000  
G26  21599322.359   113505207.703       -1612.573          39.000  
G27  23158924.161   121700980.4452       2948.837          31.000  
C 4  39296693.886   204628165.0632       -357.910          30.000  
C 1  37807904.766   196875647.6352       -352.759          30.000  
C10  37976980.419   197756086.063        -715.523          29.000  
G22  23911010.145   125653205.5813      -1343.596          26.000  
C 7  37695715.423   196291450.850        -723.167          34.000  
G16  21351091.502   112200721.155         195.699          39.000  
G 3  24126820.813   126787290.470        -632.276          37.000  
C 3  37171075.608                        -367.627          28.000  
G23  25282954.474   132862833.775        3057.450          42.000  
G29  25634401.654                       -3082.109          26.000  
C 8  40828806.046   212606277.400        1200.404          29.000  
> 2017 12 11 12  5  6.0030000  0 18                     
G 4  21984567.025   115529665.672       -2637.184          44.000  
G14  21927631.558   115230481.1033      -2080.421          31.000  
C 9  36907642.732   192187745.456        -858.109          36.000  
G31  22795134.180   119789244.417       -1039.209          43.000  
C 6  37568117.524                       -1396.314          21.000  
G32  23594589.456   123990403.6763      -3328.085          30.000  
G26  21599628.427   113506820.485       -1613.293          39.000  
C 4  39296762.422                        -355.518          28.000  
C 1  37807973.070   196876005.1133       -352.391          29.000  
C10  37977120.016   197756801.218        -714.594          29.000  
G22  23911291.464                       -1340.862          28.000  
C 7  37695851.626   196292172.615        -720.785          32.000  
G16  21351054.338   112200525.955         195.057          38.000  
G 3  24126940.583   126787921.096        -629.547          33.000  
C14  25791413.610   134302626.9023        991.681          33.000  
G23  25282373.255   132859775.748        3054.480          33.000  
G29  25634972.337                       -3089.227          24.000  
C 8  40828578.059   212605075.578        1201.860          29.000  
> 2017 12 11 12  5  7.0030000  0 19                     
G 4  21985069.299   115532302.716       -2637.191          41.000  
G14  21928030.261   115232561.2212      -2081.486          32.000  
C 9  36907808.008   192188604.445        -859.521          36.000  
G31  22795332.310   119790283.788       -1039.018          41.000  
C 6  37568389.878                       -1397.934          20.000  
G32  23595230.786   123993774.3153      -3325.900          29.000  
G26  21599935.032   113508433.380       -1614.423          34.000  
G27  23157809.817                        2953.461          25.000  
C 4  39296831.245   204628880.7573       -358.840          28.000  
C 1  37808040.712   196876356.3212       -351.874          29.000  
C10  37977257.720   197757516.018        -713.663          29.000  
G22  23911543.353   125656008.1452      -1341.720          33.000  
C 7  37695990.364   196292894.303        -721.193          32.000  
G16  21351017.461   112200331.030         194.868          38.000  
G 3  24127060.819   126788552.163        -631.642          36.000  
C14  25791216.898   134301636.8402        989.849          31.000  
G23  25281797.581                        3058.693          30.000  
G29  25635546.545                       -3080.261          30.000  
C 8  40828351.760                        1205.611          22.000  
> 2017 12 11 12  5  8.0030000  0 18                     
G 4  21985571.830   115534938.644       -2635.159          36.000  
G14  21928421.154   115234640.8242      -2078.707          32.000  
C 9  36907972.738   192189462.388        -856.345          37.000  
G31  22795529.759   119791322.144       -1037.259          38.000  
G32  23595863.440   123997099.0092      -3325.848          27.000  
G26  21600241.314   113510045.457       -1611.041          36.000  
G27  23157255.332                        2958.426          23.000  
C 4  39296899.973                        -352.441          29.000  
C 1  37808107.777   196876706.5992       -350.645          31.000  
C10  37977398.207   197758229.970        -713.911          28.000  
G22  23911799.793   125657348.6522      -1339.645          31.000  
C 7  37696129.281   196293614.685        -720.022          25.000  
G16  21350980.554   112200135.514         195.551          36.000  
G 3  24127180.772   126789182.528        -629.352          38.000  
C14  25791036.075                         986.643          24.000  
G23  25281215.538                        3040.674          34.000  
G29  25636079.584   134718507.4093      -3081.228          31.000  
C 8  40828126.146                        1205.726          21.000  
> 2017 12 11 12  5  9.0030000  0 18                     
G 4  21986073.969   115537574.383       -2637.018          37.000  
G14  21928814.600   115236720.3222      -2080.317          32.000  
C 9  36908137.420   192190320.100        -859.350          37.000  
G31  22795726.720   119792359.955       -1038.672          36.000  
G32  23596494.640   124000415.4073      -3327.042          26.000  
G26  21600547.482   113511657.155       -1612.036          38.000  
G27  23156690.045                        2940.486          21.000  
C 4  39296968.696                        -360.938          29.000  
C 1  37808174.712                        -350.376          31.000  
C10  37977531.584                        -712.661          26.000  
G22  23912051.835   125658689.0662      -1340.699          31.000  
C 7  37696268.307   196294334.247        -719.392          26.000  
G16  21350943.223   112199939.917         194.845          36.000  
G 3  24127300.817   126789812.893        -630.538          36.000  
C14  25790849.523                         987.071          24.000  
G23  25280625.158                        3062.304          31.000  
G29  25636660.153   134721588.9522      -3081.548          33.000  
C 8  40827898.168                        1193.629          20.000  
> 2017 12 11 12  5 10.0030000  0 17                     
G 4  21986575.366   115540211.775       -2637.379          30.000  
G14  21929211.038   115238801.9222      -2081.925          32.000  
C 9  36908302.420   192191179.624        -859.686          31.000  
G31  22795924.287   119793399.214       -1040.341          35.000  
G32  23597123.070                       -3327.656          26.000  
G26  21600856.268   113513270.787       -1614.136          37.000  
G27  23156132.013                        2944.239          20.000  
C 4  39297037.803                        -361.084          28.000  
C 1  37808242.441   196877408.4243       -351.455          31.000  
C10  37977672.058                        -712.661          23.000  
G22  23912312.358                       -1351.798          22.000  
C 7  37696404.493   196295055.449        -722.436          27.000  
G16  21350905.936   112199746.626         192.898          29.000  
C14  25790652.554   134298663.7943        988.044          31.000  
G23  25280052.564                        3055.525          24.000  
G29  25637240.028   134724672.9292      -3084.281          28.000  
C 8  40827668.370                        1209.169          18.000  
> 2017 12 11 12  5 11.0030000  0 18                     
G 4  21987076.148   115542850.033       -2637.839          33.000  
G14  21929609.357   115240884.4282      -2082.043          33.000  
C 9  36908464.092   192192039.483        -859.974          30.000  
G31  22796122.046   119794439.029       -1040.143          37.000  
C 6  37569466.321                       -1406.021          21.000  
G32  23597753.189                       -3328.468          26.000  
G26  21601159.527   113514885.146       -1614.392          36.000  
G27  23155577.934                        2944.626          19.000  
C 4  39297106.522                        -336.279          28.000  
C 1  37808309.842   196877760.0592       -352.691          32.000  
C10  37977811.734                        -712.512          16.000  
G22  23912579.744                       -1351.798          20.000  
C 7  37696545.058   196295777.235        -721.986          27.000  
G16  21350869.514   112199553.947         193.278          27.000  
C14  25790461.575   134297675.8542        988.653          33.000  
G23  25279473.304                        3057.180          25.000  
G29  25637817.159                       -3110.719          26.000  
C 8  40827436.880                        1209.169          15.000  
> 2017 12 11 12  5 12.0030000  0 16                     
G 4  21987576.140   115545488.415       -2639.767          34.000  
G14  21930002.279   115242967.3552      -2083.027          33.000  
C 9  36908630.668   192192899.391        -859.640          30.000  
G31  22796320.115   119795478.605       -1040.252          39.000  
C 6  37569736.595                       -1403.866          18.000  
G32  23598390.659                       -3329.673          26.000  
G26  21601466.943   113516499.659       -1615.326          34.000  
C 4  39297175.817                        -347.559          28.000  
C 1  37808377.274   196878111.3712       -350.503          31.000  
C10  37977948.260                        -712.840          16.000  
G22  23912836.637                       -1340.935          19.000  
C 7  37696682.514   196296498.615        -720.702          28.000  
G16  21350833.837   112199361.708         193.489          26.000  
C14  25790271.306   134296688.3272        985.765          27.000  
G23  25278887.168                        3061.480          23.000  
G29  25638404.372                       -3088.708          24.000  
> 2017 12 11 12  5 13.0030000  0 17                     
G 4  21988082.930   115548126.921       -2638.550          34.000  
G14  21930399.695   115245050.681       -2084.396          33.000  
C 9  36908796.920   192193759.407        -859.343          31.000  
G31  22796518.462   119796518.122       -1039.594          35.000  
C 6  37570006.240                       -1398.472          18.000  
G32  23599025.441                       -3328.914          26.000  
G26  21601774.826   113518114.363       -1614.703          36.000  
C 4  39297243.463                        -373.096          27.000  
C 1  37808445.033                        -346.777          31.000  
C10  37978085.506                        -719.803          19.000  
G22  23913098.779   125664181.4943      -1343.259          29.000  
C 7  37696823.843   196297219.999        -722.677          29.000  
G16  21350795.586                         191.525          25.000  
G 3  24127791.717                        -633.627          22.000  
C14  25790081.360   134295701.0002        985.385          34.000  
G23  25278308.401                        3058.801          30.000  
G29  25638999.324                       -3086.245          21.000  
> 2017 12 11 12  5 14.0030000  0 16                     
G 4  21988586.259   115550765.902       -2638.741          36.000  
G14  21930798.219   115247134.743       -2085.295          33.000  
C 9  36908964.128   192194619.897        -859.901          29.000  
G31  22796717.085   119797558.002       -1041.260          35.000  
C 6  37570274.755                       -1401.186          16.000  
G32  23599654.185                       -3330.464          26.000  
G26  21602085.169   113519729.668       -1615.533          38.000  
G27  23153885.716                        2944.004          20.000  
C 1  37808512.828   196878815.7743       -351.692          31.000  
C10  37978221.993                        -725.324          21.000  
G22  23913369.305   125665525.5882      -1342.771          27.000  
C 7  37696961.303   196297941.379        -720.292          32.000  
G16  21350755.668                         191.347          26.000  
G 3  24127908.551                        -633.627          22.000  
C14  25789892.488   134294714.2192        987.176          36.000  
G23  25277727.226                        3051.994          22.000  
> 2017 12 11 12  5 15.0030000  0 16                     
G 4  21989087.613   115553405.077       -2639.142          36.000  
G14  21931195.071   115249219.119       -2084.834          33.000  
C 9  36909128.269   192195480.323        -860.301          29.000  
G31  22796915.206   119798597.665       -1039.437          36.000  
C 6  37570543.728                       -1401.186          14.000  
G32  23600290.276                       -3331.789          25.000  
G26  21602392.428   113521345.045       -1615.027          36.000  
G27  23153327.750                        2941.836          19.000  
C 1  37808580.377                        -356.055          31.000  
C10  37978360.726   197763258.4023       -714.594          25.000  
G22  23913613.883   125666870.0742      -1344.581          28.000  
C 7  37697098.850   196298662.688        -720.893          32.000  
G16  21350718.735                         185.465          22.000  
G 3  24128031.099                        -633.627          21.000  
C14  25789705.470   134293727.8762        986.911          33.000  
G23  25277145.680                        3060.148          21.000  
> 2017 12 11 12  5 16.0030000  0 16                     
G 4  21989590.550   115556044.254       -2639.339          36.000  
G14  21931591.628   115251303.781       -2084.146          32.000  
C 9  36909296.420   192196340.770        -861.092          28.000  
G31  22797112.799   119799637.304       -1039.812          34.000  
C 6  37570814.508                       -1401.186          13.000  
G32  23600927.715                       -3331.313          24.000  
G26  21602698.919   113522960.611       -1615.973          37.000  
G27  23152768.732                        2941.836          17.000  
C 1  37808648.154   196879520.8673       -351.578          30.000  
C10  37978496.825   197763972.9992       -714.536          26.000  
G22  23913865.083   125668214.6722      -1345.289          27.000  
C 7  37697238.059   196299383.688        -721.014          33.000  
G16  21350685.723                         185.465          19.000  
C14  25789514.211   134292741.7842        985.946          36.000  
G23  25276559.671                        3055.982          20.000  
G29  25640759.632                       -3084.969          24.000  
> 2017 12 11 12  5 17.0030000  0 15                     
G 4  21990093.509   115558683.834       -2640.259          39.000  
G14  21931988.332   115253389.241       -2085.833          32.000  
C 9  36909461.049   192197201.424        -859.812          28.000  
G31  22797310.982   119800677.062       -1039.892          36.000  
C 6  37571085.038                       -1403.850          13.000  
G32  23601558.733                       -3332.032          25.000  
G26  21603005.620   113524576.673       -1616.803          36.000  
C 1  37808715.699   196879872.1332       -350.346          30.000  
C10  37978633.072   197764687.6672       -714.565          27.000  
G22  23914116.209   125669559.6962      -1345.797          26.000  
C 7  37697374.323   196300104.779        -721.335          33.000  
G16  21350651.381                         195.916          19.000  
C14  25789324.802   134291756.2012        985.094          36.000  
G23  25275985.973                        3061.696          23.000  
G29  25641351.487                       -3086.314          25.000  
> 2017 12 11 12  5 18.0030000  0 16                     
G 4  21990594.950   115561323.308       -2638.566          39.000  
G14  21932384.993   115255474.842       -2085.433          32.000  
C 9  36909624.567   192198062.072        -859.573          28.000  
G31  22797509.395   119801716.685       -1040.143          35.000  
C 6  37571355.857                       -1403.850          13.000  
G32  23602191.312   124030352.4352      -3330.566          26.000  
G26  21603313.499   113526192.747       -1616.101          36.000  
G27  23151649.864                        2945.323          21.000  
C 1  37808783.149   196880223.1852       -350.763          30.000  
C10  37978770.885   197765402.0832       -713.682          27.000  
G22  23914364.997   125670904.8422      -1344.891          26.000  
C 7  37697515.195   196300825.478        -719.846          33.000  
G16  21350616.376   112198245.5923        189.844          25.000  
C14  25789134.307   134290770.8722        985.400          35.000  
G23  25275398.608   132823115.5423       3058.584          24.000  
G29  25641938.604                       -3076.735          22.000  
> 2017 12 11 12  5 19.0030000  0 16                     
G 4  21991096.770   115563962.301       -2639.606          39.000  
G14  21932778.927   115257560.139       -2084.285          32.000  
C 9  36909788.852   192198922.063        -859.820          28.000  
G31  22797707.555   119802755.513       -1038.908          34.000  
C 6  37571626.309                       -1403.850          14.000  
G32  23602826.369   124033682.9362      -3331.180          27.000  
G26  21603620.928   113527808.246       -1616.260          35.000  
G27  23151088.093   121659788.5993       2948.545          29.000  
C 1  37808850.402   196880573.4102       -350.758          31.000  
C10  37978908.711   197766115.5572       -713.680          28.000  
G22  23914611.298   125672249.4372      -1345.414          26.000  
C 7  37697653.339   196301545.292        -719.518          33.000  
G16  21350582.540   112198055.8252        189.027          25.000  
C14  25788947.192   134289785.0892        985.368          38.000  
G23  25274817.127   132820060.1592       3058.459          24.000  
G29  25642524.076                       -3086.558          22.000  
> 2017 12 11 12  5 20.0030000  0 16                     
G 4  21991599.127   115566601.909       -2639.478          38.000  
G14  21933174.546   115259646.384       -2085.306          31.000  
C 9  36909952.465   192199782.621        -860.101          28.000  
G31  22797905.641   119803794.790       -1038.860          34.000  
C 6  37571896.980                       -1411.854          14.000  
G32  23603461.779   124037013.9772      -3331.286          27.000  
G26  21603928.545   113529424.541       -1616.815          35.000  
G27  23150524.826   121656841.2692       2947.276          26.000  
C 1  37808917.611   196880924.0332       -350.877          30.000  
C10  37979046.895   197766829.4502       -713.453          28.000  
G22  23914866.608   125673594.8102      -1345.634          27.000  
C 7  37697792.047   196302265.474        -719.756          33.000  
G16  21350547.151   112197867.0602        189.041          27.000  
C14  25788757.120   134288800.2322        984.647          37.000  
G23  25274245.196                        3049.057          21.000  
G29  25643110.408                       -3085.136          21.000  
> 2017 12 11 12  5 21.0030000  0 15                     
G 4  21992101.174   115569241.729       -2640.675          38.000  
G14  21933576.071   115261733.178       -2087.727          31.000  
C 9  36910123.830   192200643.295        -861.433          28.000  
G31  22798103.448   119804834.065       -1039.721          37.000  
C 6  37572166.878                       -1411.854          13.000  
G32  23604095.331                       -3332.665          27.000  
G26  21604236.231   113531041.139       -1617.053          35.000  
C 1  37808984.904   196881274.6022       -350.739          30.000  
C10  37979182.126   197767543.3682       -714.208          28.000  
G22  23915125.656   125674940.5582      -1346.769          30.000  
C 7  37697929.633   196302980.1091       -720.076          33.000  
G16  21350515.008   112197678.7282        189.265          28.000  
C14  25788568.191   134287815.797         983.989          36.000  
G23  25273663.685                        3053.756          20.000  
G29  25643700.565                       -3088.104          20.000  
> 2017 12 11 12  5 22.0030000  0 14                     
G 4  21992603.688   115571882.588       -2641.250          38.000  
G14  21933968.657   115263821.231       -2089.327          32.000  
C 9  36910284.695   192201504.953        -861.935          28.000  
G31  22798301.569   119805874.236       -1040.726          36.000  
C 6  37572437.539                       -1411.854          13.000  
G32  23604720.328                       -3328.606          26.000  
G26  21604543.556   113532658.856       -1617.737          36.000  
C 1  37809052.332   196881625.9962       -351.088          30.000  
C10  37979324.218   197768257.9742       -714.498          27.000  
G22  23915380.874   125676287.4472      -1346.771          29.000  
C 7  37698067.987   196303700.961        -721.116          34.000  
G16  21350475.867   112197491.8912        186.430          28.000  
C14  25788379.292   134286832.565         983.236          36.000  
G23  25273081.258                        3058.068          29.000  
> 2017 12 11 12  5 23.0030000  0 15                     
G 4  21993106.372   115574523.833       -2642.068          40.000  
G14  21934361.208   115265909.822       -2089.044          31.000  
C 9  36910451.292   192202366.851        -862.663          28.000  
G31  22798499.542   119806914.447       -1040.845          33.000  
C 6  37572708.463                       -1411.854          10.000  
G32  23605359.124   124046998.9953      -3333.775          26.000  
G26  21604851.665   113534276.969       -1619.269          36.000  
G27  23148841.870                        2944.639          22.000  
C 1  37809119.689   196881977.4922       -352.634          31.000  
C10  37979459.235   197768972.6352       -714.730          27.000  
G22  23915635.678   125677634.7512      -1347.707          29.000  
C 7  37698206.009   196304421.821        -721.308          33.000  
G16  21350441.490   112197305.4592        186.125          28.000  
C14  25788190.272   134285849.931         981.357          35.000  
G23  25272494.377   132807854.2053       3056.670          29.000  
> 2017 12 11 12  5 24.0030000  0 15                     
G 4  21993608.921   115577165.526       -2641.424          40.000  
G14  21934760.059   115267999.273       -2089.540          31.000  
C 9  36910616.782   192203229.190        -862.454          28.000  
G31  22798697.772   119807955.080       -1040.880          34.000  
G32  23605996.877   124050332.5972      -3333.967          28.000  
G26  21605159.684   113535895.629       -1617.676          31.000  
G27  23148285.178                        2959.733          21.000  
C 1  37809187.527   196882329.1963       -352.524          31.000  
C10  37979592.180   197769687.5982       -715.386          26.000  
G22  23915893.025   125678982.7362      -1348.390          29.000  
C 7  37698344.603   196305142.828        -721.128          34.000  
G16  21350406.232   112197119.9602        185.307          28.000  
G 3  24129134.189   126799455.6253       -639.897          25.000  
C14  25788001.835   134284867.858         982.123          35.000  
G23  25271915.143   132804797.4812       3057.293          28.000  
> 2017 12 11 12  5 25.0030000  0 15                     
G 4  21994111.727   115579807.435       -2641.914          38.000  
G14  21935165.642   115270089.237       -2091.208          31.000  
C 9  36910779.391   192204091.689        -862.444          28.000  
G31  22798895.714   119808995.673       -1040.628          34.000  
G32  23606630.023   124053666.4972      -3333.478          28.000  
G26  21605467.492   113537514.588       -1618.408          33.000  
G27  23147724.380                        2947.684          20.000  
C 1  37809255.033   196882680.8292       -351.497          31.000  
C10  37979728.178   197770402.3422       -714.811          26.000  
G22  23916147.162   125680330.895       -1347.513          29.000  
C 7  37698482.914   196305863.712        -720.325          34.000  
G16  21350372.252   112196934.7992        185.186          29.000  
G 3  24129259.665                        -637.995          24.000  
C14  25787812.906   134283886.266         981.543          35.000  
G23  25271331.939                        3057.215          26.000  
> 2017 12 11 12  5 26.0030000  0 15                     
G 4  21994614.629   115582449.435       -2642.007          38.000  
G14  21935559.929   115272179.460       -2090.646          31.000  
C 9  36910948.161   192204954.140        -862.259          28.000  
G31  22799093.709   119810036.275       -1040.622          35.000  
G32  23607263.466   124057000.5642      -3334.192          28.000  
G26  21605775.476   113539133.743       -1619.519          33.000  
C 1  37809322.535   196883032.3442       -350.894          31.000  
C10  37979866.750   197771116.9602       -714.198          26.000  
G22  23916408.509   125681679.376       -1348.351          28.000  
C 7  37698621.661   196306584.462        -720.815          34.000  
G16  21350339.385   112196750.0322        185.728          30.000  
G 3  24129384.146                        -639.146          23.000  
C14  25787624.064   134282904.985         981.102          35.000  
G23  25270747.972                        3054.442          25.000  
G29  25646644.465                       -3091.532          22.000  
> 2017 12 11 12  5 27.0030000  0 16                     
G 4  21995117.265   115585091.551       -2642.063          37.000  
G14  21935957.964   115274270.094       -2091.206          31.000  
C 9  36911114.745   192205816.674        -862.853          28.000  
G31  22799291.764   119811076.656       -1040.599          34.000  
C 6  37573790.084                       -1411.854          10.000  
G32  23607894.811   124060334.8892      -3334.368          27.000  
G26  21606083.306   113540753.001       -1619.153          35.000  
C 1  37809389.779                        -352.246          31.000  
C10  37980004.978   197771831.417        -713.982          26.000  
G22  23916658.300   125683028.027       -1348.965          27.000  
C 7  37698759.823   196307304.9742       -720.864          34.000  
G16  21350299.869   112196565.7102        184.486          29.000  
G 3  24129508.832                        -641.135          23.000  
C14  25787435.633   134281923.991         980.858          36.000  
G23  25270168.350                        3050.793          24.000  
G29  25647233.637                       -3095.909          23.000  
> 2017 12 11 12  5 28.0030000  0 15                     
G 4  21995619.465   115587733.946       -2643.472          33.000  
G14  21936357.038   115276361.211       -2090.959          31.000  
C 9  36911278.202   192206679.261        -862.889          29.000  
G31  22799489.676   119812117.042       -1039.630          36.000  
C 6  37574058.918                       -1411.854          13.000  
G32  23608527.564   124063669.3152      -3333.755          27.000  
G26  21606391.250   113542372.528       -1619.061          35.000  
C 1  37809457.299   196883734.4493       -350.576          32.000  
C10  37980141.556   197772545.745        -713.431          26.000  
G22  23916909.815   125684376.858       -1348.401          26.000  
C 7  37698898.002   196308025.2772       -720.451          34.000  
G16  21350271.896   112196381.7102        184.228          29.000  
G 3  24129636.009                        -641.788          22.000  
C14  25787247.210   134280943.264         980.555          35.000  
G23  25269586.896                        3055.386          21.000  
> 2017 12 11 12  5 29.0030000  0 16                     
G 4  21996121.455   115590375.236       -2640.409          33.000  
G14  21936754.362   115278451.551       -2089.380          31.000  
C 9  36911445.427   192207540.767        -859.907          32.000  
G31  22799687.008   119813156.249       -1038.263          37.000  
C 6  37574326.386                       -1404.288          18.000  
G32  23609163.040   124067002.9472      -3332.689          28.000  
G26  21606703.164   113543991.232       -1616.821          30.000  
G27  23145475.623                        2943.533          21.000  
C 1  37809524.508   196884084.5052       -349.534          32.000  
C10  37980274.854                        -712.952          25.000  
G22  23917186.710   125685724.914       -1347.181          27.000  
C 7  37699036.221   196308744.2772       -717.583          32.000  
G16  21350231.228   112196197.0212        185.187          30.000  
C14  25787058.586   134279961.883         982.048          34.000  
G23  25269002.588                        3059.922          18.000  
G29  25648408.987                       -3084.352          21.000  
> 2017 12 11 12  5 30.0030000  0 15                     
G 4  21996623.625   115593016.068       -2642.107          32.000  
G14  21937152.803   115280541.742       -2090.808          30.000  
C 9  36911611.252   192208401.870        -861.311          30.000  
G31  22799884.710   119814194.752       -1039.517          36.000  
C 6  37574595.211                       -1399.530          20.000  
G32  23609801.539   124070336.3202      -3334.420          28.000  
G26  21607012.338                       -1615.208          24.000  
G27  23144913.438                        2939.050          20.000  
C 1  37809591.447   196884433.8552       -349.230          31.000  
C10  37980411.738                        -713.959          23.000  
G22  23917444.620   125687072.583       -1348.268          28.000  
C 7  37699174.405   196309462.6312       -718.365          29.000  
G16  21350192.641   112196012.1922        183.551          29.000  
C14  25786869.931   134278980.245         981.250          33.000  
G23  25268417.797                        3049.771          20.000  
> 2017 12 11 12  5 31.0030000  0 15                     
G 4  21997126.034   115595658.507       -2642.532          33.000  
G14  21937548.355   115282633.838       -2092.300          29.000  
C 9  36911777.609   192209264.485        -863.345          29.000  
G31  22800082.683   119815234.731       -1040.352          35.000  
C 6  37574863.970                       -1410.582          20.000  
G32  23610433.058   124073671.297       -3334.900          27.000  
G26  21607322.272                       -1619.298          25.000  
G27  23144353.356                        2945.284          20.000  
C 1  37809658.757   196884784.5272       -350.448          30.000  
C10  37980548.539                        -715.146          21.000  
G22  23917699.795   125688422.109       -1350.620          28.000  
C 7  37699312.205   196310182.2202       -719.180          30.000  
G16  21350165.458   112195829.290         182.035          29.000  
C14  25786681.748   134278000.511         978.312          32.000  
G23  25267837.293   132783380.2763       3056.696          25.000  
> 2017 12 11 12  5 32.0030000  0 16                     
G 4  21997628.321   115598301.840       -2644.391          33.000  
G14  21937942.822   115284727.009       -2093.129          29.000  
C 9  36911940.324   192210127.762        -863.181          28.000  
G31  22800280.398   119816275.383       -1041.023          34.000  
C 6  37575134.505                       -1405.740          20.000  
G32  23611069.808   124077007.171       -3335.490          27.000  
G26  21607630.752                       -1619.774          24.000  
G27  23143795.224                        2950.863          20.000  
C 1  37809726.041   196885135.8722       -351.868          30.000  
C10  37980685.711                        -707.942          20.000  
G22  23917954.939   125689772.566       -1350.535          28.000  
C 7  37699455.589   196310902.4742       -720.285          30.000  
G16  21350134.379   112195647.568         181.037          29.000  
G 3  24130108.657                        -644.648          23.000  
C14  25786493.775   134277021.823         978.257          32.000  
G23  25267261.096   132780323.6112       3056.454          26.000  
> 2017 12 11 12  5 33.0030000  0 15                     
G 4  21998130.774   115600945.551       -2643.438          33.000  
G14  21938344.003   115286820.883       -2093.645          29.000  
C 9  36912108.862   192210991.455        -863.577          28.000  
G31  22800478.227   119817316.184       -1040.097          34.000  
C 6  37575404.146                       -1411.642          19.000  
G32  23611695.036   124080343.622       -3336.442          27.000  
G26  21607937.815                       -1622.367          23.000  
G27  23143233.802                        2940.604          20.000  
C 1  37809793.822   196885486.8453       -351.588          30.000  
C10  37980823.236                        -709.283          20.000  
G22  23918209.991   125691123.505       -1351.280          28.000  
C 7  37699588.407   196311622.707        -720.356          30.000  
G16  21350102.446   112195466.388         180.859          29.000  
C14  25786305.596   134276043.594         978.068          33.000  
G23  25266685.963   132777267.1932       3056.829          27.000  
> 2017 12 11 12  5 34.0030000  0 15                     
G 4  21998633.235   115603589.600       -2644.469          34.000  
G14  21938740.807   115288915.362       -2094.871          30.000  
C 9  36912272.432   192211855.345        -863.981          28.000  
G31  22800676.465   119818357.220       -1041.305          34.000  
C 6  37575673.316                       -1398.128          18.000  
G32  23612328.793   124083680.530       -3337.309          28.000  
G26  21608247.539                       -1621.873          22.000  
G27  23142673.415                        2941.582          19.000  
C 1  37809860.979                        -344.678          31.000  
C10  37980958.924                        -717.040          19.000  
G22  23918464.306   125692474.769       -1351.317          27.000  
C 7  37699727.843   196312342.975        -720.769          30.000  
G16  21350062.746   112195285.803         180.349          29.000  
C14  25786117.940   134275065.965         977.286          33.000  
G23  25266109.063   132774210.8612       3056.335          26.000  
> 2017 12 11 12  5 35.0030000  0 16                     
G 4  21999136.028   115606234.017       -2643.864          32.000  
G14  21939143.292   115291010.422       -2095.594          30.000  
C 9  36912437.865   192212719.492        -863.889          28.000  
G31  22800874.696   119819398.433       -1040.895          32.000  
C 6  37575941.155                       -1405.096          19.000  
G32  23612961.084   124087017.761       -3336.511          27.000  
G26  21608549.620                       -1619.970          23.000  
G27  23142112.347                        2951.159          19.000  
C 1  37809928.389   196886187.8842       -350.439          30.000  
C10  37981095.743                        -715.535          19.000  
G22  23918721.841   125693826.592       -1351.461          27.000  
C 7  37699865.713   196313063.233        -719.902          29.000  
G16  21350023.789   112195105.843         179.887          29.000  
G 3  24130459.288                        -643.324          21.000  
C14  25785930.329   134274088.850         978.031          33.000  
G23  25265530.924   132771154.7322       3056.494          27.000  
> 2017 12 11 12  5 36.0030000  0 17                     
G 4  21999638.595   115608878.350       -2644.289          32.000  
G14  21939535.259   115293105.713       -2094.571          30.000  
C 9  36912604.078   192213583.564        -863.975          29.000  
G31  22801072.677   119820439.331       -1041.001          32.000  
C 6  37576210.778                       -1401.239          19.000  
G32  23613598.057   124090355.200       -3338.164          27.000  
G26  21608854.444                       -1618.877          23.000  
G27  23141548.482                        2944.898          19.000  
C 1  37809996.135   196886540.3272       -351.397          30.000  
C10  37981232.465                        -712.148          19.000  
G22  23918974.215   125695178.565       -1352.325          27.000  
C 7  37700005.467   196313783.197        -720.218          29.000  
G16  21349992.021   112194926.189         178.983          29.000  
G 3  24130577.025                        -643.324          22.000  
C14  25785742.787   134273111.991         976.521          33.000  
G23  25264954.613   132768098.5282       3055.640          28.000  
C 8  40821646.300                        1196.521          12.000  
> 2017 12 11 12  5 37.0030000  0 17                     
G 4  22000141.689   115611522.753       -2644.437          32.000  
G14  21939937.761   115295201.397       -2096.194          30.000  
C 9  36912770.291   192214447.591        -863.932          29.000  
G31  22801270.528   119821480.077       -1041.135          33.000  
C 6  37576481.069                       -1402.567          19.000  
G32  23614234.156   124093692.541       -3337.546          27.000  
G26  21609163.326                       -1621.928          25.000  
G27  23140986.049                        2940.032          19.000  
C 1  37810063.480   196886891.4302       -351.376          31.000  
C10  37981369.083                        -714.259          19.000  
G22  23919229.459   125696530.540       -1351.906          27.000  
C 7  37700141.527   196314502.854        -719.325          28.000  
G16  21349959.467   112194746.726         179.673          29.000  
G 3  24130693.086                        -643.324          21.000  
C14  25785555.524   134272135.306         976.527          33.000  
G23  25264375.964   132765041.9332       3056.573          27.000  
C 8  40821415.264                        1196.521          13.000  
> 2017 12 11 12  5 38.0030000  0 17                     
G 4  22000644.770   115614167.371       -2644.533          33.000  
G14  21940338.484   115297297.481       -2096.539          30.000  
C 9  36912937.268   192215311.769        -864.173          29.000  
G31  22801468.753   119822520.920       -1041.221          33.000  
C 6  37576750.989                       -1410.981          20.000  
G32  23614870.923                       -3337.415          27.000  
G26  21609473.430                       -1621.610          25.000  
G27  23140428.614                        2947.700          19.000  
C 1  37810130.820   196887242.5022       -350.868          30.000  
C10  37981504.662                        -715.789          19.000  
G22  23919486.457   125697882.962       -1352.753          27.000  
C 7  37700280.692   196315222.548        -720.309          28.000  
G16  21349923.149   112194567.918         178.677          28.000  
G 3  24130811.678                        -643.324          22.000  
C14  25785368.174   134271159.096         975.684          33.000  
G23  25263799.121   132761985.5042       3055.541          26.000  
C 8  40821186.976                        1196.521          12.000  
> 2017 12 11 12  5 39.0030000  0 17                     
G 4  22001147.929   115616811.949       -2644.199          32.000  
G14  21940738.042   115299393.833       -2096.242          30.000  
C 9  36913101.610   192216175.830        -863.314          29.000  
G31  22801666.298   119823561.495       -1040.008          32.000  
C 6  37577021.515                       -1403.427          21.000  
G32  23615504.196                       -3337.693          26.000  
G26  21609784.275                       -1622.924          25.000  
G27  23139866.421                        2939.721          20.000  
C 1  37810198.161   196887592.3413       -350.358          30.000  
C10  37981642.148                        -714.836          18.000  
G22  23919741.815   125699235.387       -1351.812          27.000  
C 7  37700421.489   196315941.735        -718.475          27.000  
G16  21349893.872   112194389.227         179.210          28.000  
G 3  24130931.020                        -643.324          21.000  
C14  25785180.580   134270182.963         977.380          32.000  
G23  25263211.734   132758928.6962       3057.110          28.000  
C 8  40820957.998                        1196.521          10.000  
> 2017 12 11 12  5 40.0030000  0 18                     
G 4  22001651.063   115619455.484       -2643.503          34.000  
G14  21941137.015   115301489.491       -2095.675          30.000  
C 9  36913267.361   192217038.879        -862.563          29.000  
G31  22801861.073   119824600.745       -1038.525          32.000  
C 6  37577292.186                       -1409.878          21.000  
G32  23616138.006                       -3336.283          25.000  
G26  21610090.858                       -1622.663          25.000  
G27  23139306.565                        2948.335          20.000  
C 1  37810265.318   196887941.9252       -349.185          30.000  
C10  37981779.612                        -716.574          17.000  
G22  23919997.007   125700586.976       -1351.544          27.000  
C 7  37700558.630   196316659.716        -717.653          26.000  
G16  21349862.684   112194209.836         179.876          28.000  
G 3  24131053.255                        -643.324          22.000  
C14  25784993.012   134269206.188         977.014          32.000  
G23  25262632.164   132755870.8022       3058.274          28.000  
G29  25654882.041                       -3092.948          25.000  
C 8  40820726.578                        1196.521          12.000  
> 2017 12 11 12  5 41.0030000  0 18                     
G 4  22002154.240   115622099.527       -2644.464          34.000  
G14  21941538.841   115303585.778       -2097.187          31.000  
C 9  36913431.257   192217902.180        -862.922          29.000  
G31  22802059.016   119825640.471       -1040.399          32.000  
C 6  37577562.625                       -1393.484          21.000  
G32  23616770.057                       -3341.093          25.000  
G26  21610399.905                       -1623.900          25.000  
G27  23138744.381                        2936.298          20.000  
C 1  37810332.344   196888290.6713       -350.301          30.000  
C10  37981917.478                        -716.574          16.000  
G22  23920252.487   125701939.040       -1352.360          27.000  
C 7  37700695.527   196317377.776        -718.903          26.000  
G16  21349829.481   112194031.206         177.089          28.000  
G 3  24131174.089                        -643.324          21.000  
C14  25784805.902   134268230.003         975.078          33.000  
G23  25262048.585   132752813.2582       3056.954          28.000  
G29  25655471.125                       -3096.614          23.000  
C 8  40820496.170                        1196.521          13.000  
> 2017 12 11 12  5 42.0030000  0 16                     
G 4  22002657.618   115624744.985       -2645.652          34.000  
G14  21941937.220   115305683.877       -2098.485          30.000  
C 9  36913602.732   192218767.071        -865.224          29.000  
G31  22802254.768   119826681.421       -1042.065          32.000  
C 6  37577832.601                       -1404.941          21.000  
G32  23617405.432                       -3340.758          25.000  
G26  21610712.116   113565058.3673      -1624.545          26.000  
G27  23138181.031                        2943.962          22.000  
C 1  37810399.606   196888641.6782       -350.600          30.000  
C10  37982053.860                        -719.677          16.000  
G22  23920508.207   125703292.826       -1354.560          27.000  
G16  21349797.808   112193854.339         176.185          28.000  
C14  25784618.722   134267255.551         973.602          32.000  
G23  25261463.505   132749756.9532       3055.876          29.000  
G29  25656060.328                       -3096.614          20.000  
C 8  40820267.371                        1196.521          13.000  
> 2017 12 11 12  5 43.0030000  0 16                     
G 4  22003161.497   115627391.133       -2645.476          34.000  
G14  21942337.480   115307782.893       -2098.516          30.000  
C 9  36913766.686   192219632.450        -865.250          29.000  
G31  22802455.053   119827722.657       -1040.518          31.000  
C 6  37578101.623                       -1409.781          21.000  
G32  23618043.111                       -3339.959          26.000  
G26  21611024.588   113566682.9432      -1624.075          26.000  
G27  23137617.476                        2945.831          21.000  
C 1  37810467.191   196888993.0713       -349.807          30.000  
C10  37982192.415                        -710.478          18.000  
G22  23920764.145   125704647.365       -1354.624          27.000  
G16  21349761.996   112193678.464         175.761          28.000  
C14  25784431.578   134266281.917         973.317          33.000  
G23  25260884.856   132746701.166        3055.763          27.000  
G29  25656649.477                       -3098.254          20.000  
C 8  40820038.538                        1196.521          13.000  
> 2017 12 11 12  5 44.0030000  0 18                     
G 4  22003665.154   115630037.600       -2645.873          33.000  
G14  21942729.857   115309882.524       -2100.006          29.000  
C 9  36913927.873   192220498.096        -866.213          28.000  
G31  22802652.511   119828764.172       -1041.124          33.000  
C 6  37578371.438                       -1408.754          20.000  
G32  23618682.003   124116993.7143      -3340.804          27.000  
G26  21611335.106   113568308.0072      -1625.995          27.000  
G27  23137055.470                        2942.829          22.000  
C 1  37810534.213   196889342.5492       -350.672          30.000  
C10  37982330.171                        -712.347          20.000  
G22  23921021.801   125706002.330       -1355.668          27.000  
C 7  37701109.656   196319539.8873       -720.126          27.000  
G16  21349725.080   112193503.107         175.377          28.000  
G 3  24131540.870                        -643.324          21.000  
C14  25784244.795   134265308.770         972.871          34.000  
G23  25260306.338   132743645.419        3055.311          26.000  
G29  25657237.018                       -3096.909          20.000  
C 8  40819807.719                        1196.521          13.000  
> 2017 12 11 12  5 45.0030000  0 18                     
G 4  22004168.519   115632684.272       -2646.648          32.000  
G14  21943130.445   115311982.623       -2099.758          28.000  
C 9  36914095.753   192221363.776        -865.452          27.000  
G31  22802855.819   119829805.657       -1041.469          31.000  
C 6  37578642.798                       -1409.870          19.000  
G32  23619321.750   124120334.2182      -3340.595          27.000  
G26  21611645.751   113569933.1852      -1624.581          26.000  
G27  23136494.136                        2940.770          22.000  
C 1  37810601.531   196889692.9943       -351.433          29.000  
C10  37982467.160                        -716.830          20.000  
G22  23921277.416   125707357.494       -1355.448          27.000  
C 7  37701248.909   196320259.3622       -719.685          27.000  
G16  21349690.607   112193328.192         174.970          28.000  
G 3  24131666.948                        -651.703          23.000  
C14  25784058.078   134264336.044         972.770          33.000  
G23  25259723.618   132740589.693        3056.260          26.000  
G29  25657825.203                       -3092.955          20.000  
C 8  40819577.891                        1196.521          11.000  
> 2017 12 11 12  5 46.0030000  0 17                     
G 4  22004672.538   115635330.983       -2646.382          32.000  
G14  21943529.884   115314083.123       -2101.156          27.000  
C 9  36914264.985   192222229.506        -865.799          26.000  
G31  22803051.475   119830846.979       -1040.546          32.000  
C 6  37578914.611                       -1407.612          19.000  
G32  23619958.923   124123674.9212      -3341.177          27.000  
G26  21611952.338   113571558.6102      -1625.034          27.000  
G27  23135934.542                        2943.036          22.000  
C 1  37810669.116                        -356.348          29.000  
C10  37982604.489                        -715.142          20.000  
G22  23921538.960   125708712.868       -1355.129          28.000  
C 7  37701386.586   196320978.5672       -718.796          27.000  
G16  21349656.675   112193153.612         174.679          28.000  
G 3  24131791.141                        -657.230          24.000  
C14  25783871.613   134263363.596         972.499          34.000  
G23  25259143.132   132737533.857        3056.012          26.000  
G29  25658414.480                       -3094.295          19.000  
> 2017 12 11 12  5 47.0030000  0 17                     
G 4  22005176.456   115637977.917       -2646.963          33.000  
G14  21943924.155   115316183.995       -2101.040          27.000  
C 9  36914429.951   192223095.333        -865.742          26.000  
G31  22803248.209   119831888.425       -1041.341          33.000  
C 6  37579184.016                       -1403.572          20.000  
G32  23620596.366   124127015.8342      -3341.000          26.000  
G26  21612265.242   113573184.2912      -1625.226          28.000  
G27  23135374.408                        2944.244          20.000  
C 1  37810736.487   196890394.8962       -350.518          29.000  
C10  37982743.807                        -713.448          19.000  
G22  23921797.555   125710068.629       -1355.871          28.000  
C 7  37701525.743   196321697.7632       -719.363          28.000  
G16  21349625.409   112192979.556         174.109          28.000  
G 3  24131915.644                        -644.241          25.000  
C14  25783684.961   134262391.547         971.815          34.000  
G23  25258564.457   132734651.5853       3057.239          27.000  
G29  25659006.051                       -3101.881          18.000  
> 2017 12 11 12  5 48.0030000  0 16                     
G 4  22005680.192   115640625.079       -2646.479          36.000  
G14  21944327.102   115318285.414       -2101.490          27.000  
C 9  36914595.497   192223961.397        -866.340          28.000  
G31  22803450.400   119832929.799       -1040.726          33.000  
C 6  37579455.982                       -1401.992          21.000  
G32  23621228.915                       -3340.746          25.000  
G27  23134817.798                        2939.124          19.000  
C 1  37810803.832   196890746.0883       -351.053          29.000  
C10  37982882.183                        -717.632          19.000  
G22  23922059.269   125711424.656       -1356.049          28.000  
C 7  37701664.835   196322416.8782       -718.863          28.000  
G16  21349589.335   112192805.988         173.464          27.000  
G 3  24132040.169                        -651.889          26.000  
C14  25783498.728   134261419.957         971.845          33.000  
G23  25257984.900   132731595.9112       3055.692          26.000  
G29  25659596.182                       -3101.881          15.000  
> 2017 12 11 12  5 49.0030000  0 18                     
G 4  22006183.713   115643272.345       -2647.333          35.000  
G14  21944726.420   115320315.1213      -2101.662          27.000  
C 9  36914762.556   192224827.338        -864.806          27.000  
G31  22803644.302   119833971.256       -1041.361          31.000  
C 6  37579725.287                       -1408.067          21.000  
G32  23621860.778                       -3341.414          24.000  
G26  21612893.533                       -1624.685          21.000  
G27  23134259.339                        2939.575          20.000  
C 1  37810871.098                        -349.609          29.000  
C10  37983019.040                        -710.889          19.000  
G22  23922321.642   125712780.966       -1356.003          28.000  
C 7  37701801.068   196323135.7532       -718.622          28.000  
G16  21349550.199   112192632.833         173.134          28.000  
G 3  24132163.987   126815377.2452       -651.439          26.000  
C14  25783312.181   134260448.652         971.582          33.000  
G23  25257403.943   132728539.9922       3057.891          25.000  
G29  25660182.702                       -3090.324          17.000  
C 4  39299725.242                        -362.061          27.000  
> 2017 12 11 12  5 50.0030000  0 18                     
G 4  22006687.279   115645918.314       -2646.998          33.000  
G14  21945128.739   115322429.7762      -2100.459          27.000  
C 9  36914930.763   192225692.072        -864.305          26.000  
G31  22803841.791   119835011.061       -1039.039          31.000  
C 6  37579996.900                       -1414.556          21.000  
G32  23622492.280                       -3340.114          25.000  
G26  21613201.917                       -1620.215          22.000  
G27  23133702.088                        2945.078          21.000  
C 1  37810937.671   196891442.5322       -348.808          29.000  
C10  37983153.503                        -704.274          20.000  
G22  23922582.649   125714136.043       -1354.668          28.000  
C 7  37701937.250   196323853.0402       -716.788          27.000  
G16  21349520.149   112192458.560         174.317          28.000  
G 3  24132291.064   126816027.9762       -650.864          27.000  
C14  25783125.603   134259476.330         972.454          34.000  
G23  25256818.445                        3058.537          25.000  
G29  25660771.075                       -3099.454          18.000  
C 4  39299786.706                        -331.641          27.000  
> 2017 12 11 12  5 51.0030000  0 18                     
G 4  22007190.582   115648564.781       -2647.180          33.000  
G14  21945527.463   115324531.3432      -2102.320          26.000  
C 9  36915098.124   192226557.250        -866.568          26.000  
G31  22804040.257   119836051.325       -1040.968          30.000  
C 6  37580268.006                       -1405.122          20.000  
G32  23623126.451                       -3341.571          25.000  
G26  21613503.850                       -1634.801          23.000  
G27  23133142.943                        2936.802          22.000  
C 1  37811004.740   196891792.3173       -349.283          29.000  
C10  37983288.589                        -706.546          20.000  
G22  23922843.827   125715491.841       -1356.830          28.000  
C 7  37702074.317   196324570.1001       -718.370          28.000  
G16  21349488.228   112192285.150         172.364          28.000  
G 3  24132417.068   126816679.5562       -652.862          26.000  
C14  25782938.746   134258504.672         971.160          34.000  
G23  25256229.526                        3054.979          25.000  
G29  25661359.536                       -3095.071          18.000  
C 4  39299851.760                        -348.584          27.000  
> 2017 12 11 12  5 52.0030000  0 18                     
G 4  22007694.270   115651212.858       -2648.545          33.000  
G14  21945927.204                       -2103.191          26.000  
C 9  36915262.082                        -867.339          26.000  
G31  22804238.090   119837092.899       -1041.834          31.000  
C 6  37580536.334                       -1408.042          21.000  
G32  23623765.042                       -3343.152          25.000  
G26  21613817.941                       -1623.835          21.000  
G27  23132584.458                        2932.479          21.000  
C 1  37811072.172                        -347.168          29.000  
C10  37983424.173                        -716.656          20.000  
G22  23923106.269   125716849.233       -1358.150          29.000  
C 7  37702211.380   196325288.754        -718.725          28.000  
G16  21349457.931   112192113.600         171.273          29.000  
G 3  24132540.480   126817332.8652       -653.820          26.000  
C14  25782752.190   134257534.797         969.466          34.000  
G23  25255642.815   132719298.3223       3055.117          26.000  
G29  25661948.105                       -3095.071          16.000  
C 4  39299921.565                        -371.973          27.000  
> 2017 12 11 12  5 53.0030000  0 18                     
G 4  22008198.511   115653861.358       -2648.291          34.000  
G14  21946328.009                       -2104.860          26.000  
C 9  36915428.915                        -871.317          25.000  
G31  22804432.769   119838134.767       -1042.840          33.000  
C 6  37580807.890                       -1412.843          20.000  
G32  23624407.577   124147099.3273      -3343.482          27.000  
G26  21614126.748                       -1628.314          20.000  
G27  23132027.713                        2940.266          20.000  
C 1  37811139.570   196892494.1852       -351.115          30.000  
C10  37983562.759                        -724.230          21.000  
G22  23923373.550   125718207.184       -1357.966          29.000  
C 7  37702353.856   196326007.715        -719.318          29.000  
G16  21349424.286   112191942.826         169.991          28.000  
G 3  24132664.821   126817986.8892       -654.917          26.000  
C14  25782566.215   134256565.623         968.584          34.000  
G23  25255058.023                        3057.052          25.000  
G29  25662538.219                       -3106.390          17.000  
C 4  39299991.576                        -358.105          27.000  
> 2017 12 11 12  5 54.0030000  0 18                     
G 4  22008702.918   115656510.301       -2649.574          36.000  
G14  21946728.863   115330837.7973      -2105.573          28.000  
C 9  36915595.399                        -866.685          26.000  
G31  22804632.705   119839176.802       -1042.548          34.000  
C 6  37581077.003                       -1412.364          20.000  
G32  23625050.643   124150442.8772      -3344.043          27.000  
G26  21614438.409                       -1627.060          28.000  
G27  23131469.664                        2946.969          20.000  
C 1  37811207.146                        -361.963          30.000  
C10  37983699.682                        -712.740          20.000  
G22  23923634.544   125719565.636       -1359.063          29.000  
C 7  37702491.613   196326726.639        -718.734          29.000  
G16  21349395.607   112191831.0213        170.311          28.000  
G 3  24132788.945   126818641.4042       -654.815          26.000  
C14  25782380.073   134255596.933         968.544          33.000  
G23  25254471.818                        3049.931          23.000  
G29  25663130.091                       -3094.292          17.000  
C 4  39300061.581                        -350.635          27.000  
> 2017 12 11 12  5 55.0030000  0 18                     
G 4  22009207.496   115659159.314       -2648.658          35.000  
G14  21947132.168   115332943.0112      -2105.150          28.000  
C 9  36915760.464                        -868.757          25.000  
G31  22804831.868   119840218.807       -1042.061          37.000  
C 6  37581348.183                       -1410.498          20.000  
G32  23625693.893   124153786.7342      -3343.509          25.000  
G26  21614733.946   113586193.3363      -1628.485          34.000  
G27  23130909.883                        2943.188          20.000  
C 1  37811274.826                        -354.102          28.000  
C10  37983836.116                        -712.740          18.000  
G22  23923884.086   125720924.320       -1358.314          29.000  
C 7  37702627.410   196327445.618        -719.086          28.000  
G16  21349352.967   112191661.4052        169.309          28.000  
G 3  24132912.113   126819296.5882       -654.869          25.000  
C14  25782197.958   134254628.809         967.664          31.000  
G23  25253888.824                        3055.952          24.000  
G29  25663718.718                       -3101.760          19.000  
C 4  39300131.033                        -362.061          28.000  
> 2017 12 11 12  5 56.0030000  0 18                     
G 4  22009712.086   115661808.612       -2649.706          35.000  
G14  21947537.763   115335048.6722      -2105.584          28.000  
C 9  36915926.612                        -867.886          24.000  
G31  22805031.608   119841260.817       -1041.542          37.000  
C 6  37581618.875                       -1403.206          20.000  
G32  23626332.597                       -3343.746          24.000  
G26  21615047.985   113587821.9842      -1628.546          33.000  
G27  23130351.537                        2938.880          19.000  
C 1  37811341.652                        -358.740          28.000  
C10  37983971.530                        -704.434          15.000  
G22  23924145.630   125722283.534       -1359.372          29.000  
C 7  37702763.810   196328153.7473       -718.466          27.000  
G16  21349328.075   112191492.1452        169.148          29.000  
G 3  24133034.129                        -654.820          24.000  
C14  25782004.846   134253660.978         967.236          26.000  
G23  25253288.104   132706924.1952       3055.480          30.000  
G29  25664309.826                       -3106.560          19.000  
C 4  39300200.647   204646426.2633       -357.586          28.000  
> 2017 12 11 12  5 57.0030000  0 18                     
G 4  22010216.232   115664457.917       -2649.855          36.000  
G14  21947938.433   115337154.5652      -2105.244          27.000  
C 9  36916093.153                        -866.858          23.000  
G31  22805230.972   119842302.730       -1042.203          37.000  
C 6  37581890.401                       -1406.061          20.000  
G32  23626968.496                       -3344.397          24.000  
G26  21615358.058   113589450.6882      -1628.248          28.000  
G27  23129793.854                        2939.783          20.000  
C 1  37811409.873                        -344.141          29.000  
C10  37984109.592                        -718.101          16.000  
G22  23924414.494   125723642.809       -1359.372          29.000  
C 7  37702900.484   196328865.2402       -718.320          28.000  
G16  21349298.148   112191323.2942        168.506          29.000  
G 3  24133161.708                        -656.100          25.000  
C14  25781818.735   134252693.399         966.815          29.000  
G23  25252700.599   132703869.0242       3054.748          29.000  
G29  25664900.176                       -3100.351          20.000  
C 4  39300269.444                        -362.158          28.000  
> 2017 12 11 12  5 58.0030000  0 17                     
G 4  22010720.434   115667107.492       -2649.486          35.000  
G14  21948344.687   115339261.0402      -2106.446          26.000  
C 9  36916258.555                        -870.214          22.000  
G31  22805427.641   119843344.648       -1041.979          36.000  
C 6  37582159.588                       -1403.884          19.000  
G32  23627602.921                       -3344.100          25.000  
G27  23129237.201                        2941.783          20.000  
C 1  37811477.310   196894252.8952       -349.598          30.000  
C10  37984247.575                        -708.820          19.000  
G22  23924678.992   125725002.436       -1359.940          29.000  
C 7  37703042.791   196329583.6382       -717.931          30.000  
G16  21349263.164   112191154.8872        168.016          28.000  
G 3  24133295.420   126821322.5103       -656.487          27.000  
C14  25781632.899   134251726.309         966.482          34.000  
G23  25252120.022   132700813.8192       3055.828          28.000  
G29  25665493.645                       -3107.061          19.000  
C 4  39300336.597                        -346.533          27.000  
> 2017 12 11 12  5 59.0030000  0 16                     
G 4  22011224.536   115669757.281       -2649.931          34.000  
G14  21948744.276   115341368.0802      -2107.811          25.000  
C 9  36916425.449                        -871.765          21.000  
G31  22805625.940   119844386.620       -1042.041          36.000  
C 6  37582429.517                       -1405.875          18.000  
G32  23628233.240                       -3344.077          25.000  
G27  23128676.059                        2947.371          19.000  
C 1  37811544.607   196894602.9923       -351.451          30.000  
C10  37984387.050                        -715.654          21.000  
G22  23924933.255   125726362.351       -1360.103          28.000  
C 7  37703181.202   196330301.9392       -717.761          31.000  
G16  21349232.535   112190986.9922        167.763          28.000  
G 3  24133429.752   126821979.2962       -656.877          28.000  
C14  25781448.297   134250759.620         966.209          33.000  
G23  25251535.675   132697758.7482       3054.980          28.000  
G29  25666086.381                       -3091.936          17.000  
> 2017 12 11 12  6  0.0030000  0 17                     
G 4  22011728.978   115672406.748       -2649.225          34.000  
G14  21949136.369   115343475.0332      -2106.379          26.000  
C 9  36916590.715                        -870.981          21.000  
G31  22805824.271   119845428.079       -1041.013          36.000  
C 6  37582702.268                       -1411.654          18.000  
G32  23628865.562                       -3344.461          25.000  
G26  21616290.458   113594372.2213      -1628.007          24.000  
G27  23128116.168                        2942.691          18.000  
C 1  37811611.969   196894954.4513       -349.915          30.000  
C10  37984524.017                        -707.160          23.000  
G22  23925186.322   125727722.070       -1359.843          28.000  
C 7  37703315.625   196331019.6522       -716.991          31.000  
G16  21349201.168   112190818.9462        168.936          28.000  
G 3  24133560.022   126822635.9522       -655.913          28.000  
C14  25781260.803   134249792.727         967.670          32.000  
G23  25250957.440   132694703.1582       3056.319          29.000  
G29  25666678.279                       -3105.381          16.000  
> 2017 12 11 12  6  1.0030000  0 16                     
G 4  22012233.036   115675055.332       -2649.401          35.000  
G14  21949534.408   115345581.403       -2106.543          25.000  
C 9  36916757.256                        -864.397          21.000  
G31  22806022.296   119846468.456       -1040.846          37.000  
C 6  37582973.082                       -1402.607          18.000  
G32  23629503.101                       -3344.933          26.000  
G27  23127555.942                        2936.049          17.000  
C 1  37811678.903   196895303.8542       -349.991          30.000  
C10  37984662.480                        -704.174          23.000  
G22  23925448.935   125729080.901       -1358.787          28.000  
C 7  37703457.303   196331736.1572       -716.322          30.000  
G16  21349168.331   112190649.8761        168.370          28.000  
G 3  24133687.212   126823292.0862       -656.930          27.000  
C14  25781079.016   134248825.235         967.662          32.000  
G23  25250373.168   132691646.4432       3056.861          28.000  
G29  25667273.214                       -3105.148          16.000  
> 2017 12 11 12  6  2.0030000  0 17                     
G 4  22012737.609   115677705.312       -2651.171          35.000  
G14  21949935.798   115347689.451       -2109.777          26.000  
C 9  36916924.036                        -867.880          21.000  
G31  22806220.805   119847510.044       -1042.584          36.000  
C 6  37583245.210                       -1409.494          19.000  
G32  23630140.675                       -3346.416          25.000  
G26  21616914.207                       -1641.564          22.000  
G27  23126993.570                        2943.019          16.000  
C 1  37811746.314   196895654.3382       -351.094          30.000  
C10  37984799.770                        -714.865          23.000  
G22  23925705.401   125730441.340       -1361.611          28.000  
C 7  37703591.487   196332453.7382       -718.370          31.000  
G16  21349139.237   112190482.937         165.899          28.000  
G 3  24133816.706   126823949.8322       -658.702          28.000  
C14  25780892.739   134247859.397         964.249          32.000  
G23  25249790.706   132688591.0252       3054.745          28.000  
G29  25667863.921                       -3095.969          16.000  
> 2017 12 11 12  6  3.0030000  0 16                     
G 4  22013241.938   115680356.562       -2651.883          36.000  
G14  21950335.705   115349799.060       -2110.163          26.000  
C 9  36917094.385                        -874.408          21.000  
G31  22806419.502   119848552.710       -1042.931          36.000  
C 6  37583516.286                       -1409.800          19.000  
G32  23630779.777                       -3346.960          26.000  
G27  23126431.472                        2943.019          15.000  
C 1  37811813.929   196896005.9582       -353.103          30.000  
C10  37984938.433                        -716.471          22.000  
G22  23925963.027   125731803.154       -1362.151          28.000  
C 7  37703727.206   196333172.3772       -719.340          30.000  
G16  21349104.830   112190317.593         164.698          28.000  
G 3  24133946.082   126824609.0352       -659.073          29.000  
C14  25780708.609   134246894.969         964.319          33.000  
G23  25249212.606   132685536.5822       3054.594          28.000  
G29  25668452.447                       -3095.969          15.000  
> 2017 12 11 12  6  4.0030000  0 17                     
G 4  22013746.965   115683008.257       -2652.067          37.000  
G14  21950740.293   115351909.339       -2110.379          27.000  
C 9  36917260.895                        -864.410          22.000  
G31  22806618.038   119849595.677       -1043.351          34.000  
C 6  37583785.416                       -1403.647          19.000  
G32  23631419.829                       -3346.955          27.000  
G26  21617531.482                       -1632.251          29.000  
G27  23125874.273                        2934.289          17.000  
C 1  37811881.435   196896357.6523       -351.691          30.000  
C10  37985075.762                        -710.672          22.000  
G22  23926221.704   125733165.585       -1362.922          28.000  
C 7  37703865.451   196333891.0132       -718.413          29.000  
G16  21349072.843   112190152.968         164.496          28.000  
G 3  24134061.175   126825269.0502       -660.764          30.000  
C14  25780523.566   134245931.214         963.427          34.000  
G23  25248631.283   132682452.6513       3053.816          26.000  
G29  25669044.799                       -3099.981          16.000  
> 2017 12 11 12  6  5.0030000  0 17                     
G 4  22014251.856   115685660.186       -2651.968          37.000  
G14  21951143.253   115354020.179       -2111.404          28.000  
C 9  36917428.622                        -859.511          22.000  
G31  22806816.665   119850638.676       -1042.986          34.000  
C 6  37584055.894                       -1403.791          19.000  
G32  23632056.631   124187295.3403      -3348.125          27.000  
G26  21617832.669   113602526.5402      -1631.580          31.000  
G27  23125316.639                        2933.908          17.000  
C 1  37811949.111   196896709.3942       -351.301          31.000  
C10  37985213.231                        -713.512          23.000  
G22  23926481.660   125734528.233       -1362.892          28.000  
C 7  37704009.703   196334609.6692       -719.299          28.000  
G16  21349038.144   112189988.810         163.843          28.000  
G 3  24134188.932   126825929.5532       -661.659          30.000  
C14  25780338.564   134244967.854         963.142          34.000  
G23  25248053.083                        3057.091          25.000  
G29  25669635.729                       -3099.981          16.000  
> 2017 12 11 12  6  6.0030000  0 17                     
G 4  22014756.294   115688312.247       -2651.744          37.000  
G14  21951547.967   115356131.384       -2111.390          28.000  
C 9  36917597.196                        -871.935          23.000  
G31  22807015.423   119851681.633       -1043.702          33.000  
C 6  37584327.642                       -1413.129          19.000  
G32  23632694.890   124190643.1872      -3348.197          28.000  
G26  21618144.905   113604158.7732      -1631.940          30.000  
G27  23124761.997                        2942.507          17.000  
C 1  37812016.805   196897062.0113       -351.914          31.000  
C10  37985352.366                        -716.368          23.000  
G22  23926738.292   125735891.258       -1363.157          27.000  
C 7  37704146.365   196335328.1092       -718.554          28.000  
G16  21349007.619   112189825.093         163.737          28.000  
G 3  24134313.933   126826590.3392       -661.244          30.000  
C14  25780153.648   134244004.927         963.154          34.000  
G23  25247472.143                        3049.285          25.000  
G29  25670227.679                       -3099.981          15.000  
> 2017 12 11 12  6  7.0030000  0 17                     
G 4  22015260.824   115690964.390       -2652.096          37.000  
G14  21951950.627   115358243.013       -2112.119          29.000  
C 9  36917766.271                        -872.004          24.000  
G31  22807214.111   119852724.418       -1043.045          34.000  
C 6  37584596.847                       -1411.617          19.000  
G32  23633328.211   124193991.1882      -3348.612          27.000  
G26  21618460.445   113605791.0752      -1631.823          29.000  
G27  23124205.034                        2932.979          17.000  
C 1  37812084.381   196897414.4803       -351.509          31.000  
C10  37985490.235                        -711.350          23.000  
G22  23926993.039   125737254.419       -1363.862          27.000  
C 7  37704285.216   196336046.3312       -718.441          27.000  
G16  21348978.241   112189661.733         163.388          29.000  
G 3  24134438.562   126827250.9381       -661.136          30.000  
C14  25779968.606   134243042.185         963.105          34.000  
G23  25246892.504                        3052.450          24.000  
G29  25670822.549                       -3110.947          15.000  
> 2017 12 11 12  6  8.0030000  0 17                     
G 4  22015765.672   115693616.618       -2652.388          37.000  
G14  21952351.650   115360354.871       -2112.107          29.000  
C 9  36917933.553                        -861.587          24.000  
G31  22807412.690   119853767.126       -1042.325          34.000  
C 6  37584866.745                       -1409.139          18.000  
G32  23633964.476   124197339.4392      -3348.692          27.000  
G26  21618770.413   113607423.7172      -1633.136          29.000  
G27  23123647.591                        2932.194          17.000  
C 1  37812151.822   196897765.7332       -352.040          30.000  
C10  37985625.963                        -705.367          22.000  
G22  23927249.117                       -1362.859          26.000  
C 7  37704423.941   196336764.3172       -717.861          27.000  
G16  21348947.638   112189498.733         162.536          29.000  
G 3  24134565.093   126827912.490        -662.036          30.000  
C14  25779784.035   134242079.835         962.304          34.000  
G23  25246315.922                        3047.325          23.000  
G29  25671413.182                       -3110.947          14.000  
> 2017 12 11 12  6  9.0030000  0 17                     
G 4  22016270.633   115696268.957       -2652.211          37.000  
G14  21952754.353   115362467.182       -2112.754          29.000  
C 9  36918100.120                        -864.210          24.000  
G31  22807611.356   119854809.737       -1042.153          34.000  
C 6  37585139.396                       -1423.475          18.000  
G32  23634600.454   124200687.8022      -3348.927          27.000  
G26  21619081.520   113609056.4522      -1633.276          32.000  
G27  23123089.018                        2932.194          16.000  
C 1  37812219.385   196898116.8703       -350.887          30.000  
C10  37985762.520                        -723.744          22.000  
G22  23927504.335                       -1363.274          26.000  
C 7  37704560.340   196337481.6291       -718.206          26.000  
G16  21348917.859   112189336.114         162.515          29.000  
G 3  24134690.705   126828574.349        -661.579          30.000  
C14  25779599.468   134241117.790         961.832          34.000  
G23  25245738.656                        3056.589          23.000  
G29  25672001.507                       -3087.620          15.000  
> 2017 12 11 12  6 10.0030000  0 17                     
G 4  22016775.498   115698921.181       -2651.824          37.000  
G14  21953158.657   115364579.636       -2111.327          30.000  
C 9  36918266.268                        -869.925          25.000  
G31  22807810.114   119855852.092       -1042.517          34.000  
C 6  37585410.651                       -1410.411          19.000  
G32  23635242.347   124204036.1502      -3347.809          27.000  
G26  21619394.568   113610689.0962      -1632.861          31.000  
G27  23122527.505                        2939.107          16.000  
C 1  37812286.847   196898467.6942       -350.984          31.000  
C10  37985899.522                        -710.815          21.000  
G22  23927760.988                       -1363.072          26.000  
C 7  37704696.949   196338199.006        -716.751          26.000  
G16  21348887.007   112189173.655         162.473          29.000  
G 3  24134811.979   126829236.314        -662.115          30.000  
C14  25779414.736   134240155.746         962.231          34.000  
G23  25245160.543                        3055.581          23.000  
G29  25672589.977                       -3087.620          14.000  
> 2017 12 11 12  6 11.0030000  0 17                     
G 4  22017280.110   115701572.444       -2651.829          38.000  
G14  21953557.626   115366691.439       -2112.275          30.000  
C 9  36918435.439   192243949.7313       -866.706          26.000  
G31  22808008.480   119856893.187       -1040.939          34.000  
C 6  37585682.591                       -1403.086          20.000  
G32  23635883.067   124207383.6132      -3347.245          27.000  
G26  21619698.485   113612320.8322      -1631.977          29.000  
G27  23121968.121                        2935.542          17.000  
C 1  37812353.908   196898817.2412       -349.311          31.000  
C10  37986037.719                        -723.398          21.000  
G22  23928020.303                       -1361.708          26.000  
C 7  37704831.578   196338915.041        -715.612          25.000  
G16  21348856.993   112189010.406         163.062          29.000  
G 3  24134931.792   126829897.563        -661.296          29.000  
C14  25779229.860   134239193.007         962.585          34.000  
G23  25244577.610                        3075.169          22.000  
G29  25673177.517                       -3087.620          12.000  
> 2017 12 11 12  6 12.0030000  0 17                     
G 4  22017785.015   115704224.242       -2652.834          38.000  
G14  21953960.224   115368803.980       -2112.358          30.000  
C 9  36918601.242                        -871.585          26.000  
G31  22808206.884   119857934.743       -1042.558          34.000  
C 6  37585951.533                       -1411.881          21.000  
G32  23636525.287   124210731.8152      -3348.812          27.000  
G26  21620017.301   113613953.2562      -1633.560          29.000  
G27  23121407.105                        2935.542          17.000  
C 1  37812421.109   196899168.0893       -349.695          30.000  
C10  37986174.755                        -706.369          21.000  
G22  23928274.858                       -1364.300          25.000  
C 7  37704971.084   196339631.430        -716.839          25.000  
G16  21348824.841   112188848.111         161.412          28.000  
G 3  24135052.805   126830559.702        -663.200          29.000  
C14  25779045.101   134238231.095         961.243          33.000  
G23  25243996.819                        3062.083          23.000  
G29  25673764.756                       -3087.620          11.000  
> 2017 12 11 12  6 13.0030000  0 17                     
G 4  22018290.413   115706877.787       -2654.135          39.000  
G14  21954364.363   115370918.655       -2114.808          31.000  
C 9  36918767.848   192245680.9372       -870.927          27.000  
G31  22808405.481   119858977.786       -1043.198          34.000  
C 6  37586221.545                       -1411.693          21.000  
G32  23637160.837   124214081.771       -3350.234          27.000  
G26  21620328.085   113615586.8831      -1635.420          27.000  
G27  23120845.260                        2934.496          17.000  
C 1  37812488.873                        -351.099          30.000  
C10  37986312.433                        -719.759          19.000  
G22  23928533.505                       -1366.556          25.000  
C 7  37705107.496                        -716.702          23.000  
G16  21348790.220   112188687.791         159.723          28.000  
G 3  24135185.034   126831223.699        -664.457          29.000  
C14  25778860.329   134237271.015         959.371          33.000  
G23  25243419.095                        3057.677          22.000  
G29  25674354.839                       -3118.870          10.000  
> 2017 12 11 12  6 14.0030000  0 17                     
G 4  22018795.758   115709532.001       -2654.177          39.000  
G14  21954766.176   115373034.211       -2116.453          30.000  
C 9  36918935.719   192246552.1102       -870.941          28.000  
G31  22808604.571   119860021.332       -1042.902          32.000  
C 6  37586492.625                       -1406.873          21.000  
G32  23637798.882   124217432.522       -3351.030          26.000  
G26  21620636.862   113617221.937       -1635.083          28.000  
G27  23120283.795                        2930.032          17.000  
C 1  37812556.697                        -351.611          30.000  
C10  37986449.696                        -717.157          18.000  
G22  23928793.993                       -1366.035          25.000  
C 7  37705245.580                        -717.365          22.000  
G16  21348757.152   112188528.481         159.152          27.000  
G 3  24135314.881   126831888.775        -665.639          29.000  
C14  25778676.068   134236311.884         958.398          33.000  
G23  25242839.145                        3056.387          21.000  
G29  25674949.892                       -3114.819          14.000  
> 2017 12 11 12  6 15.0030000  0 17                     
G 4  22019301.408   115712186.301       -2654.442          38.000  
G14  21955170.789   115375150.053       -2115.108          31.000  
C 9  36919102.168   192247423.3182       -871.727          28.000  
G31  22808803.180   119861064.821       -1043.363          31.000  
C 6  37586763.457                       -1409.281          20.000  
G32  23638433.948   124220783.424       -3350.605          26.000  
G26  21620949.016   113618857.116       -1636.078          31.000  
G27  23119722.286                        2926.060          18.000  
C 1  37812624.020   196900223.9012       -352.634          30.000  
C10  37986587.278                        -711.640          16.000  
G22  23929054.062                       -1366.823          25.000  
C 7  37705381.980                        -722.452          21.000  
G16  21348726.875   112188369.406         159.206          27.000  
G 3  24135444.366   126832554.103        -665.389          29.000  
C14  25778491.907   134235352.990         958.964          33.000  
G23  25242263.585                        3056.412          20.000  
G29  25675542.475                       -3115.757          16.000  
> 2017 12 11 12  6 16.0030000  0 17                     
G 4  22019806.736   115714840.649       -2654.156          38.000  
G14  21955570.282   115377266.383       -2116.830          31.000  
C 9  36919270.550   192248294.5102       -870.952          28.000  
G31  22809002.270   119862108.106       -1042.502          31.000  
C 6  37587035.755                       -1414.648          19.000  
G32  23639067.670   124224134.562       -3351.407          26.000  
G26  21621258.338   113620492.343       -1635.126          32.000  
G27  23119165.520                        2942.706          20.000  
C 1  37812691.483   196900575.3723       -351.723          30.000  
C10  37986724.210                        -716.152          16.000  
G22  23929314.018                       -1365.261          25.000  
C 7  37705519.871                        -719.499          20.000  
G16  21348693.838   112188210.841         158.318          27.000  
G 3  24135570.523   126833219.732        -665.933          29.000  
C14  25778307.646   134234394.390         959.168          32.000  
G23  25241685.398                        3051.593          18.000  
G29  25676135.494                       -3115.757          14.000  
> 2017 12 11 12  6 17.0030000  0 17                     
G 4  22020312.164   115717495.284       -2654.474          39.000  
G14  21955974.001   115379383.184       -2116.666          31.000  
C 9  36919436.401   192249165.9472       -871.551          28.000  
G31  22809201.080   119863151.603       -1043.595          33.000  
C 6  37587305.731                       -1408.405          20.000  
G32  23639704.202                       -3370.347          24.000  
G26  21621581.377   113622127.802       -1635.851          25.000  
G27  23118606.855                        2936.569          20.000  
C 1  37812758.993   196900926.7882       -349.632          29.000  
C10  37986860.710                        -716.152          16.000  
G22  23929577.421                       -1367.281          25.000  
C 7  37705656.266                        -721.409          19.000  
G16  21348662.410   112188052.680         157.568          27.000  
G 3  24135697.351   126833885.912        -666.334          29.000  
C14  25778123.813   134233436.260         959.305          32.000  
G23  25241106.884                        3051.754          17.000  
G29  25676728.431                       -3115.757          14.000  
> 2017 12 11 12  6 18.0030000  0 17                     
G 4  22020817.422   115720150.049       -2654.479          39.000  
G14  21956380.329   115381500.383       -2117.874          30.000  
C 9  36919603.522   192250037.4132       -871.570          28.000  
G31  22809400.165   119864194.958       -1043.332          35.000  
C 6  37587578.347                       -1409.282          21.000  
G32  23640342.238                       -3350.817          25.000  
G26  21621893.103                       -1635.409          24.000  
G27  23118046.660                        2937.775          20.000  
C 1  37812826.718   196901277.9962       -347.692          29.000  
C10  37986998.562                        -708.372          15.000  
G22  23929839.091                       -1365.220          25.000  
C 7  37705795.297                        -720.508          22.000  
G16  21348632.313   112187819.9243        157.927          27.000  
G 3  24135822.242   126834552.472        -666.993          29.000  
C14  25777940.795   134232478.540         957.700          31.000  
G23  25240528.675                        3056.309          17.000  
G29  25677323.610                       -3115.757          11.000  
> 2017 12 11 12  6 19.0030000  0 17                     
G 4  22021322.567   115722804.957       -2655.018          38.000  
G14  21956783.495   115383618.021       -2118.984          30.000  
C 9  36919769.255   192250908.9542       -872.279          27.000  
G31  22809599.006   119865238.280       -1043.054          37.000  
C 6  37587848.978                       -1409.104          21.000  
G32  23640979.590                       -3352.234          25.000  
G26  21622207.521                       -1634.685          23.000  
G27  23117487.393                        2938.539          19.000  
C 1  37812893.958                        -348.667          30.000  
C10  37987131.106                        -714.706          17.000  
G22  23930099.091                       -1367.263          23.000  
C 7  37705934.327                        -716.700          25.000  
G16  21348604.170   112187662.6702        157.122          28.000  
G 3  24135948.359   126835219.399        -667.151          29.000  
C14  25777757.908   134231521.186         955.681          30.000  
G23  25239945.319                        3061.365          21.000  
G29  25677919.064                       -3115.757          10.000  
> 2017 12 11 12  6 20.0030000  0 16                     
G 4  22021827.742   115725459.983       -2654.773          38.000  
G14  21957183.227   115385736.023       -2118.155          31.000  
C 9  36919935.682   192251780.5062       -871.345          27.000  
G31  22809797.179   119866281.545       -1043.097          37.000  
C 6  37588120.700                       -1409.821          21.000  
G32  23641618.691                       -3352.954          25.000  
G26  21622511.626                       -1639.164          24.000  
G27  23116928.790                        2925.344          18.000  
C 1  37812961.180                        -354.590          29.000  
C10  37987268.927                        -711.265          17.000  
G22  23930354.483                       -1366.135          23.000  
C 7  37706074.740                        -717.346          25.000  
G16  21348576.232   112187505.7882        156.916          28.000  
G 3  24136070.541   126835886.790        -667.728          29.000  
C14  25777571.561   134230564.060         957.250          29.000  
G23  25239364.083                        3052.695          22.000  
> 2017 12 11 12  6 21.0030000  0 16                     
G 4  22022332.825   115728114.461       -2653.660          38.000  
G14  21957588.007   115387853.766       -2117.756          31.000  
C 9  36920102.100   192252651.482        -870.269          27.000  
G31  22809995.414   119867324.069       -1041.650          37.000  
C 6  37588392.740                       -1411.455          21.000  
G32  23642257.073                       -3351.561          25.000  
G26  21622824.644                       -1644.162          23.000  
G27  23116370.222                        2934.189          19.000  
C 1  37813028.556   196902330.9713       -350.454          29.000  
C10  37987402.692                        -716.852          18.000  
G22  23930614.112                       -1364.867          23.000  
C 7  37706211.253                        -714.691          25.000  
G16  21348545.035   112187348.6102        157.653          28.000  
G 3  24136199.821   126836553.813        -667.265          29.000  
C14  25777382.649   134229606.654         957.802          29.000  
G23  25238784.443                        3056.316          23.000  
> 2017 12 11 12  6 22.0030000  0 16                     
G 4  22022837.874   115730768.349       -2654.709          38.000  
G14  21957992.114   115389971.158       -2117.176          31.000  
C 9  36920267.786   192253521.809        -870.997          28.000  
G31  22810193.757   119868365.809       -1042.403          36.000  
C 6  37588663.808                       -1420.255          21.000  
G32  23642896.881                       -3351.533          25.000  
G26  21623137.526                       -1634.729          25.000  
G27  23115811.876                        2939.394          20.000  
C 1  37813095.961                        -351.807          29.000  
C10  37987539.807                        -710.431          17.000  
G22  23930875.555                       -1376.381          22.000  
C 7  37706349.420                        -704.555          24.000  
G16  21348516.391   112187191.0342        157.058          27.000  
G 3  24136328.735   126837220.442        -667.411          29.000  
C14  25777201.486   134228648.879         956.999          30.000  
G23  25238203.425                        3049.243          21.000  
> 2017 12 11 12  6 23.0030000  0 17                     
G 4  22023343.145   115733423.779       -2656.150          37.000  
G14  21958392.073   115392090.398       -2119.670          31.000  
C 9  36920435.875   192254393.670        -873.003          28.000  
G31  22810392.197   119869408.870       -1043.166          36.000  
C 6  37588933.326                       -1413.144          22.000  
G32  23643535.633                       -3352.066          23.000  
G26  21623437.081   113631928.1853      -1637.604          31.000  
G27  23115254.560                        2933.538          21.000  
C 1  37813163.987                        -364.844          29.000  
C10  37987675.653                        -718.004          18.000  
G22  23931138.090                       -1367.902          23.000  
C 7  37706487.564                        -718.332          23.000  
G16  21348488.597   112187035.3922        155.295          27.000  
G 3  24136454.860   126837888.950        -668.749          29.000  
C14  25777021.312   134227692.927         955.164          30.000  
G23  25237623.201                        3052.765          20.000  
C 8  40810721.975                        1210.677          11.000  
> 2017 12 11 12  6 24.0030000  0 17                     
G 4  22023848.516   115736080.144       -2657.035          37.000  
G14  21958796.081   115394210.884       -2121.970          31.000  
C 9  36920604.156   192255266.223        -872.497          28.000  
G31  22810590.938   119870452.720       -1044.300          35.000  
C 6  37589204.664                       -1410.204          21.000  
G32  23644169.747                       -3350.042          23.000  
G26  21623749.928   113633566.0442      -1638.084          29.000  
G27  23114698.774                        2934.625          22.000  
C 1  37813231.820                        -346.631          30.000  
C10  37987813.566                        -717.525          17.000  
G22  23931400.558                       -1369.118          25.000  
C 7  37706624.579                        -709.835          22.000  
G16  21348462.169   112186881.0092        153.375          26.000  
G 3  24136582.805   126838558.656        -669.958          29.000  
C14  25776838.992   134226737.990         954.652          31.000  
G23  25237040.765                        3051.167          19.000  
G29  25680888.602                       -3109.863          14.000  
> 2017 12 11 12  6 25.0030000  0 17                     
G 4  22024353.892   115738736.813       -2656.986          37.000  
G14  21959200.629   115396331.870       -2120.864          31.000  
C 9  36920771.185   192256139.154        -872.847          28.000  
G31  22810789.316   119871496.672       -1044.185          36.000  
C 6  37589476.861                       -1415.855          22.000  
G32  23644807.169                       -3350.740          22.000  
G26  21624061.799   113635204.3182      -1637.720          30.000  
G27  23114144.996                        2928.076          23.000  
C 1  37813299.213   196903739.7722       -350.745          29.000  
C10  37987953.722                        -721.906          18.000  
G22  23931660.143                       -1363.585          25.000  
C 7  37706764.024                        -712.586          22.000  
G16  21348435.483   112186727.018         153.885          26.000  
G 3  24136714.598   126839228.875        -670.615          29.000  
C14  25776651.682   134225783.584         954.541          30.000  
G23  25236455.306                        3057.077          19.000  
G29  25681479.340                       -3115.326          15.000  
> 2017 12 11 12  6 26.0030000  0 18                     
G 4  22024859.355   115741393.732       -2657.009          37.000  
G14  21959604.624   115398453.444       -2121.740          31.000  
C 9  36920938.625   192257012.252        -873.388          28.000  
G31  22810987.995   119872540.696       -1043.370          36.000  
C 6  37589749.307                       -1418.001          22.000  
G32  23645444.329                       -3355.439          21.000  
G26  21624374.589   113636842.9562      -1638.049          30.000  
G27  23113591.379                        2926.710          24.000  
C 1  37813365.685                        -352.246          29.000  
C10  37988090.174                        -714.525          17.000  
G22  23931920.553                       -1364.028          25.000  
C 7  37706897.876                        -719.019          22.000  
G16  21348404.670   112186573.793         152.761          26.000  
G 3  24136842.587   126839899.634        -670.609          29.000  
C14  25776466.369   134224829.727         953.930          30.000  
G23  25235871.142                        3060.878          19.000  
C 8  40810031.893                        1210.677          10.000  
G29  25682070.741                       -3104.977          15.000  
> 2017 12 11 12  6 27.0030000  0 18                     
G 4  22025364.932   115744051.008       -2657.791          37.000  
G14  21960004.251   115400575.591       -2122.745          30.000  
C 9  36921105.034   192257885.498        -873.274          28.000  
G31  22811186.697   119873584.849       -1044.461          35.000  
C 6  37590022.159                       -1413.325          22.000  
G32  23646082.680                       -3357.808          21.000  
G26  21624687.119                       -1639.113          28.000  
G27  23113035.232                        2926.897          24.000  
C 1  37813433.915   196904441.5193       -352.541          29.000  
C10  37988229.531                        -707.107          17.000  
G22  23932182.795                       -1364.012          24.000  
C 7  37707038.380                        -743.701          23.000  
G16  21348376.366   112186474.0753        152.367          27.000  
G 3  24136970.890   126840570.884        -669.747          29.000  
C14  25776282.937   134223876.364         952.697          29.000  
G23  25235285.260                        3060.525          19.000  
C 8  40809800.399                        1210.677          10.000  
G29  25682663.769                       -3095.042          15.000  
> 2017 12 11 12  6 28.0030000  0 17                     
G 4  22025870.499   115746708.393       -2657.281          37.000  
G14  21960410.937   115402698.221       -2123.896          30.000  
C 9  36921275.401   192258758.945        -873.614          28.000  
G31  22811385.577   119874628.984       -1043.983          35.000  
C 6  37590291.751                       -1425.159          22.000  
G32  23646724.547                       -3353.535          22.000  
G26  21625001.244                       -1637.537          27.000  
G27  23112475.604                        2932.286          24.000  
C 1  37813501.212                        -357.812          30.000  
C10  37988365.586                        -720.195          17.000  
G22  23932443.745                       -1370.986          24.000  
C 7  37707176.708                        -713.783          23.000  
G16  21348351.264   112186321.7062        152.184          26.000  
G 3  24137095.388   126841242.645        -671.872          29.000  
G23  25234702.650                        3046.065          18.000  
C 8  40809568.503                        1210.677          11.000  
G29  25683258.324                       -3126.292          15.000  
> 2017 12 11 12  6 29.0030000  0 17                     
G 4  22026376.141   115749365.969       -2657.697          36.000  
G14  21960815.782   115404821.193       -2123.547          30.000  
C 9  36921442.434   192259632.426        -873.286          28.000  
G31  22811584.470   119875673.047       -1043.819          35.000  
C 6  37590563.866                       -1408.621          22.000  
G32  23647369.258                       -3357.837          23.000  
G26  21625304.302   113641787.6283      -1638.870          27.000  
G27  23111913.938                        2923.178          23.000  
C 1  37813568.295                        -365.918          29.000  
C10  37988502.291                        -720.195          16.000  
G22  23932707.632                       -1357.196          24.000  
C 7  37707314.521                        -718.833          23.000  
G16  21348317.711   112186169.9122        151.338          27.000  
G 3  24137225.763   126841914.809        -672.720          29.000  
C14  25775920.173   134221948.6791        952.243          31.000  
G23  25234121.331                        3046.065          17.000  
G29  25683855.314                       -3123.392          15.000  
> 2017 12 11 12  6 30.0030000  0 18                     
G 4  22026881.875   115752023.679       -2657.833          36.000  
G14  21961218.381   115406944.565       -2123.213          30.000  
C 9  36921611.824   192260506.027        -874.104          27.000  
G31  22811783.224   119876717.099       -1043.673          35.000  
C 6  37590835.858                       -1411.490          21.000  
G32  23648010.754                       -3353.479          23.000  
G26  21625619.540   113643427.5842      -1640.439          27.000  
G27  23111353.843                        2925.125          21.000  
C 1  37813635.496                        -350.049          29.000  
C10  37988637.958                        -711.099          17.000  
G22  23932967.762                       -1368.171          24.000  
C 7  37707451.510                        -717.931          23.000  
G16  21348285.891                         151.768          26.000  
G 3  24137357.534   126842587.358        -672.733          29.000  
C14  25775740.553   134220996.428         951.564          32.000  
G23  25233538.314                        3057.063          16.000  
C 8  40809102.268                        1210.677          11.000  
G29  25684447.125                       -3107.619          17.000  
> 2017 12 11 12  6 31.0030000  0 17                     
G 4  22027387.704   115754680.748       -2655.839          36.000  
G14  21961627.230   115409067.659       -2122.327          29.000  
C 9  36921779.812   192261378.818        -871.170          26.000  
G31  22811982.021   119877760.363       -1042.555          34.000  
C 6  37591106.345                       -1409.840          21.000  
G32  23648649.467                       -3341.095          24.000  
G26  21625937.915   113645066.8102      -1638.493          27.000  
G27  23110797.887                        2931.502          20.000  
C 1  37813702.601   196905840.8042       -349.709          30.000  
C10  37988773.542                        -705.871          16.000  
G22  23933228.442                       -1372.554          22.000  
C 7  37707587.918                        -714.204          25.000  
G16  21348255.999                         152.556          26.000  
G 3  24137483.843   126843259.509        -670.918          30.000  
C14  25775557.309   134220043.711         954.235          33.000  
G23  25232954.871                        3057.063          15.000  
G29  25685041.191                       -3115.135          17.000  
> 2017 12 11 12  6 32.0030000  0 17                     
G 4  22027893.634   115757337.077       -2656.278          37.000  
G14  21962029.227   115411190.317       -2123.169          29.000  
C 9  36921947.230   192262251.054        -873.015          26.000  
G31  22812180.556   119878802.685       -1042.163          33.000  
C 6  37591377.504                       -1403.219          20.000  
G32  23649286.836                       -3355.968          23.000  
G26  21626248.795   113646705.1242      -1638.597          27.000  
G27  23110241.217                        2936.348          19.000  
C 1  37813769.806                        -349.609          30.000  
C10  37988910.400                        -716.148          18.000  
G22  23933491.487                       -1366.978          22.000  
C 7  37707721.561                        -715.353          25.000  
G16  21348227.991                         152.818          26.000  
G 3  24137611.888   126843931.231        -672.267          30.000  
C14  25775371.564   134219090.560         952.529          32.000  
G23  25232371.842                        3049.980          15.000  
G29  25685633.617                       -3113.542          17.000  
> 2017 12 11 12  6 33.0030000  0 17                     
G 4  22028399.476   115759994.612       -2658.719          37.000  
G14  21962432.301   115413314.405       -2125.576          30.000  
C 9  36922114.163   192263124.161        -874.374          26.000  
G31  22812379.231   119879846.013       -1044.500          34.000  
C 6  37591647.969                       -1417.421          20.000  
G32  23649924.301                       -3357.095          22.000  
G26  21626559.815   113648344.7012      -1641.083          29.000  
G27  23109683.708                        2934.143          18.000  
C 1  37813837.334   196906542.2852       -351.988          29.000  
C10  37989049.312                        -710.792          19.000  
G22  23933753.297                       -1373.031          24.000  
C 7  37707859.937                        -715.657          25.000  
G16  21348200.791                         149.347          26.000  
G 3  24137735.270   126844604.356        -674.182          30.000  
C14  25775186.932   134218138.759         950.502          31.000  
G23  25231789.942                        3051.896          18.000  
G29  25686227.121                       -3104.195          19.000  
> 2017 12 11 12  6 34.0030000  0 17                     
G 4  22028905.450   115762653.617       -2658.875          37.000  
G14  21962840.452   115415440.242       -2125.675          31.000  
C 9  36922280.834   192263998.752        -874.672          26.000  
G31  22812577.767   119880890.663       -1044.656          34.000  
C 6  37591920.751                       -1417.421          20.000  
G32  23650563.856                       -3362.264          20.000  
G26  21626872.453   113649986.1042      -1641.487          29.000  
G27  23109125.951                        2926.531          19.000  
C 1  37813906.044                        -358.447          29.000  
C10  37989187.252                        -708.294          20.000  
G22  23934016.756                       -1376.904          24.000  
C 7  37707995.791                        -717.766          26.000  
G16  21348168.364   112185381.6653        148.514          27.000  
G 3  24137868.141   126845279.204        -675.245          29.000  
C14  25775005.214   134217188.612         949.855          30.000  
G23  25231208.706                        3047.157          19.000  
G29  25686819.796                       -3115.261          18.000  
> 2017 12 11 12  6 35.0030000  0 17                     
G 4  22029411.851   115765313.078       -2659.518          38.000  
G14  21963244.866   115417566.781       -2126.385          31.000  
C 9  36922447.850   192264873.699        -874.809          26.000  
G31  22812776.665   119881935.510       -1044.490          35.000  
C 6  37592191.448                       -1420.378          20.000  
G32  23651201.923                       -3360.043          20.000  
G26  21627184.345   113651627.8392      -1640.993          28.000  
G27  23108571.589                        2928.214          20.000  
C 1  37813973.747   196907252.2913       -351.820          30.000  
C10  37989324.166                        -713.917          19.000  
G22  23934283.033                       -1372.633          23.000  
C 7  37708133.683                        -715.678          25.000  
G16  21348135.745   112185233.2982        148.569          27.000  
G 3  24137994.258   126845954.674        -675.166          29.000  
C14  25774824.469   134216239.090         949.074          30.000  
G23  25230627.243                        3048.487          20.000  
G29  25687410.699                       -3084.011          17.000  
> 2017 12 11 12  6 36.0030000  0 17                     
G 4  22029918.117   115767972.627       -2659.796          39.000  
G14  21963648.930   115419693.705       -2126.801          32.000  
C 9  36922616.385   192265748.710        -875.516          26.000  
G31  22812975.331   119882980.313       -1045.125          35.000  
C 6  37592462.877                       -1415.115          20.000  
G32  23651841.901                       -3349.621          19.000  
G26  21627491.482   113653269.8362      -1642.140          28.000  
G27  23108016.912                        2936.293          21.000  
C 1  37814041.388   196907605.0903       -352.453          29.000  
C10  37989462.376                        -717.533          19.000  
G22  23934548.865                       -1381.172          22.000  
C 7  37708273.546                        -718.088          24.000  
G16  21348107.606   112185085.3912        147.659          28.000  
G 3  24138122.229   126846630.627        -676.145          29.000  
C14  25774639.008   134215289.929         949.008          30.000  
G23  25230045.854                        3051.626          20.000  
G29  25687997.760                       -3084.011          16.000  
> 2017 12 11 12  6 37.0030000  0 16                     
G 4  22030424.330   115770632.210       -2659.503          39.000  
G14  21964053.125   115421820.971       -2127.298          32.000  
C 9  36922783.828                        -876.280          26.000  
G31  22813173.862   119884024.942       -1044.551          35.000  
C 6  37592735.358                       -1418.579          20.000  
G32  23652480.911                       -3353.322          21.000  
G26  21627798.453   113654911.5251      -1642.212          27.000  
G27  23107461.947                        2930.137          21.000  
C 1  37814109.204                        -352.490          30.000  
C10  37989598.414                        -704.747          19.000  
G22  23934810.758                       -1371.292          22.000  
C 7  37708409.902                        -716.566          24.000  
G16  21348083.530   112184937.7902        147.236          28.000  
G 3  24138248.913   126847306.753        -675.895          29.000  
G23  25229467.301                        3056.324          20.000  
G29  25688587.097                       -3114.246          16.000  
> 2017 12 11 12  6 38.0030000  0 17                     
G 4  22030930.622   115773291.969       -2659.897          39.000  
G14  21964458.031   115423948.680       -2127.951          32.000  
C 9  36922954.400   192267480.7693       -875.241          27.000  
G31  22813372.428   119885069.608       -1045.083          34.000  
C 6  37593007.673                       -1421.239          20.000  
G32  23653118.289                       -3353.642          21.000  
G26  21628114.071   113656553.824       -1642.457          27.000  
G27  23106906.109                        2930.330          22.000  
C 1  37814176.575                        -350.098          30.000  
C10  37989736.336                        -710.654          18.000  
G22  23935074.082                       -1363.933          21.000  
C 7  37708545.617                        -706.793          22.000  
G16  21348051.286   112184790.6232        146.468          28.000  
G 3  24138380.562   126847983.329        -676.476          29.000  
C 8  40807246.525                        1221.197          14.000  
G23  25228886.985                        3043.644          19.000  
G29  25689179.741                       -3112.450          16.000  
> 2017 12 11 12  6 39.0030000  0 17                     
G 4  22031436.813   115775951.822       -2659.844          39.000  
G14  21964863.722   115426076.716       -2128.310          32.000  
C 9  36923122.236   192268355.8902       -875.605          27.000  
G31  22813570.868   119886114.130       -1044.257          36.000  
C 6  37593277.549                       -1410.183          21.000  
G32  23653759.074                       -3363.777          22.000  
G26  21628423.655   113658196.336       -1643.132          28.000  
G27  23106351.834                        2929.218          23.000  
C 1  37814244.146   196908660.8792       -351.324          29.000  
C10  37989872.801                        -710.654          17.000  
G22  23935336.167                       -1377.257          22.000  
C 7  37708683.526                        -717.740          21.000  
G16  21348032.130   112184643.8152        146.240          28.000  
G 3  24138510.008   126848660.271        -676.947          29.000  
C 8  40807009.760                        1221.197          15.000  
G23  25228309.278                        3054.522          21.000  
G29  25689770.335                       -3112.450          15.000  
> 2017 12 11 12  6 40.0030000  0 16                     
G 4  22031943.384   115778611.824       -2659.894          39.000  
G14  21965269.479   115428205.219       -2128.110          32.000  
C 9  36923291.206   192269231.0812       -875.802          27.000  
G31  22813769.669   119887158.607       -1043.977          35.000  
C 6  37593548.695                       -1412.957          21.000  
G32  23654398.227                       -3359.930          23.000  
G26  21628738.448   113659787.5973      -1643.797          26.000  
G27  23105797.580                        2924.777          24.000  
C 1  37814311.221   196909010.0963       -351.504          29.000  
C10  37990008.764                        -707.448          18.000  
G22  23935598.727                       -1376.465          22.000  
C 7  37708821.169                        -721.094          19.000  
G16  21348001.160   112184497.3522        146.959          28.000  
G 3  24138638.319   126849337.694        -678.508          30.000  
C 8  40806774.409                        1210.943          14.000  
G29  25690364.502                       -3117.066          15.000  
> 2017 12 11 12  6 41.0030000  0 16                     
G 4  22032449.960   115781271.753       -2659.561          39.000  
G14  21965674.529   115430333.942       -2128.641          32.000  
C 9  36923459.797   192270106.1522       -874.892          27.000  
G31  22813968.218   119888202.830       -1043.125          35.000  
C 6  37593821.830                       -1414.359          21.000  
G32  23655035.941                       -3358.681          22.000  
G26  21629053.979                       -1642.777          26.000  
G27  23105242.445                        2933.713          24.000  
C 1  37814378.430                        -357.324          29.000  
C10  37990146.137                        -713.346          18.000  
G22  23935860.402                       -1383.284          22.000  
C 7  37708957.468                        -710.545          20.000  
G16  21347971.822   112184351.2312        146.689          27.000  
G 3  24138769.196   126850015.238        -676.885          30.000  
C 8  40806545.829                        1200.567          14.000  
G29  25690959.210                       -3117.066          15.000  
> 2017 12 11 12  6 42.0030000  0 17                     
G 4  22032956.029   115783930.625       -2659.143          38.000  
G14  21966079.335   115432461.860       -2128.230          32.000  
C 9  36923628.292   192270980.0152       -873.856          27.000  
G31  22814166.819   119889245.889       -1042.910          35.000  
C 6  37594093.561                       -1412.560          21.000  
G32  23655675.134                       -3361.875          22.000  
G26  21629368.707   113663099.4842      -1641.161          28.000  
G27  23104682.144                        2942.256          22.000  
C 1  37814445.858                        -348.926          29.000  
C10  37990283.876                        -713.346          17.000  
G22  23936123.298                       -1371.659          21.000  
C 7  37709093.148                        -712.075          19.000  
G16  21347941.005   112184204.3152        146.832          26.000  
G 3  24138893.363   126850691.893        -676.637          30.000  
C 8  40806318.208                        1200.567          13.000  
G23  25226568.353                        3061.555          25.000  
G29  25691552.727                       -3114.373          16.000  
> 2017 12 11 12  6 43.0030000  0 17                     
G 4  22033462.155   115786590.168       -2660.309          38.000  
G14  21966484.141   115434590.667       -2129.767          32.000  
C 9  36923794.933   192271854.5882       -875.316          27.000  
G31  22814365.598   119890289.398       -1044.771          35.000  
C 6  37594367.804                       -1411.651          20.000  
G32  23656313.690                       -3358.928          21.000  
G26  21629685.637   113664742.0822      -1643.652          30.000  
G27  23104122.843                        2938.226          21.000  
C 1  37814513.656   196910064.5842       -350.176          29.000  
C10  37990419.704                        -713.346          16.000  
G22  23936378.211                       -1372.638          20.000  
C 7  37709232.161                        -715.167          17.000  
G16  21347915.754   112184058.311         145.470          27.000  
G 3  24139022.835   126851369.640        -679.049          29.000  
C 8  40806089.021                        1200.567          14.000  
G23  25225986.938                        3055.430          25.000  
G29  25692144.791                       -3114.373          16.000  
> 2017 12 11 12  6 44.0030000  0 17                     
G 4  22033968.535   115789251.160       -2661.380          39.000  
G14  21966889.208   115436721.350       -2131.797          31.000  
C 9  36923963.397   192272730.5222       -876.264          28.000  
G31  22814564.461   119891334.162       -1044.947          35.000  
C 6  37594638.256                       -1405.572          20.000  
G32  23656951.343                       -3354.420          20.000  
G26  21630000.509   113666386.1522      -1643.158          30.000  
G27  23103561.893                        2927.379          20.000  
C 1  37814581.224                        -348.975          29.000  
C10  37990557.159                        -708.151          16.000  
G22  23936636.008                       -1381.564          19.000  
C 7  37709368.408                        -715.167          16.000  
G16  21347888.331   112183914.079         143.547          27.000  
G 3  24139150.841   126852049.026        -680.021          29.000  
C 8  40805858.844                        1212.286          14.000  
G23  25225406.125   132560403.2462       3051.075          26.000  
G29  25692737.200                       -3117.979          16.000  
> 2017 12 11 12  6 45.0030000  0 17                     
G 4  22034474.901   115791912.866       -2662.157          39.000  
G14  21967294.459   115438852.924       -2132.765          31.000  
C 9  36924131.343   192273607.066        -876.834          28.000  
G31  22814763.376   119892379.455       -1045.208          34.000  
C 6  37594909.760                       -1408.893          20.000  
G32  23657590.601                       -3361.600          20.000  
G26  21630311.660   113668031.0452      -1645.354          30.000  
G27  23103003.647                        2931.372          20.000  
C 1  37814648.909                        -341.699          29.000  
C10  37990694.846                        -718.385          17.000  
G22  23936899.427                       -1379.669          18.000  
C 7  37709506.583                        -721.671          18.000  
G16  21347865.620                         118.339          28.000  
G 3  24139283.257   126852729.348        -680.958          29.000  
C 8  40805625.591                        1212.286          15.000  
G23  25224822.240   132557351.9832       3050.366          25.000  
G29  25693330.014                       -3117.979          15.000  
> 2017 12 11 12  6 46.0030000  0 17                     
G 4  22034981.760   115794574.737       -2661.856          39.000  
G14  21967700.129   115440984.914       -2132.168          32.000  
C 9  36924297.726   192274483.695        -876.415          28.000  
G31  22814962.173   119893424.751       -1046.008          34.000  
C 6  37595181.752                       -1411.546          21.000  
G32  23658230.814                       -3362.058          20.000  
G26  21630628.604   113669676.1212      -1645.752          31.000  
G27  23102444.682                        2923.189          21.000  
C 1  37814716.650                        -367.236          29.000  
C10  37990833.771                        -710.319          17.000  
G22  23937162.018                       -1375.127          17.000  
C 7  37709644.810                        -707.593          18.000  
G16  21347831.496   112183610.9253        143.124          27.000  
G 3  24139409.701   126853410.040        -680.819          29.000  
C 8  40805394.533                        1212.286          15.000  
G23  25224239.661                        3049.376          25.000  
G29  25693923.967                       -3117.979          14.000  
> 2017 12 11 12  6 47.0030000  0 17                     
G 4  22035488.545   115797236.789       -2662.194          39.000  
G14  21968106.440   115443117.364       -2132.661          32.000  
C 9  36924468.241   192275360.445        -876.458          28.000  
G31  22815161.045   119894469.925       -1044.593          33.000  
C 6  37595454.883                       -1416.257          22.000  
G32  23658873.388                       -3362.381          21.000  
G26  21630939.340   113671321.4132      -1644.560          31.000  
G27  23101885.917                        2936.484          21.000  
C 1  37814784.676                        -346.045          29.000  
C10  37990972.980                        -710.939          17.000  
G22  23937421.224                       -1372.624          19.000  
C 7  37709782.100                        -720.007          16.000  
G16  21347812.004   112183468.5852        142.079          28.000  
G 3  24139543.994   126854091.252        -680.972          29.000  
C 8  40805161.232                        1212.286          15.000  
G23  25223661.906                        3050.917          24.000  
G29  25694516.668                       -3116.453          15.000  
> 2017 12 11 12  6 48.0030000  0 17                     
G 4  22035995.177   115799898.985       -2662.399          39.000  
G14  21968512.606   115445250.238       -2133.219          32.000  
C 9  36924637.914   192276237.345        -877.541          28.000  
G31  22815357.181   119895515.255       -1046.285          31.000  
C 6  37595725.797                       -1420.198          21.000  
G32  23659515.321                       -3356.611          22.000  
G26  21631258.543   113672967.0872      -1647.756          29.000  
G27  23101327.916                        2912.759          22.000  
C 1  37814852.762                        -353.564          30.000  
C10  37991108.263                        -716.209          18.000  
G22  23937678.601                       -1369.695          20.000  
C 7  37709920.860                        -710.426          17.000  
G16  21347783.425   112183326.5452        142.219          28.000  
G 3  24139671.756   126854772.812        -681.660          29.000  
C 8  40804928.411                        1212.286          14.000  
G23  25223082.720                        3053.536          24.000  
G29  25695110.482                       -3133.894          14.000  
> 2017 12 11 12  6 49.0030000  0 17                     
G 4  22036502.053   115802561.328       -2662.637          39.000  
G14  21968918.333   115447383.573       -2133.896          32.000  
C 9  36924806.304   192277114.212        -876.484          28.000  
G31  22815562.204   119896560.399       -1044.850          32.000  
C 6  37595997.488                       -1420.208          21.000  
G32  23660158.021                       -3362.614          23.000  
G26  21631570.091   113674612.769       -1645.917          29.000  
G27  23100770.115                        2928.715          21.000  
C 1  37814920.102   196912180.0983       -352.323          29.000  
C10  37991245.636                        -714.282          17.000  
G22  23937940.760                       -1379.823          18.000  
C 7  37710059.694                        -718.836          17.000  
G16  21347762.092   112183185.0932        140.771          29.000  
G 3  24139805.826   126855454.817        -682.319          28.000  
C 8  40804696.367                        1212.286          15.000  
G23  25222506.130                        3051.245          24.000  
G29  25695707.126                       -3133.894          13.000  
> 2017 12 11 12  6 50.0030000  0 17                     
G 4  22037008.895   115805224.062       -2663.033          39.000  
G14  21969324.596   115449517.549       -2134.135          33.000  
C 9  36924973.054   192277991.479        -877.545          29.000  
G31  22815760.451   119897605.768       -1045.989          33.000  
C 6  37596269.245                       -1416.185          21.000  
G32  23660800.416                       -3361.884          22.000  
G26  21631883.270   113676258.963       -1646.246          30.000  
G27  23100211.194                        2924.642          23.000  
C 1  37814987.360   196912530.6482       -351.264          29.000  
C10  37991382.210                        -726.649          17.000  
G22  23938199.355                       -1385.957          17.000  
C 7  37710197.446                        -719.477          16.000  
G16  21347727.846   112183044.2622        140.025          28.000  
G 3  24139928.645   126856137.380        -682.353          29.000  
C 8  40804464.620                        1212.286          15.000  
G23  25221927.782                        3050.604          25.000  
G29  25696300.233                       -3102.644          13.000  
> 2017 12 11 12  6 51.0030000  0 16                     
G 4  22037515.182   115807886.835       -2662.510          38.000  
G14  21969731.007   115451651.851       -2135.459          33.000  
C 9  36925141.776   192278868.669        -877.077          28.000  
G31  22815960.767   119898651.010       -1044.968          33.000  
C 6  37596543.789                       -1422.313          21.000  
G32  23661437.514                       -3360.948          21.000  
G26  21632201.108                       -1648.101          28.000  
G27  23099651.487                        2925.279          22.000  
C 1  37815054.456   196912880.4103       -351.296          29.000  
C10  37991520.564                        -710.252          16.000  
G22  23938460.319                       -1377.094          16.000  
C 7  37710335.512                        -721.515          17.000  
G16  21347700.968   112182903.5822        140.942          28.000  
G 3  24140061.790   126856820.245        -682.195          28.000  
G23  25221344.988                        3051.616          24.000  
G29  25696892.568                       -3102.644          13.000  
> 2017 12 11 12  6 52.0030000  0 16                     
G 4  22038021.588   115810548.738       -2660.923          37.000  
G14  21970137.108   115453785.608       -2134.324          33.000  
C 9  36925311.156   192279744.966        -875.669          28.000  
G31  22816160.009   119899695.315       -1043.916          32.000  
C 6  37596813.051                       -1422.638          21.000  
G32  23662076.925                       -3370.273          21.000  
G26  21632507.181                       -1641.332          27.000  
G27  23099094.768                        2931.242          23.000  
C 1  37815121.844   196913230.6243       -347.630          30.000  
C10  37991657.544                        -709.120          16.000  
G22  23938719.206                       -1375.755          16.000  
C 7  37710473.159                        -725.420          17.000  
G16  21347673.349   112182762.5262        141.494          28.000  
G 3  24140185.390   126857502.613        -681.153          28.000  
G23  25220761.937   132535998.1703       3054.036          26.000  
G29  25697480.269                       -3098.034          15.000  
> 2017 12 11 12  6 53.0030000  0 15                     
G 4  22038528.416   115813210.520       -2663.352          33.000  
G14  21970543.205   115455919.334       -2134.014          31.000  
C 9  36925480.641   192280621.002        -876.306          28.000  
C 6  37597085.156                       -1421.173          21.000  
G32  23662714.979                       -3355.113          21.000  
G26  21632807.023   113681168.0313      -1645.991          27.000  
G27  23098536.182                        2929.271          22.000  
C 1  37815189.133                        -358.301          29.000  
C10  37991791.317                        -698.624          19.000  
G22  23938982.373                       -1375.888          17.000  
C 7  37710609.943                        -709.512          21.000  
G16  21347648.919   112182621.5762        139.911          27.000  
G 3  24140317.348   126858184.994        -683.562          27.000  
G23  25220178.345                        3053.278          24.000  
G29  25698069.096                       -3098.034          13.000  
> 2017 12 11 12  6 54.0030000  0 16                     
G 4  22039035.471   115815873.969       -2663.759          34.000  
G14  21970949.800   115458055.099       -2137.278          31.000  
C 9  36925649.547   192281498.663        -878.670          28.000  
G31  22816555.099                       -1049.745          23.000  
C 6  37597356.511                       -1420.067          22.000  
G32  23663354.076                       -3355.113          19.000  
G26  21633118.824   113682815.2342      -1647.685          28.000  
G27  23097983.665                        2922.235          20.000  
C 1  37815256.154                        -353.320          29.000  
C10  37991925.976                        -702.211          20.000  
G22  23939245.151                       -1380.780          19.000  
C 7  37710746.460                        -718.056          22.000  
G16  21347623.764   112182482.4012        137.636          25.000  
G 3  24140457.002   126858869.405        -685.162          28.000  
G23  25219596.537                        3047.103          22.000  
G29  25698658.796                       -3098.034          12.000  
> 2017 12 11 12  6 55.0030000  0 13                     
G 4  22039539.320   115818538.018       -2665.983          31.000  
C 9  36925818.360                        -877.551          27.000  
G31  22816742.977   119902793.2473      -1048.554          33.000  
C 6  37597629.062                       -1420.067          20.000  
G32  23663990.538                       -3361.461          19.000  
G26  21633428.186   113684463.0672      -1648.232          27.000  
G27  23097431.095                        2915.529          19.000  
C10  37992062.053                        -726.491          20.000  
G22  23939509.421                       -1384.032          20.000  
C 7  37710886.529                        -707.124          25.000  
G16  21347596.049   112182374.0943        137.591          32.000  
G23  25219014.215                        3046.573          22.000  
G29  25699248.325                       -3098.034          10.000  
> 2017 12 11 12  6 56.0030000  0 15                     
G 4  22040046.725   115821226.8063      -2664.869          34.000  
G14  21971761.697   115462386.7113      -2137.471          24.000  
C 9  36925987.605                        -878.728          24.000  
G31  22816949.234   119903839.0862      -1046.479          33.000  
C 6  37597901.818                       -1420.067          17.000  
G32  23664632.182                       -3365.346          23.000  
G26  21633748.493   113686111.4392      -1648.291          33.000  
G27  23096876.077                        2930.042          18.000  
C10  37992198.967                        -710.352          28.000  
G22  23939774.346                       -1370.000          19.000  
C 7  37711023.295                        -716.369          30.000  
G16  21347566.004   112182236.6942        137.416          31.000  
G 3  24140718.045                        -684.105          22.000  
G23  25218430.160                        3045.833          22.000  
G29  25699842.016                       -3117.747          14.000  
> 2017 12 11 12  6 57.0030000  0 16                     
G 4  22040557.362   115823891.3032      -2664.728          34.000  
G14  21972169.112   115464524.5302      -2138.295          25.000  
C 9  36926156.170                        -878.728          21.000  
G31  22817147.355   119904884.9572      -1045.900          34.000  
C 6  37598174.364                       -1420.067          13.000  
G32  23665271.109                       -3365.927          23.000  
G26  21634062.715   113687760.0342      -1648.633          34.000  
G27  23096324.066                        2925.250          18.000  
C10  37992335.144   197836026.9293       -712.322          28.000  
G22  23940035.903                       -1370.000          16.000  
C 7  37711158.809   196371868.2953       -715.588          31.000  
G16  21347536.413   112182099.6352        136.813          29.000  
G 3  24140846.326                        -689.933          22.000  
C14  25770836.165                         932.711          23.000  
G23  25217851.467                        3044.882          23.000  
G29  25700438.622                       -3121.251          17.000  
> 2017 12 11 12  6 58.0030000  0 15                     
G 4  22041062.210   115826555.9632      -2664.397          37.000  
G14  21972576.583   115466662.5882      -2138.446          27.000  
C 9  36926324.918                        -878.940          16.000  
G31  22817350.541   119905930.8172      -1045.918          38.000  
G32  23665912.448                       -3359.843          23.000  
G26  21634378.507   113689408.8162      -1648.901          36.000  
G27  23095770.558                        2933.324          21.000  
C10  37992471.029   197836739.4232       -712.913          28.000  
G22  23940295.506                       -1370.000          13.000  
C 7  37711294.894   196372583.4622       -714.885          31.000  
G16  21347513.509   112181962.9362        136.433          29.000  
G 3  24140976.168                        -686.798          23.000  
C14  25770655.071                         940.353          23.000  
G23  25217271.121                        3066.223          25.000  
G29  25701034.202                       -3121.251          17.000  
